{"html_attributions": [], "next_page_token": "ATtYBwLPhtZiSpfxoKejX09szrfDvlffdmW4x--ymutl0OdfZH_D6m175_P68y9Q4ZxpIQZb2q8HF8CMAxDb_HQ-1ynUAFjztLNV1ijX9JWC9UIsZ6MLTI9PSdC6LjWOCITDoFNWC6ugkImaYFsxL3aNww-bhF7ObDm7rwLXcWAi6OynDgLpyLPk06gqC7hb9PIOXsWYbUIRnEd2A8aKRVm-h9zXwtnW6NmqAoQIpJ-G7jWs_IcjymCMx1ohbZPZozpK7mYvV67w8Kt0TQhbiM3eGlrQ4GFt8Nq3nTnRODIqcZyULNR_9L92U4Q1aV2eTJoC9sZRtOVjwXZgtJ6JcDnWZr5Hok9Ojci21oa4wkEcccjIdeftJcD4UPQDb0FBKImuepiR_WaozXpOAI1mAvEHg6bn4sUqLSlE8cbW0lrJi-eLVId7Em8xlHsJlYPOXEFqMo1l3bTQbT0RhPe-npso_OXajT5m_qeo8yTFnzk5oN7JjQlL9-Jth9AKdTi7gCK7PauZMLq0mjMWy9ho2DUvBT-cwKVUzWaFVDCLjdmSfY7GGCShWHpGrgED3ckog6rHQG4eS4WfJ8o8pgBSgeqhZFqz-7ylMKDj0Avv81UY5HTOfXxnHMnpQ90oNcOW2teliK5Y2pom730", "results": [{"business_status": "OPERATIONAL", "geometry": {"location": {"lat": 23.81520059999999, "lng": 86.46214379999999}, "viewport": {"northeast": {"lat": 23.8165979302915, "lng": 86.4636052802915}, "southwest": {"lat": 23.81389996970849, "lng": 86.4609073197085}}}, "icon": "https://maps.gstatic.com/mapfiles/place_api/icons/v1/png_71/hospital-71.png", "name": "KAYA KALP PHYSIOTHERAPY & R.CENTER", "opening_hours": {"open_now": true}, "photos": [{"height": 4160, "html_attributions": ["<a href=\"https://maps.google.com/maps/contrib/100119652328304535650\">KAYA KALP PHYSIOTHERAPY &amp; R.CENTER</a>"], "photo_reference": "ATtYBwK1aNzSZ8CUVK219r-W6Ti0_SbFiJiACeqQAAL3eO2kFJ9C_5jWU1dSFkgRr_UIYLSeeZrBmCkXck3y1OTISfA8CXtj0tYWfy04P-YxpDay76zyMu7Zal3eCFGSBeFGWCQdhtPfqoR2HedA--r1VYJWiXAeuiHIlvX0moQBm0RW8s5A", "width": 3120}], "place_id": "ChIJYVFD2pW99jkR8RLcJCgL-1k", "plus_code": {"compound_code": "RF86+3V Dhanbad, Jharkhand, India", "global_code": "7MM8RF86+3V"}, "rating": 4.8, "reference": "ChIJYVFD2pW99jkR8RLcJCgL-1k", "scope": "GOOGLE", "types": ["hospital", "health", "point_of_interest", "establishment"], "user_ratings_total": 22, "vicinity": "Shanti Colony, Dhanbad"}, {"business_status": "OPERATIONAL", "geometry": {"location": {"lat": 23.8147859, "lng": 86.46244589999999}, "viewport": {"northeast": {"lat": 23.8161675302915, "lng": 86.46387083029151}, "southwest": {"lat": 23.8134695697085, "lng": 86.4611728697085}}}, "icon": "https://maps.gstatic.com/mapfiles/place_api/icons/v1/png_71/hospital-71.png", "name": "Tara Nursing Home", "photos": [{"height": 1080, "html_attributions": ["<a href=\"https://maps.google.com/maps/contrib/112667669774307728194\">T Singh</a>"], "photo_reference": "ATtYBwJu8bPchthrIWZAhGuvkcHDvlpiBElkHJp-Zkl49RkAACMR07M-mzA7K713pM1FUtNNg0e4qftT9zEE5PYvvSW9rS0Qe670mDUrzHpYHBQg4P5Scc3HeCUMkf80t4C1I0CXkKu104XjZs_k0u-ooBcOhxCCXbx2I6w5UcYmzKNFPM-I", "width": 1920}], "place_id": "ChIJVbxC43689jkRWfahdoe3z3w", "plus_code": {"compound_code": "RF76+WX Dhanbad, Jharkhand, India", "global_code": "7MM8RF76+WX"}, "reference": "ChIJVbxC43689jkRWfahdoe3z3w", "scope": "GOOGLE", "types": ["hospital", "health", "point_of_interest", "establishment"], "vicinity": "Shanti Colony, Dhanbad"}, {"business_status": "OPERATIONAL", "geometry": {"location": {"lat": 23.8138896, "lng": 86.4630581}, "viewport": {"northeast": {"lat": 23.8152690802915, "lng": 86.46445808029151}, "southwest": {"lat": 23.8125711197085, "lng": 86.4617601197085}}}, "icon": "https://maps.gstatic.com/mapfiles/place_api/icons/v1/png_71/hospital-71.png", "name": "\u092c\u0930\u094d\u0928 \u0935\u093e\u0930\u094d\u0921", "place_id": "ChIJw-lSf1O99jkRMZCBJXZH7GA", "plus_code": {"compound_code": "RF77+H6 Dhanbad, Jharkhand, India", "global_code": "7MM8RF77+H6"}, "rating": 5, "reference": "ChIJw-lSf1O99jkRMZCBJXZH7GA", "scope": "GOOGLE", "types": ["hospital", "health", "point_of_interest", "establishment"], "user_ratings_total": 1, "vicinity": "Patliputra Medical College, Dhanbad"}, {"business_status": "OPERATIONAL", "geometry": {"location": {"lat": 23.8127142, "lng": 86.4636888}, "viewport": {"northeast": {"lat": 23.8141025302915, "lng": 86.4650769302915}, "southwest": {"lat": 23.8114045697085, "lng": 86.4623789697085}}}, "icon": "https://maps.gstatic.com/mapfiles/place_api/icons/v1/png_71/hospital-71.png", "name": "PG BLOCK", "photos": [{"height": 3376, "html_attributions": ["<a href=\"https://maps.google.com/maps/contrib/114781341483612269370\">Ashmita Ray</a>"], "photo_reference": "ATtYBwKpijXvwwdvXj2R1nrlxJZaCHBJKdChk_v-y-bc7wREeVjYKwtUrT04iE-nRUL0skPw-hCsw-KJmCO0Gu_b070KNTxqIBIpblKazezeuJzrp_vSkj86yP_xAR-vjSzW_Asm6DnFOtz-WgMm0OXf1mMIXxERDkG3Ukn5tX5o46V1fNrY", "width": 5984}], "place_id": "ChIJe865nI299jkRWxnv2mQ1VNI", "plus_code": {"compound_code": "RF77+3F Dhanbad, Jharkhand, India", "global_code": "7MM8RF77+3F"}, "rating": 4, "reference": "ChIJe865nI299jkRWxnv2mQ1VNI", "scope": "GOOGLE", "types": ["hospital", "health", "point_of_interest", "establishment"], "user_ratings_total": 1, "vicinity": "Patliputra Medical College, Dhanbad"}, {"business_status": "OPERATIONAL", "geometry": {"location": {"lat": 23.8124587, "lng": 86.4640321}, "viewport": {"northeast": {"lat": 23.8139087302915, "lng": 86.46538393029151}, "southwest": {"lat": 23.8112107697085, "lng": 86.4626859697085}}}, "icon": "https://maps.gstatic.com/mapfiles/place_api/icons/v1/png_71/hospital-71.png", "name": "General Medicine and Pediatrics Department PMCH", "photos": [{"height": 768, "html_attributions": ["<a href=\"https://maps.google.com/maps/contrib/114781341483612269370\">Ashmita Ray</a>"], "photo_reference": "ATtYBwKOI0bnaQBpe_JyeVmw7ohlP8w2Qh_nlu31q0vaxKaMT3ZRnxLmDK8yGv1k1IMxfAJi7wYpIojq3C6Ji861jFTXbVPuk67HRnEchfgIrAsWpzx0BV36Uzk-hSfu2sLMRZwHJQDBaFpoztDgS7xNWvrUVkNwjr_s3-tu5d6HBzx9HRRW", "width": 1152}], "place_id": "ChIJmZRdC6y99jkRWW2iz02b40o", "plus_code": {"compound_code": "RF67+XJ Dhanbad, Jharkhand, India", "global_code": "7MM8RF67+XJ"}, "rating": 4, "reference": "ChIJmZRdC6y99jkRWW2iz02b40o", "scope": "GOOGLE", "types": ["hospital", "health", "point_of_interest", "establishment"], "user_ratings_total": 1, "vicinity": "PMCH Road, Bank Colony, Kusum Vihar, Murli Nagar, Dhanbad"}, {"business_status": "OPERATIONAL", "geometry": {"location": {"lat": 23.8127524, "lng": 86.4635775}, "viewport": {"northeast": {"lat": 23.8141551302915, "lng": 86.4649809802915}, "southwest": {"lat": 23.8114571697085, "lng": 86.4622830197085}}}, "icon": "https://maps.gstatic.com/mapfiles/place_api/icons/v1/png_71/hospital-71.png", "name": "Surgery and Anesthesia Department PMCH", "place_id": "ChIJKdpPuDO99jkRx6ebv-tmzdk", "plus_code": {"compound_code": "RF77+4C Dhanbad, Jharkhand, India", "global_code": "7MM8RF77+4C"}, "reference": "ChIJKdpPuDO99jkRx6ebv-tmzdk", "scope": "GOOGLE", "types": ["hospital", "health", "point_of_interest", "establishment"], "vicinity": "PMCH Road, Bank Colony, Kusum Vihar, Murli Nagar, Dhanbad"}, {"business_status": "OPERATIONAL", "geometry": {"location": {"lat": 23.8166044, "lng": 86.4604933}, "viewport": {"northeast": {"lat": 23.8179232302915, "lng": 86.46177523029151}, "southwest": {"lat": 23.8152252697085, "lng": 86.4590772697085}}}, "icon": "https://maps.gstatic.com/mapfiles/place_api/icons/v1/png_71/hospital-71.png", "name": "CCWO Dispensary", "opening_hours": {"open_now": true}, "place_id": "ChIJAYBOlX-89jkRN1XJVvCVP6E", "plus_code": {"compound_code": "RF86+J5 Dhanbad, Jharkhand, India", "global_code": "7MM8RF86+J5"}, "rating": 5, "reference": "ChIJAYBOlX-89jkRN1XJVvCVP6E", "scope": "GOOGLE", "types": ["hospital", "health", "point_of_interest", "establishment"], "user_ratings_total": 1, "vicinity": "CCWO Colony, Dhanbad"}, {"business_status": "OPERATIONAL", "geometry": {"location": {"lat": 23.81217659999999, "lng": 86.4642666}, "viewport": {"northeast": {"lat": 23.8133617802915, "lng": 86.46549418029151}, "southwest": {"lat": 23.81066381970849, "lng": 86.4627962197085}}}, "icon": "https://maps.gstatic.com/mapfiles/place_api/icons/v1/png_71/hospital-71.png", "name": "J. P. Hospital and Research centre", "opening_hours": {"open_now": true}, "photos": [{"height": 768, "html_attributions": ["<a href=\"https://maps.google.com/maps/contrib/105193025043605371871\">J. P. Hospital and Research centre</a>"], "photo_reference": "ATtYBwKY1vHkWMaTvHysvYkg06keslZRtz9qNO39cT52oQ-aWiyrDL3Vh6Jy_tfWp7jsQI1bM_PNv_kEVAPJHcROPjee8tpOHbvA75_aHoerRUk9kzDYFxskFpbL66BFrDMgliP9xl8Qt3owAU9dLg0BMzgFxzeWBZ7JP5p-RFfgvKVsEpSN", "width": 1024}], "place_id": "ChIJobaW8_S99jkRIU9FqRJYD_U", "plus_code": {"compound_code": "RF67+VP Saraidhella, Jharkhand, India", "global_code": "7MM8RF67+VP"}, "rating": 2.5, "reference": "ChIJobaW8_S99jkRIU9FqRJYD_U", "scope": "GOOGLE", "types": ["hospital", "health", "point_of_interest", "establishment"], "user_ratings_total": 4, "vicinity": "Kalakusuma, Kolakusma, Manjhladih, Saraidhella"}, {"business_status": "OPERATIONAL", "geometry": {"location": {"lat": 23.8121765, "lng": 86.4642666}, "viewport": {"northeast": {"lat": 23.8133617302915, "lng": 86.46549423029151}, "southwest": {"lat": 23.8106637697085, "lng": 86.46279626970849}}}, "icon": "https://maps.gstatic.com/mapfiles/place_api/icons/v1/png_71/hospital-71.png", "name": "New Madan Medical", "place_id": "ChIJMzzuwsK99jkRE0ctRZldJFU", "plus_code": {"compound_code": "RF67+VP Saraidhella, Jharkhand, India", "global_code": "7MM8RF67+VP"}, "reference": "ChIJMzzuwsK99jkRE0ctRZldJFU", "scope": "GOOGLE", "types": ["hospital", "health", "point_of_interest", "establishment"], "vicinity": "Main Road, Saraidhella"}, {"business_status": "OPERATIONAL", "geometry": {"location": {"lat": 23.810478, "lng": 86.471811}, "viewport": {"northeast": {"lat": 23.81180858029151, "lng": 86.47323718029152}, "southwest": {"lat": 23.80911061970851, "lng": 86.4705392197085}}}, "icon": "https://maps.gstatic.com/mapfiles/place_api/icons/v1/png_71/hospital-71.png", "name": "Dr. Pratima Karan", "place_id": "ChIJs6b6p5K99jkRMvjOj1K1sKc", "plus_code": {"compound_code": "RF6C+5P Dhanbad, Jharkhand, India", "global_code": "7MM8RF6C+5P"}, "reference": "ChIJs6b6p5K99jkRMvjOj1K1sKc", "scope": "GOOGLE", "types": ["hospital", "health", "point_of_interest", "establishment"], "vicinity": "Murli Nagar, Dhanbad"}, {"business_status": "OPERATIONAL", "geometry": {"location": {"lat": 23.8137791, "lng": 86.46126369999999}, "viewport": {"northeast": {"lat": 23.8151485802915, "lng": 86.46259733029152}, "southwest": {"lat": 23.8124506197085, "lng": 86.4598993697085}}}, "icon": "https://maps.gstatic.com/mapfiles/place_api/icons/v1/png_71/hospital-71.png", "name": "ORTHO CLINIC", "place_id": "ChIJmat9Y1G99jkRh4OLeCwRSW8", "plus_code": {"compound_code": "RF76+GG Dhanbad, Jharkhand, India", "global_code": "7MM8RF76+GG"}, "reference": "ChIJmat9Y1G99jkRh4OLeCwRSW8", "scope": "GOOGLE", "types": ["hospital", "health", "point_of_interest", "establishment"], "vicinity": "Steel Gate, Chanakya Nagar, Dhanbad"}, {"business_status": "OPERATIONAL", "geometry": {"location": {"lat": 23.8301651, "lng": 86.4692704}, "viewport": {"northeast": {"lat": 23.8315190302915, "lng": 86.4706142802915}, "southwest": {"lat": 23.8288210697085, "lng": 86.46791631970848}}}, "icon": "https://maps.gstatic.com/mapfiles/place_api/icons/v1/png_71/generic_business-71.png", "name": "Dhanbad Blessing Foundation Nasha Mukti Kendra, Rehabilitation and De-Addiction Center", "opening_hours": {"open_now": true}, "photos": [{"height": 2160, "html_attributions": ["<a href=\"https://maps.google.com/maps/contrib/105925852507646216999\">Dhanbad Blessing Foundation Nasha Mukti Kendra, Rehabilitation and De-Addiction Center</a>"], "photo_reference": "ATtYBwKmTGd6HYD98kvaOGzwxr6fNwE1WTh-CrRKFwaiHe5IyYHQjEeLttdGVEU2VPybBAfffcGdhmEKYRm9UUHb5BTNgXKS1e3UcFd2Dqyu9HLEfNB2Eb6ZZ9-kb6QsXQFvBKZuhwCubBr5pLQNO-OjhLe9KZPGEGsHL2CELJlSfbWKm3Nv", "width": 3840}], "place_id": "ChIJX8dUS4O79jkRiltyGfhhO1U", "plus_code": {"compound_code": "RFJ9+3P Dhanbad, Jharkhand, India", "global_code": "7MM8RFJ9+3P"}, "rating": 4.8, "reference": "ChIJX8dUS4O79jkRiltyGfhhO1U", "scope": "GOOGLE", "types": ["hospital", "health", "point_of_interest", "establishment"], "user_ratings_total": 11, "vicinity": "near Royal Enfield Showroom, Street Number 1 Shivam Colony Govindpur, near Royal Enfield Showroom, Main Road, Dhanbad"}, {"business_status": "OPERATIONAL", "geometry": {"location": {"lat": 23.8137043, "lng": 86.4610249}, "viewport": {"northeast": {"lat": 23.8150324302915, "lng": 86.4623857302915}, "southwest": {"lat": 23.8123344697085, "lng": 86.4596877697085}}}, "icon": "https://maps.gstatic.com/mapfiles/place_api/icons/v1/png_71/hospital-71.png", "name": "Sanjivni Netralaya Dhanbad", "place_id": "ChIJnevpQn689jkR3cwFrWjKrCw", "plus_code": {"compound_code": "RF76+FC Dhanbad, Jharkhand, India", "global_code": "7MM8RF76+FC"}, "reference": "ChIJnevpQn689jkR3cwFrWjKrCw", "scope": "GOOGLE", "types": ["hospital", "health", "point_of_interest", "establishment"], "vicinity": "Saraidhela Road, Steel Gate, Kusum Vihar, Murli Nagar, Dhanbad"}, {"business_status": "OPERATIONAL", "geometry": {"location": {"lat": 23.8131582, "lng": 86.4612714}, "viewport": {"northeast": {"lat": 23.8145279802915, "lng": 86.46247868029151}, "southwest": {"lat": 23.8118300197085, "lng": 86.45978071970849}}}, "icon": "https://maps.gstatic.com/mapfiles/place_api/icons/v1/png_71/generic_business-71.png", "name": "NETRAJYOTI EYE CENTRE", "opening_hours": {"open_now": true}, "photos": [{"height": 960, "html_attributions": ["<a href=\"https://maps.google.com/maps/contrib/114278166501956109806\">NETRAJYOTI EYE CENTRE</a>"], "photo_reference": "ATtYBwJYBHREZc9SMRN-lAMyPd9F4OROZC7BtmIQAr6IvLJ9rxDTWQoupv3bwT48p4IQG5moGUocTHFMLdIWS95F_3eYsnEhbscklGUW3V2aKyIWjZT_PQP3-7Qb7yFgIXtwgEMY1W-lyRrKA-7vzrAuqs9tMzCf8A0zAws1-eDQE_dB9RiY", "width": 1280}], "place_id": "ChIJLQE2aOO99jkRYOqDIpB-pkw", "plus_code": {"compound_code": "RF76+7G Saraidhella, Jharkhand, India", "global_code": "7MM8RF76+7G"}, "rating": 5, "reference": "ChIJLQE2aOO99jkRYOqDIpB-pkw", "scope": "GOOGLE", "types": ["hospital", "doctor", "health", "point_of_interest", "establishment"], "user_ratings_total": 1, "vicinity": "below Bank Of Baroda, Amba Tower, below Bank Of Baroda, Steel Gate, Saraidhella"}, {"business_status": "OPERATIONAL", "geometry": {"location": {"lat": 23.8105916, "lng": 86.46394629999999}, "viewport": {"northeast": {"lat": 23.8119410802915, "lng": 86.4653080802915}, "southwest": {"lat": 23.8092431197085, "lng": 86.4626101197085}}}, "icon": "https://maps.gstatic.com/mapfiles/place_api/icons/v1/png_71/hospital-71.png", "name": "PMCH flagging ground", "place_id": "ChIJYznpV1C99jkRF9TT3dufNS8", "plus_code": {"compound_code": "RF67+6H Dhanbad, Jharkhand, India", "global_code": "7MM8RF67+6H"}, "reference": "ChIJYznpV1C99jkRF9TT3dufNS8", "scope": "GOOGLE", "types": ["hospital", "health", "point_of_interest", "establishment"], "vicinity": "Unnamed Road, Kusum Vihar, Murli Nagar, Dhanbad"}, {"business_status": "OPERATIONAL", "geometry": {"location": {"lat": 23.8108088, "lng": 86.4632559}, "viewport": {"northeast": {"lat": 23.81213938029151, "lng": 86.46465118029151}, "southwest": {"lat": 23.8094414197085, "lng": 86.46195321970849}}}, "icon": "https://maps.gstatic.com/mapfiles/place_api/icons/v1/png_71/hospital-71.png", "name": "Maa Shardha Medical", "photos": [{"height": 1920, "html_attributions": ["<a href=\"https://maps.google.com/maps/contrib/116009144172800383125\">Sukesh Kumar</a>"], "photo_reference": "ATtYBwLI8oyaW7ctprROq2fZVXsVVzu29vgn-4QkIzP5cCeHDr5CXk9deL56Cr0jwXHNY3--qGt62ORM8MPg0zKBqTJ-P8GSueQX4cicTrVGP4bD1gDdpg102BQ-b4iOwjpS8icrKFfNaVTNWExomxumL8gU6OfrJ8cJuUTLIQEabjW1wM49", "width": 1080}], "place_id": "ChIJNSpF7VW99jkRpgkNF4G9Lvk", "plus_code": {"compound_code": "RF67+88 Dhanbad, Jharkhand, India", "global_code": "7MM8RF67+88"}, "reference": "ChIJNSpF7VW99jkRpgkNF4G9Lvk", "scope": "GOOGLE", "types": ["hospital", "health", "point_of_interest", "establishment"], "vicinity": "opp. PMCH, Murli Nagar, Dhanbad"}, {"business_status": "OPERATIONAL", "geometry": {"location": {"lat": 23.8104508, "lng": 86.46379309999999}, "viewport": {"northeast": {"lat": 23.8118591802915, "lng": 86.46515513029149}, "southwest": {"lat": 23.8091612197085, "lng": 86.46245716970849}}}, "icon": "https://maps.gstatic.com/mapfiles/place_api/icons/v1/png_71/hospital-71.png", "name": "OPD BLOCK", "photos": [{"height": 1280, "html_attributions": ["<a href=\"https://maps.google.com/maps/contrib/114781341483612269370\">Ashmita Ray</a>"], "photo_reference": "ATtYBwIQf6GXzF72mReyMSyvZ0o-1m2W-ourAW84LgNCm_s6-lB_ZknLTgPQUUYmLfCJgeVFreV_YjjwO5-0NG-tU-NPp4iAcrVFW4W-Jyfvlw-MO0UaBpHnaLSp2lnZeziD_ywhVyZA2vmS4THz4uIjDedZTWvuXpqJKhjybgVvtQmhUwWo", "width": 960}], "place_id": "ChIJtcwSqi-99jkRbyt81a-eyU8", "plus_code": {"compound_code": "RF67+5G Dhanbad, Jharkhand, India", "global_code": "7MM8RF67+5G"}, "rating": 4, "reference": "ChIJtcwSqi-99jkRbyt81a-eyU8", "scope": "GOOGLE", "types": ["hospital", "health", "point_of_interest", "establishment"], "user_ratings_total": 2, "vicinity": "PMCH, Dhanbad"}, {"business_status": "OPERATIONAL", "geometry": {"location": {"lat": 23.8102459, "lng": 86.4641261}, "viewport": {"northeast": {"lat": 23.8114871302915, "lng": 86.46544473029151}, "southwest": {"lat": 23.8087891697085, "lng": 86.46274676970849}}}, "icon": "https://maps.gstatic.com/mapfiles/place_api/icons/v1/png_71/hospital-71.png", "name": "PMCH Superintendent's office", "place_id": "ChIJ52W2kVe99jkRZmrZZ1GcZBI", "plus_code": {"compound_code": "RF67+3M Saraidhella, Jharkhand, India", "global_code": "7MM8RF67+3M"}, "reference": "ChIJ52W2kVe99jkRZmrZZ1GcZBI", "scope": "GOOGLE", "types": ["hospital", "health", "point_of_interest", "establishment"], "vicinity": "Saraidhella"}, {"business_status": "OPERATIONAL", "geometry": {"location": {"lat": 23.8100518, "lng": 86.4642703}, "viewport": {"northeast": {"lat": 23.81141008029151, "lng": 86.4655168302915}, "southwest": {"lat": 23.8087121197085, "lng": 86.4628188697085}}}, "icon": "https://maps.gstatic.com/mapfiles/place_api/icons/v1/png_71/hospital-71.png", "name": "PMCH sulabh sauchalaya", "place_id": "ChIJTws980i99jkRF24HH1kw-Lc", "plus_code": {"compound_code": "RF67+2P Saraidhella, Jharkhand, India", "global_code": "7MM8RF67+2P"}, "reference": "ChIJTws980i99jkRF24HH1kw-Lc", "scope": "GOOGLE", "types": ["hospital", "health", "point_of_interest", "establishment"], "vicinity": "Saraidhella"}, {"business_status": "OPERATIONAL", "geometry": {"location": {"lat": 23.8102511, "lng": 86.46377129999999}, "viewport": {"northeast": {"lat": 23.8115247302915, "lng": 86.4651012802915}, "southwest": {"lat": 23.8088267697085, "lng": 86.4624033197085}}}, "icon": "https://maps.gstatic.com/mapfiles/place_api/icons/v1/png_71/hospital-71.png", "name": "PMCH OUTDOOR", "opening_hours": {"open_now": true}, "photos": [{"height": 853, "html_attributions": ["<a href=\"https://maps.google.com/maps/contrib/114781341483612269370\">Ashmita Ray</a>"], "photo_reference": "ATtYBwKTCbt1hh0AJXYcMixFOWfVVFy984-2UyoRqceuYm6APE-mifpY1Ba3rWQB8iXyjLqSfb-85EUXLWzLlH8krRJKeN8Eg-INOQFVFv5W3wWHzQBQe4kwUmaZVNemhP64ingBJdzMLtAl5dqI-uhBwzALELXpeLvF8rpOTfVM5k19tM8c", "width": 1280}], "place_id": "ChIJz3ibcXy89jkR7hbEZ_f2kbA", "plus_code": {"compound_code": "RF67+4G Dhanbad, Jharkhand, India", "global_code": "7MM8RF67+4G"}, "rating": 3.5, "reference": "ChIJz3ibcXy89jkR7hbEZ_f2kbA", "scope": "GOOGLE", "types": ["hospital", "health", "point_of_interest", "establishment"], "user_ratings_total": 4, "vicinity": "Kusum Vihar, Murli Nagar, Dhanbad"}], "status": "OK"}