{"html_attributions": [], "results": [{"business_status": "OPERATIONAL", "geometry": {"location": {"lat": 24.0413789, "lng": 86.6196495}, "viewport": {"northeast": {"lat": 24.04294258029151, "lng": 86.6210155802915}, "southwest": {"lat": 24.0402446197085, "lng": 86.61831761970849}}}, "icon": "https://maps.gstatic.com/mapfiles/place_api/icons/v1/png_71/hospital-71.png", "name": "C.H.C Narayanpur Hospital By ASHUTOSH HARSH VERMA (hv.do.am)", "opening_hours": {"open_now": true}, "photos": [{"height": 2560, "html_attributions": ["<a href=\"https://maps.google.com/maps/contrib/110566828550432601974\">sahabuddin Ansari</a>"], "photo_reference": "ATtYBwKH4sEao_unDDwJxObDpD0xyYOrxsRL-ZSdAujjIyBXpoCHY3Iiz1bk7SEeqGQ_CF4U3E7GGAXkccx6Dh2hx5_VWf_gQr6fcjE8v3QcIvR8TIh24vFkFiW9y1Jwx_cPCIEPHI4biEDv6_fGjMxDzgPCwBc3hsJVY7SwPPu7UjOHg6xF", "width": 1536}], "place_id": "ChIJr2SIX0vK9jkRHrbG1vxwNAo", "plus_code": {"compound_code": "2JR9+HV Thekbahiar, Jharkhand, India", "global_code": "7MP82JR9+HV"}, "reference": "ChIJr2SIX0vK9jkRHrbG1vxwNAo", "scope": "GOOGLE", "types": ["hospital", "health", "point_of_interest", "establishment"], "vicinity": "Thekbahiar"}, {"business_status": "OPERATIONAL", "geometry": {"location": {"lat": 24.0416572, "lng": 86.6196227}, "viewport": {"northeast": {"lat": 24.0430833302915, "lng": 86.62097783029151}, "southwest": {"lat": 24.0403853697085, "lng": 86.6182798697085}}}, "icon": "https://maps.gstatic.com/mapfiles/place_api/icons/v1/png_71/hospital-71.png", "name": "C.H.C Narayanpur Hospital", "opening_hours": {"open_now": true}, "photos": [{"height": 1080, "html_attributions": ["<a href=\"https://maps.google.com/maps/contrib/114545338308570361651\">Biplab Tewary</a>"], "photo_reference": "ATtYBwLYJXeQvmKM4ReXW51xqK1DdejUgt2ULUbBTWpgqlU4JkPuf7vPZEc4TeBQI9LZf-TArkTlxcdnECnAdAVW149lU7QzRDV_PYeLxkx597moutMjw79Ng-2ZFNpF1xkKkCA2Aj8S5Xhh94kmnNBY-3qy-wK6J1YS6WALVHbld1JpLtsj", "width": 1920}], "place_id": "ChIJ0WHAYEvK9jkRZxO2PWQBCM8", "plus_code": {"compound_code": "2JR9+MR Thekbahiar, Jharkhand, India", "global_code": "7MP82JR9+MR"}, "rating": 4, "reference": "ChIJ0WHAYEvK9jkRZxO2PWQBCM8", "scope": "GOOGLE", "types": ["hospital", "health", "point_of_interest", "establishment"], "user_ratings_total": 6, "vicinity": "Narayanpur, Thekbahiar"}, {"business_status": "OPERATIONAL", "geometry": {"location": {"lat": 24.0450284, "lng": 86.61896109999999}, "viewport": {"northeast": {"lat": 24.0463443802915, "lng": 86.6201981302915}, "southwest": {"lat": 24.0436464197085, "lng": 86.61750016970849}}}, "icon": "https://maps.gstatic.com/mapfiles/place_api/icons/v1/png_71/hospital-71.png", "name": "Fatema Dental Hospital", "place_id": "ChIJ29tv-NTL9jkRUWOqQPK94KE", "plus_code": {"compound_code": "2JW9+2H Makundpur, Jharkhand, India", "global_code": "7MP82JW9+2H"}, "reference": "ChIJ29tv-NTL9jkRUWOqQPK94KE", "scope": "GOOGLE", "types": ["hospital", "health", "point_of_interest", "establishment"], "vicinity": "Jamtara - Dhanbad Road, Makundpur"}, {"business_status": "OPERATIONAL", "geometry": {"location": {"lat": 24.0453523, "lng": 86.6188452}, "viewport": {"northeast": {"lat": 24.04667223029151, "lng": 86.6200819302915}, "southwest": {"lat": 24.0439742697085, "lng": 86.6173839697085}}}, "icon": "https://maps.gstatic.com/mapfiles/place_api/icons/v1/png_71/hospital-71.png", "name": "Dr N.Mohammad Hospital", "place_id": "ChIJrdc9Dk3K9jkRaelKLlQT4rQ", "plus_code": {"compound_code": "2JW9+4G Daldala, Jharkhand, India", "global_code": "7MP82JW9+4G"}, "reference": "ChIJrdc9Dk3K9jkRaelKLlQT4rQ", "scope": "GOOGLE", "types": ["hospital", "health", "point_of_interest", "establishment"], "vicinity": "Daldala"}, {"business_status": "OPERATIONAL", "geometry": {"location": {"lat": 24.0413967, "lng": 86.6215579}, "viewport": {"northeast": {"lat": 24.0426233302915, "lng": 86.6227929802915}, "southwest": {"lat": 24.0399253697085, "lng": 86.6200950197085}}}, "icon": "https://maps.gstatic.com/mapfiles/place_api/icons/v1/png_71/hospital-71.png", "name": "Jamshed Motors Service Centre", "place_id": "ChIJUYANEo3L9jkRsuBDIj7Is3g", "plus_code": {"compound_code": "2JRC+HJ Thekbahiar, Jharkhand, India", "global_code": "7MP82JRC+HJ"}, "reference": "ChIJUYANEo3L9jkRsuBDIj7Is3g", "scope": "GOOGLE", "types": ["hospital", "health", "point_of_interest", "establishment"], "vicinity": "Thekbahiar"}], "status": "OK"}