{"html_attributions": [], "results": [{"business_status": "OPERATIONAL", "geometry": {"location": {"lat": 23.7678748, "lng": 86.7732016}, "viewport": {"northeast": {"lat": 23.7691009302915, "lng": 86.7745162302915}, "southwest": {"lat": 23.7664029697085, "lng": 86.77181826970849}}}, "icon": "https://maps.gstatic.com/mapfiles/place_api/icons/v1/png_71/hospital-71.png", "name": "Savera, Nasha Mukti Kendra", "photos": [{"height": 3120, "html_attributions": ["<a href=\"https://maps.google.com/maps/contrib/107068817408980260008\">Sunil Bhatt</a>"], "photo_reference": "ATtYBwJeL6W02u-r_hc3F3_mDBSt5i7xKbbnj1vlnQIjKPt7ogksWQ6FNc7CaAHMNKbOCc7Npb2iN8E_9ZlkaZpCKouzdN8auQjOfMsvQ5Sp1uL2N2oK78KpVw9wlZzGv69VqQOZzKQe5pn0VJ4ln837oIj0RJaMFDN0uOw6WoSg1mzDusbu", "width": 4160}], "place_id": "ChIJfzE4Xcnd9jkRZZ9mCt1QBAo", "plus_code": {"compound_code": "QQ9F+47 Mugma, Jharkhand, India", "global_code": "7MM8QQ9F+47"}, "rating": 3, "reference": "ChIJfzE4Xcnd9jkRZZ9mCt1QBAo", "scope": "GOOGLE", "types": ["hospital", "health", "point_of_interest", "establishment"], "user_ratings_total": 2, "vicinity": "NH2, Delhi - Kolkata Highway, Mugma"}, {"business_status": "OPERATIONAL", "geometry": {"location": {"lat": 23.7518572, "lng": 86.7753745}, "viewport": {"northeast": {"lat": 23.7532234302915, "lng": 86.77669833029151}, "southwest": {"lat": 23.7505254697085, "lng": 86.7740003697085}}}, "icon": "https://maps.gstatic.com/mapfiles/place_api/icons/v1/png_71/hospital-71.png", "name": "Anand Dental Hospital", "opening_hours": {"open_now": true}, "place_id": "ChIJAe_bDpPd9jkRUt2H0jsWVzQ", "plus_code": {"compound_code": "QQ2G+P4 Egarkunr, Jharkhand, India", "global_code": "7MM8QQ2G+P4"}, "rating": 5, "reference": "ChIJAe_bDpPd9jkRUt2H0jsWVzQ", "scope": "GOOGLE", "types": ["hospital", "health", "point_of_interest", "establishment"], "user_ratings_total": 1, "vicinity": "inside standard medical hall, gulfarbari more, kumardhubi"}, {"business_status": "OPERATIONAL", "geometry": {"location": {"lat": 23.7518605, "lng": 86.77538659999999}, "viewport": {"northeast": {"lat": 23.7532295802915, "lng": 86.7767061802915}, "southwest": {"lat": 23.7505316197085, "lng": 86.77400821970849}}}, "icon": "https://maps.gstatic.com/mapfiles/place_api/icons/v1/png_71/hospital-71.png", "name": "Anand Dental Hospital, Gulfarbari more, Kumardhubi", "opening_hours": {"open_now": true}, "place_id": "ChIJCR66jOPd9jkRinRIEJVfi3I", "plus_code": {"compound_code": "QQ2G+P5 Egarkunr, Jharkhand, India", "global_code": "7MM8QQ2G+P5"}, "reference": "ChIJCR66jOPd9jkRinRIEJVfi3I", "scope": "GOOGLE", "types": ["hospital", "health", "point_of_interest", "establishment"], "vicinity": "Egarkunr"}, {"business_status": "OPERATIONAL", "geometry": {"location": {"lat": 23.7518726, "lng": 86.77629209999999}, "viewport": {"northeast": {"lat": 23.7531493802915, "lng": 86.7776118802915}, "southwest": {"lat": 23.7504514197085, "lng": 86.77491391970848}}}, "icon": "https://maps.gstatic.com/mapfiles/place_api/icons/v1/png_71/hospital-71.png", "name": "Health Care Medical and Clinic", "opening_hours": {"open_now": true}, "photos": [{"height": 2592, "html_attributions": ["<a href=\"https://maps.google.com/maps/contrib/112751929583813710254\">Health Care Medical and Clinic</a>"], "photo_reference": "ATtYBwIx8ktCag_g_XsVWU_Rs3OIjwde07-SNbjEUK4DohDQjqhNNKC25WxL1g_iqpmlVTjeHkhRJquErMPPup-NEbrGZo0tJW0CxXU-0-5sJZ5yveov78xsHAhQ-sZIjA2-dlUecGON-aAYEaXsI9kfgSjkd3rvjXixzVDZjIXeAuxzc60", "width": 4608}], "place_id": "ChIJ1R8Atyjd9jkRP9Fz8DYVRJk", "plus_code": {"compound_code": "QQ2G+PG Egarkunr, Jharkhand, India", "global_code": "7MM8QQ2G+PG"}, "reference": "ChIJ1R8Atyjd9jkRP9Fz8DYVRJk", "scope": "GOOGLE", "types": ["hospital", "health", "point_of_interest", "establishment"], "vicinity": "near ekta enterprises, GT Road, egarkund, Egarkunr"}, {"business_status": "OPERATIONAL", "geometry": {"location": {"lat": 23.7593025, "lng": 86.75860469999999}, "viewport": {"northeast": {"lat": 23.7608119302915, "lng": 86.7600501302915}, "southwest": {"lat": 23.7581139697085, "lng": 86.7573521697085}}}, "icon": "https://maps.gstatic.com/mapfiles/place_api/icons/v1/png_71/hospital-71.png", "name": "Regional Hospital Mugma Area", "opening_hours": {"open_now": true}, "photos": [{"height": 3264, "html_attributions": ["<a href=\"https://maps.google.com/maps/contrib/101794482157238086045\">Baidyanath Bauri</a>"], "photo_reference": "ATtYBwLLJvcrsYmKbRq6EbQOTri7jsFCxZ8dRU77qjC79YP_JvmZOuWhzvUPdH0cpQCewU8mf25tq1YfZuLNvH9cGNiymn6GN0bkuKvVoMNLt9AE0U1zaa1mhGeKGxnaVVHQW0fCGYuC6ScLyo3ULHghfNrlWvmFZbmaVeoYTffm1yEx6alr", "width": 2448}], "place_id": "ChIJY63YJzzd9jkRE2q6DA-SBng", "plus_code": {"compound_code": "QQ55+PC Kapasara, Jharkhand, India", "global_code": "7MM8QQ55+PC"}, "rating": 4, "reference": "ChIJY63YJzzd9jkRE2q6DA-SBng", "scope": "GOOGLE", "types": ["hospital", "health", "point_of_interest", "establishment"], "user_ratings_total": 4, "vicinity": "Kapasara"}, {"business_status": "OPERATIONAL", "geometry": {"location": {"lat": 23.759457, "lng": 86.7584394}, "viewport": {"northeast": {"lat": 23.7608368302915, "lng": 86.7597004302915}, "southwest": {"lat": 23.75813886970849, "lng": 86.75700246970848}}}, "icon": "https://maps.gstatic.com/mapfiles/place_api/icons/v1/png_71/hospital-71.png", "name": "MUGMA ECL REGIONAL HOSPITAL", "place_id": "ChIJlaiQ5cbd9jkRUsYOX-Erh5E", "plus_code": {"compound_code": "QQ55+Q9 Mugma, Jharkhand, India", "global_code": "7MM8QQ55+Q9"}, "reference": "ChIJlaiQ5cbd9jkRUsYOX-Erh5E", "scope": "GOOGLE", "types": ["hospital", "health", "point_of_interest", "establishment"], "vicinity": "GT Road, Dhanbad District, Kapasara, Mugma"}, {"business_status": "OPERATIONAL", "geometry": {"location": {"lat": 23.7594598, "lng": 86.7583422}, "viewport": {"northeast": {"lat": 23.7608245802915, "lng": 86.7596460802915}, "southwest": {"lat": 23.7581266197085, "lng": 86.75694811970848}}}, "icon": "https://maps.gstatic.com/mapfiles/place_api/icons/v1/png_71/hospital-71.png", "name": "Kapasara Government Regional Hospital", "opening_hours": {"open_now": true}, "photos": [{"height": 1080, "html_attributions": ["<a href=\"https://maps.google.com/maps/contrib/105686997651304977445\">BAIDYANATH BAURI</a>"], "photo_reference": "ATtYBwLaVlFHUO6_4c1j_RvcbN6u8hFVVCvNnC2zOM49vh9kO-xVPqYyzbLaUkX6igIUCC1YZ7oCMhgl1SE0z_tAd7BjZfofmmn4lIwRjOOg9gbx7zyHnHt-1jVf9lG7kERXXfcnmyF_a0skNnL0U0EQAegWV7c-RP2Cojr0ei0hO0wB482v", "width": 1920}], "place_id": "ChIJiYC4Jjzd9jkRefTcV5gb0ZY", "plus_code": {"compound_code": "QQ55+Q8 Kapasara, Jharkhand, India", "global_code": "7MM8QQ55+Q8"}, "rating": 2, "reference": "ChIJiYC4Jjzd9jkRefTcV5gb0ZY", "scope": "GOOGLE", "types": ["hospital", "health", "point_of_interest", "establishment"], "user_ratings_total": 5, "vicinity": "GT Road, Dhanbad District, Kapasara"}, {"business_status": "OPERATIONAL", "geometry": {"location": {"lat": 23.7518029, "lng": 86.77795359999999}, "viewport": {"northeast": {"lat": 23.7532110302915, "lng": 86.77910293029149}, "southwest": {"lat": 23.75051306970849, "lng": 86.77640496970848}}}, "icon": "https://maps.gstatic.com/mapfiles/place_api/icons/v1/png_71/hospital-71.png", "name": "Puja Nursing Home", "opening_hours": {"open_now": true}, "photos": [{"height": 1280, "html_attributions": ["<a href=\"https://maps.google.com/maps/contrib/106791119111596836531\">Puja Nursing Home</a>"], "photo_reference": "ATtYBwLJBHg9TQFwD__JMB7FeNHyFbHYOY3agiyhU-6_J5XwZjiuC-9ItEfKMF7tTtqIehSL7oWobSuaMgCGSHF-gQjXzuRxSMfBsk-FIhmTTvcYEnmwc-QlxRyNtDItdqsPDcicxsqFKbpZ8ONIrUNftlqrFeTb2cUcEIh4ko8HW6j4GGnc", "width": 1280}], "place_id": "ChIJLaN0gOPd9jkRH2KJpIY3ahc", "plus_code": {"compound_code": "QQ2H+P5 Siuliban, Jharkhand, India", "global_code": "7MM8QQ2H+P5"}, "reference": "ChIJLaN0gOPd9jkRH2KJpIY3ahc", "scope": "GOOGLE", "types": ["hospital", "health", "point_of_interest", "establishment"], "vicinity": "Siwalibari, Siuliban"}, {"business_status": "OPERATIONAL", "geometry": {"location": {"lat": 23.7509763, "lng": 86.777772}, "viewport": {"northeast": {"lat": 23.7524218802915, "lng": 86.77916138029151}, "southwest": {"lat": 23.74972391970849, "lng": 86.77646341970849}}}, "icon": "https://maps.gstatic.com/mapfiles/place_api/icons/v1/png_71/hospital-71.png", "name": "Digital X Ray Clinic", "opening_hours": {"open_now": true}, "place_id": "ChIJVZvoi3Td9jkRfpMWrtkYIzA", "plus_code": {"compound_code": "QQ2H+94 Siuliban, Jharkhand, India", "global_code": "7MM8QQ2H+94"}, "rating": 4, "reference": "ChIJVZvoi3Td9jkRfpMWrtkYIzA", "scope": "GOOGLE", "types": ["hospital", "health", "point_of_interest", "establishment"], "user_ratings_total": 2, "vicinity": "Siuliban, Dhanbad, SH-5, Chirkunda Barakar Road, Dhanbad, Dhanbad"}, {"business_status": "OPERATIONAL", "geometry": {"location": {"lat": 23.7513004, "lng": 86.7782514}, "viewport": {"northeast": {"lat": 23.75253138029151, "lng": 86.7795510302915}, "southwest": {"lat": 23.7498334197085, "lng": 86.7768530697085}}}, "icon": "https://maps.gstatic.com/mapfiles/place_api/icons/v1/png_71/hospital-71.png", "name": "Popular Nursing Home", "opening_hours": {"open_now": true}, "place_id": "ChIJvVAC83Td9jkR3l5cqX6cu0Y", "plus_code": {"compound_code": "QQ2H+G8 Siuliban, Jharkhand, India", "global_code": "7MM8QQ2H+G8"}, "rating": 3, "reference": "ChIJvVAC83Td9jkR3l5cqX6cu0Y", "scope": "GOOGLE", "types": ["hospital", "health", "point_of_interest", "establishment"], "user_ratings_total": 20, "vicinity": "Siuliban"}, {"business_status": "OPERATIONAL", "geometry": {"location": {"lat": 23.7499358, "lng": 86.7638619}, "viewport": {"northeast": {"lat": 23.7512086302915, "lng": 86.7653411802915}, "southwest": {"lat": 23.7485106697085, "lng": 86.76264321970848}}}, "icon": "https://maps.gstatic.com/mapfiles/place_api/icons/v1/png_71/hospital-71.png", "name": "S.M.C Factory", "photos": [{"height": 1600, "html_attributions": ["<a href=\"https://maps.google.com/maps/contrib/109517621157105074473\">Ajay Sharma</a>"], "photo_reference": "ATtYBwLg28U2F44FawCkc_TUU9khfm0pJ7Gfim1xcPoZMP3fiozOtG0bmLOQhqNLMk3jyl6fygqj-cEw7xggbGe6c1MoF62ZyXS3YLOWFwRSeq1rTvxmozpOobFc6XqeEFpC3bM4xjU3FJ6HmR8zRHlAn9_D_IfzsNPbbVea6y35-Vzxdwco", "width": 1200}], "place_id": "ChIJ5SQ_UWrd9jkREZwiW-JouNc", "plus_code": {"compound_code": "PQX7+XG Egarkunr, Jharkhand, India", "global_code": "7MM8PQX7+XG"}, "rating": 3, "reference": "ChIJ5SQ_UWrd9jkREZwiW-JouNc", "scope": "GOOGLE", "types": ["hospital", "health", "point_of_interest", "establishment"], "user_ratings_total": 2, "vicinity": "Egarkunr"}], "status": "OK"}