{"html_attributions": [], "results": [{"business_status": "OPERATIONAL", "geometry": {"location": {"lat": 23.7674781, "lng": 86.7919124}, "viewport": {"northeast": {"lat": 23.7689239802915, "lng": 86.79327053029151}, "southwest": {"lat": 23.7662260197085, "lng": 86.79057256970849}}}, "icon": "https://maps.gstatic.com/mapfiles/place_api/icons/v1/png_71/hospital-71.png", "name": "E.S.I. Hospital", "photos": [{"height": 467, "html_attributions": ["<a href=\"https://maps.google.com/maps/contrib/112446724133219174704\">Samar Shaw</a>"], "photo_reference": "ATtYBwJNUUPPschl-Az4YAmplTd4jNIedKeYbV3mFCYjabCZqQzwDM4cRrJdevbC2PWLSXTHlddqcdvNvHqF6kM-Lnjnm6-kQpYvb2SOcCUrfG5muFWsBdIqF3-Olp-o-Mnc6yHAM-8YIHLLHFiUuMQhyZxnZnYtFsR2iqmcPtDtz7oA1Pfk", "width": 700}], "place_id": "ChIJmeoSJ7Dd9jkRDhqyQeLW6To", "plus_code": {"compound_code": "QQ8R+XQ Maithon, Jharkhand, India", "global_code": "7MM8QQ8R+XQ"}, "rating": 3.3, "reference": "ChIJmeoSJ7Dd9jkRDhqyQeLW6To", "scope": "GOOGLE", "types": ["hospital", "health", "point_of_interest", "establishment"], "user_ratings_total": 9, "vicinity": "Maithon, Dhanbad"}, {"business_status": "OPERATIONAL", "geometry": {"location": {"lat": 23.7733938, "lng": 86.7943177}, "viewport": {"northeast": {"lat": 23.77468498029151, "lng": 86.79564953029151}, "southwest": {"lat": 23.7719870197085, "lng": 86.79295156970849}}}, "icon": "https://maps.gstatic.com/mapfiles/place_api/icons/v1/png_71/hospital-71.png", "name": "B P Neogi Hospital", "opening_hours": {"open_now": true}, "place_id": "ChIJTUzrSrLd9jkRQ-P4SfFFFtw", "plus_code": {"compound_code": "QQFV+9P Maithon, Jharkhand, India", "global_code": "7MM8QQFV+9P"}, "rating": 3, "reference": "ChIJTUzrSrLd9jkRQ-P4SfFFFtw", "scope": "GOOGLE", "types": ["hospital", "health", "point_of_interest", "establishment"], "user_ratings_total": 13, "vicinity": "Azad Nagar Colony, Maithon"}, {"business_status": "OPERATIONAL", "geometry": {"location": {"lat": 23.77295539999999, "lng": 86.79400020000001}, "viewport": {"northeast": {"lat": 23.7743745802915, "lng": 86.7953974802915}, "southwest": {"lat": 23.77167661970849, "lng": 86.79269951970849}}}, "icon": "https://maps.gstatic.com/mapfiles/place_api/icons/v1/png_71/hospital-71.png", "name": "DVC Hospital", "place_id": "ChIJndTONrLd9jkR6qQWNQS4Gak", "plus_code": {"compound_code": "QQFV+5J Maithon, Jharkhand, India", "global_code": "7MM8QQFV+5J"}, "rating": 2, "reference": "ChIJndTONrLd9jkR6qQWNQS4Gak", "scope": "GOOGLE", "types": ["hospital", "health", "point_of_interest", "establishment"], "user_ratings_total": 2, "vicinity": "Azad Nagar Colony, Maithon"}], "status": "OK"}