{"html_attributions": [], "results": [{"business_status": "OPERATIONAL", "geometry": {"location": {"lat": 23.7392923, "lng": 86.8117493}, "viewport": {"northeast": {"lat": 23.7408192802915, "lng": 86.8131489302915}, "southwest": {"lat": 23.7381213197085, "lng": 86.8104509697085}}}, "icon": "https://maps.gstatic.com/mapfiles/place_api/icons/v1/png_71/hospital-71.png", "name": "Primary Health Centre", "opening_hours": {"open_now": true}, "photos": [{"height": 2160, "html_attributions": ["<a href=\"https://maps.google.com/maps/contrib/105604970187647242730\">Manas Das</a>"], "photo_reference": "ATtYBwKGn2Zak9ZtEWEEGf-aVWfpM_t9n9DGkgmaxLdBQyQo0QtMC-2-mymJcOTq7x-bNFIrE7yGUoT7avrhRiAhJhFnOBZABAmvXi2xeyzcTLomZY_9C2hUenKGvaDDvQ7a9I6NQWe12cQ6CnKIa_ETg6juTh8RraUwwTX3knpJKKz4zILX", "width": 3840}], "place_id": "ChIJrQWyeyLd9jkRnycO3Kp5Ijs", "plus_code": {"compound_code": "PRQ6+PM Barakar, West Bengal, India", "global_code": "7MM8PRQ6+PM"}, "reference": "ChIJrQWyeyLd9jkRnycO3Kp5Ijs", "scope": "GOOGLE", "types": ["hospital", "health", "point_of_interest", "establishment"], "vicinity": "Hospital Road, Barakar"}, {"business_status": "OPERATIONAL", "geometry": {"location": {"lat": 23.739726, "lng": 86.8119049}, "viewport": {"northeast": {"lat": 23.7410869802915, "lng": 86.8132128302915}, "southwest": {"lat": 23.7383890197085, "lng": 86.8105148697085}}}, "icon": "https://maps.gstatic.com/mapfiles/place_api/icons/v1/png_71/hospital-71.png", "name": "Barakar Primary Health Centre", "photos": [{"height": 3024, "html_attributions": ["<a href=\"https://maps.google.com/maps/contrib/106583625952180164419\">anirban Roy</a>"], "photo_reference": "ATtYBwLaO5sDOt2dy2I_Qv1HV0aLR3d7Q0UDMVE5ZGTwiEY0B9MMN_qo94nfDMA1ey71vKXTmM4wYKA2_UO5pWJWrsH0-COCDEFAAxhEbnw2Vnobuw1yVMHiw--v1dS3zdmkJ10Fx2Q3f7pL0Syt91ye1paT9Uz3_G-g35SnTNbOX-bbzQyj", "width": 4032}], "place_id": "ChIJxRpmf_rd9jkR9KbV7FBN7yE", "plus_code": {"compound_code": "PRQ6+VQ Barakar, West Bengal, India", "global_code": "7MM8PRQ6+VQ"}, "rating": 3.2, "reference": "ChIJxRpmf_rd9jkR9KbV7FBN7yE", "scope": "GOOGLE", "types": ["hospital", "health", "point_of_interest", "establishment"], "user_ratings_total": 10, "vicinity": "Haji Nabi Nagar, Barakar"}, {"business_status": "OPERATIONAL", "geometry": {"location": {"lat": 23.7393172, "lng": 86.81200109999999}, "viewport": {"northeast": {"lat": 23.7407004802915, "lng": 86.81334563029151}, "southwest": {"lat": 23.7380025197085, "lng": 86.81064766970849}}}, "icon": "https://maps.gstatic.com/mapfiles/place_api/icons/v1/png_71/hospital-71.png", "name": "Public health care center", "place_id": "ChIJZf5vP9vd9jkReIzBmd9sngs", "plus_code": {"compound_code": "PRQ6+PR Barakar, West Bengal, India", "global_code": "7MM8PRQ6+PR"}, "reference": "ChIJZf5vP9vd9jkReIzBmd9sngs", "scope": "GOOGLE", "types": ["hospital", "health", "point_of_interest", "establishment"], "vicinity": "Haji Nabi Nagar, Barakar"}, {"business_status": "OPERATIONAL", "geometry": {"location": {"lat": 23.741289, "lng": 86.8159799}, "viewport": {"northeast": {"lat": 23.7426387802915, "lng": 86.8173257802915}, "southwest": {"lat": 23.7399408197085, "lng": 86.81462781970849}}}, "icon": "https://maps.gstatic.com/mapfiles/place_api/icons/v1/png_71/hospital-71.png", "name": "Keshri Medical Stores", "opening_hours": {"open_now": true}, "photos": [{"height": 2184, "html_attributions": ["<a href=\"https://maps.google.com/maps/contrib/117694336078446489879\">Keshri Medical Stores</a>"], "photo_reference": "ATtYBwJf4Lzb3Db8yz6NqlKi8QF46xtxyu8GJZY6KeQ-r14E0VyEZAhCEUfTVFetws0KEyENjWeJ6cdUQV-myk2uCvUrZh30zLAAJZbup_-XQ8Rscw_mw2GV9RTUfcByPjtpsRqzurOfCKBMbf4gNIIo31YQKnOHdFSRJRQnH8lxUJjZKzDB", "width": 4608}], "place_id": "ChIJBXYSQfvd9jkRn0k9Z0wgYnw", "plus_code": {"compound_code": "PRR8+G9 Barakar, West Bengal, India", "global_code": "7MM8PRR8+G9"}, "rating": 5, "reference": "ChIJBXYSQfvd9jkRn0k9Z0wgYnw", "scope": "GOOGLE", "types": ["hospital", "health", "point_of_interest", "establishment"], "user_ratings_total": 2, "vicinity": "713324, Station Road, Barakar"}, {"business_status": "OPERATIONAL", "geometry": {"location": {"lat": 23.7333876, "lng": 86.81463339999999}, "viewport": {"northeast": {"lat": 23.7347255802915, "lng": 86.8159751302915}, "southwest": {"lat": 23.7320276197085, "lng": 86.8132771697085}}}, "icon": "https://maps.gstatic.com/mapfiles/place_api/icons/v1/png_71/hospital-71.png", "name": "Jupiter Hospital", "opening_hours": {"open_now": true}, "place_id": "ChIJQTsE__jd9jkRj4axwDvD29I", "plus_code": {"compound_code": "PRM7+9V Barakar, West Bengal, India", "global_code": "7MM8PRM7+9V"}, "rating": 5, "reference": "ChIJQTsE__jd9jkRj4axwDvD29I", "scope": "GOOGLE", "types": ["hospital", "health", "point_of_interest", "establishment"], "user_ratings_total": 3, "vicinity": "Barakar"}, {"business_status": "OPERATIONAL", "geometry": {"location": {"lat": 23.7363638, "lng": 86.8018228}, "viewport": {"northeast": {"lat": 23.7377840802915, "lng": 86.80315833029151}, "southwest": {"lat": 23.7350861197085, "lng": 86.8004603697085}}}, "icon": "https://maps.gstatic.com/mapfiles/place_api/icons/v1/png_71/hospital-71.png", "name": "SB & D Banerjee Clinic", "opening_hours": {"open_now": true}, "photos": [{"height": 2448, "html_attributions": ["<a href=\"https://maps.google.com/maps/contrib/112260236263073711747\">tapas tantubai</a>"], "photo_reference": "ATtYBwKn1zlnZB-caAuVrUuGYZjgM9I3ymOByiqKyAr78G7oJ5YdMr_4ERhZniVVsgYbvnZ82OQIvs6W7XBLUV7bUKEvR-kbwvRCEdHXvPNHAJ4CC8Q_DKt9pko2iQzfq61mISuAA9e7obu73oCLDeFUYheVcG2Zf1fD1-x3bAlJgi4XVnEX", "width": 3264}], "place_id": "ChIJZbCPqozd9jkRD2XvwC5ifNQ", "plus_code": {"compound_code": "PRP2+GP Chirkunda, Jharkhand, India", "global_code": "7MM8PRP2+GP"}, "rating": 3.5, "reference": "ChIJZbCPqozd9jkRD2XvwC5ifNQ", "scope": "GOOGLE", "types": ["hospital", "health", "point_of_interest", "establishment"], "user_ratings_total": 2, "vicinity": "Chirkunda"}, {"business_status": "OPERATIONAL", "geometry": {"location": {"lat": 23.7349435, "lng": 86.81814039999999}, "viewport": {"northeast": {"lat": 23.7361569802915, "lng": 86.81950633029149}, "southwest": {"lat": 23.7334590197085, "lng": 86.81680836970848}}}, "icon": "https://maps.gstatic.com/mapfiles/place_api/icons/v1/png_71/hospital-71.png", "name": "Medlife Medicine Point", "place_id": "ChIJfboArnPd9jkRIlzBIiaGqnI", "plus_code": {"compound_code": "PRM9+X7 Barakar, West Bengal, India", "global_code": "7MM8PRM9+X7"}, "rating": 3, "reference": "ChIJfboArnPd9jkRIlzBIiaGqnI", "scope": "GOOGLE", "types": ["hospital", "health", "point_of_interest", "establishment"], "user_ratings_total": 2, "vicinity": "Barakar Mini Bus Stand, GT Road, Barakar"}, {"business_status": "OPERATIONAL", "geometry": {"location": {"lat": 23.735178, "lng": 86.81925249999999}, "viewport": {"northeast": {"lat": 23.7365269802915, "lng": 86.8206014802915}, "southwest": {"lat": 23.73382901970849, "lng": 86.81790351970848}}}, "icon": "https://maps.gstatic.com/mapfiles/place_api/icons/v1/png_71/hospital-71.png", "name": "Mihijam Clinic", "opening_hours": {"open_now": true}, "photos": [{"height": 1073, "html_attributions": ["<a href=\"https://maps.google.com/maps/contrib/104365760895423794843\">Mihijam Clinic</a>"], "photo_reference": "ATtYBwIMUM4ALmSJ5dt81hXyI6VhYGJ9wgpL17DS39KVGaDcEguCfichhQ4rtxFXHg2lKxboinjDOqlaQJynoAX_jWW_U-KjH_J8oafImtOyS4-s5Q8Cnn7u6b4CIJDOGb3gu7Ol0_ch2R8RdfuTwRzsL-PK7Y7AuKmIJz-_5IkRXE4xrDQm", "width": 1280}], "place_id": "ChIJAQA88v7d9jkR7jS65I51a-c", "plus_code": {"compound_code": "PRP9+3P Barakar, West Bengal, India", "global_code": "7MM8PRP9+3P"}, "rating": 5, "reference": "ChIJAQA88v7d9jkR7jS65I51a-c", "scope": "GOOGLE", "types": ["hospital", "doctor", "health", "point_of_interest", "establishment"], "user_ratings_total": 3, "vicinity": "Near Mini Bus Stand, Barakar"}, {"business_status": "OPERATIONAL", "geometry": {"location": {"lat": 23.738119, "lng": 86.799228}, "viewport": {"northeast": {"lat": 23.7394275302915, "lng": 86.80064083029151}, "southwest": {"lat": 23.7367295697085, "lng": 86.7979428697085}}}, "icon": "https://maps.gstatic.com/mapfiles/place_api/icons/v1/png_71/hospital-71.png", "name": "Dr. Azhar Hussain Clinic", "opening_hours": {"open_now": true}, "place_id": "ChIJqRkzWYzd9jkRrMDuVKyKhiw", "plus_code": {"compound_code": "PQQX+6M Chirkunda, Jharkhand, India", "global_code": "7MM8PQQX+6M"}, "reference": "ChIJqRkzWYzd9jkRrMDuVKyKhiw", "scope": "GOOGLE", "types": ["hospital", "health", "point_of_interest", "establishment"], "vicinity": "Vivekanand, Dhanbad, SH-5, Chirkunda Barakar Road, Dhanbad, Dhanbad"}, {"business_status": "OPERATIONAL", "geometry": {"location": {"lat": 23.7339888, "lng": 86.81956260000001}, "viewport": {"northeast": {"lat": 23.73511228029151, "lng": 86.82086113029152}, "southwest": {"lat": 23.7324143197085, "lng": 86.8181631697085}}}, "icon": "https://maps.gstatic.com/mapfiles/place_api/icons/v1/png_71/hospital-71.png", "name": "Midway Nursing Home", "place_id": "ChIJ9YLyVf7d9jkRdBUrk7DqHqQ", "plus_code": {"compound_code": "PRM9+HR Barakar, West Bengal, India", "global_code": "7MM8PRM9+HR"}, "reference": "ChIJ9YLyVf7d9jkRdBUrk7DqHqQ", "scope": "GOOGLE", "types": ["hospital", "health", "point_of_interest", "establishment"], "vicinity": "Barakar"}, {"business_status": "OPERATIONAL", "geometry": {"location": {"lat": 23.730659, "lng": 86.815542}, "viewport": {"northeast": {"lat": 23.7319594802915, "lng": 86.8166730302915}, "southwest": {"lat": 23.7292615197085, "lng": 86.81397506970849}}}, "icon": "https://maps.gstatic.com/mapfiles/place_api/icons/v1/png_71/hospital-71.png", "name": "Dr P K Pti", "place_id": "ChIJgz48jMHd9jkRGgd8scg_oUI", "plus_code": {"compound_code": "PRJ8+76 Barakar, West Bengal, India", "global_code": "7MM8PRJ8+76"}, "reference": "ChIJgz48jMHd9jkRGgd8scg_oUI", "scope": "GOOGLE", "types": ["hospital", "health", "point_of_interest", "establishment"], "vicinity": "Barakar"}, {"business_status": "OPERATIONAL", "geometry": {"location": {"lat": 23.7343818, "lng": 86.8223288}, "viewport": {"northeast": {"lat": 23.73565943029151, "lng": 86.8237371802915}, "southwest": {"lat": 23.7329614697085, "lng": 86.82103921970848}}}, "icon": "https://maps.gstatic.com/mapfiles/place_api/icons/v1/png_71/hospital-71.png", "name": "Dr.chandan Sen Nursing home", "place_id": "ChIJ-fcWgwDe9jkR11yCVTYrkmY", "plus_code": {"compound_code": "PRMC+QW Barakar, West Bengal, India", "global_code": "7MM8PRMC+QW"}, "rating": 5, "reference": "ChIJ-fcWgwDe9jkR11yCVTYrkmY", "scope": "GOOGLE", "types": ["hospital", "health", "point_of_interest", "establishment"], "user_ratings_total": 4, "vicinity": "Burdwan"}], "status": "OK"}