{"html_attributions": [], "results": [{"business_status": "OPERATIONAL", "geometry": {"location": {"lat": 23.7825501, "lng": 86.3539704}, "viewport": {"northeast": {"lat": 23.7839584802915, "lng": 86.3553806302915}, "southwest": {"lat": 23.7812605197085, "lng": 86.3526826697085}}}, "icon": "https://maps.gstatic.com/mapfiles/place_api/icons/v1/png_71/hospital-71.png", "name": "BCCL Loyabad RH", "opening_hours": {"open_now": true}, "place_id": "ChIJkSgvYcaj9jkRwq2y1vkwHB8", "plus_code": {"compound_code": "Q9M3+2H Loyabad, Jharkhand, India", "global_code": "7MM8Q9M3+2H"}, "rating": 5, "reference": "ChIJkSgvYcaj9jkRwq2y1vkwHB8", "scope": "GOOGLE", "types": ["hospital", "health", "point_of_interest", "establishment"], "user_ratings_total": 1, "vicinity": "Loyabad"}, {"business_status": "OPERATIONAL", "geometry": {"location": {"lat": 23.7739483, "lng": 86.3528838}, "viewport": {"northeast": {"lat": 23.7753372802915, "lng": 86.3542252302915}, "southwest": {"lat": 23.7726393197085, "lng": 86.3515272697085}}}, "icon": "https://maps.gstatic.com/mapfiles/place_api/icons/v1/png_71/hospital-71.png", "name": "loyabad hospital", "photos": [{"height": 2425, "html_attributions": ["<a href=\"https://maps.google.com/maps/contrib/100791482189471069284\">PANKAJ CHOUHAN</a>"], "photo_reference": "ATtYBwJgqPbciYKpgOqYYHDV_x5AlUHRi4l0IpfB4DJ_q12Hd2z9BAGysIScgV4CF_gmpIUqnkzxAEdJ_Ld7LRTbeRL9dDw1VALIuYZLIVOzq6CwxafnD1PrAO5twgAkuL2d_FLwUMt2HlZgDlqwZQa8tijFlrHejDoiOVfCG7sLAN2YDtRL", "width": 1940}], "place_id": "ChIJmQXkyhqj9jkR0WgntnRfTts", "plus_code": {"compound_code": "Q9F3+H5 Loyabad, Jharkhand, India", "global_code": "7MM8Q9F3+H5"}, "reference": "ChIJmQXkyhqj9jkR0WgntnRfTts", "scope": "GOOGLE", "types": ["hospital", "health", "point_of_interest", "establishment"], "vicinity": "Loyabad"}, {"business_status": "OPERATIONAL", "geometry": {"location": {"lat": 23.7847791, "lng": 86.3583846}, "viewport": {"northeast": {"lat": 23.7861172302915, "lng": 86.35975993029152}, "southwest": {"lat": 23.7834192697085, "lng": 86.35706196970851}}}, "icon": "https://maps.gstatic.com/mapfiles/place_api/icons/v1/png_71/hospital-71.png", "name": "Pampa clinic", "place_id": "ChIJexZHSeuj9jkRRSff-QKjX6Q", "plus_code": {"compound_code": "Q9M5+W9 Loyabad, Jharkhand, India", "global_code": "7MM8Q9M5+W9"}, "reference": "ChIJexZHSeuj9jkRRSff-QKjX6Q", "scope": "GOOGLE", "types": ["hospital", "health", "point_of_interest", "establishment"], "vicinity": "Loyabad"}, {"business_status": "OPERATIONAL", "geometry": {"location": {"lat": 23.784776, "lng": 86.3592005}, "viewport": {"northeast": {"lat": 23.78618483029151, "lng": 86.3605953302915}, "southwest": {"lat": 23.7834868697085, "lng": 86.3578973697085}}}, "icon": "https://maps.gstatic.com/mapfiles/place_api/icons/v1/png_71/hospital-71.png", "name": "PAMPA CLINIC", "place_id": "ChIJrdumDvKj9jkRvbUFO13Jcjw", "plus_code": {"compound_code": "Q9M5+WM Loyabad, Jharkhand, India", "global_code": "7MM8Q9M5+WM"}, "rating": 5, "reference": "ChIJrdumDvKj9jkRvbUFO13Jcjw", "scope": "GOOGLE", "types": ["hospital", "health", "point_of_interest", "establishment"], "user_ratings_total": 1, "vicinity": "Loyabad"}], "status": "OK"}