{"html_attributions": [], "results": [{"business_status": "OPERATIONAL", "geometry": {"location": {"lat": 23.8958658, "lng": 86.3608016}, "viewport": {"northeast": {"lat": 23.8972506302915, "lng": 86.36229428029151}, "southwest": {"lat": 23.8945526697085, "lng": 86.35959631970849}}}, "icon": "https://maps.gstatic.com/mapfiles/place_api/icons/v1/png_71/hospital-71.png", "name": "Atirikat Prathamik Upchaar Kendra", "place_id": "ChIJzf4eVkGl9jkRpU3qbB_4hpg", "plus_code": {"compound_code": "V9W6+88 Sadhubad, Jharkhand, India", "global_code": "7MM8V9W6+88"}, "rating": 5, "reference": "ChIJzf4eVkGl9jkRpU3qbB_4hpg", "scope": "GOOGLE", "types": ["hospital", "health", "point_of_interest", "establishment"], "user_ratings_total": 1, "vicinity": "Unnamed Road, Sadhubad"}, {"business_status": "OPERATIONAL", "geometry": {"location": {"lat": 23.8958934, "lng": 86.3609974}, "viewport": {"northeast": {"lat": 23.8972545302915, "lng": 86.3623951302915}, "southwest": {"lat": 23.8945565697085, "lng": 86.35969716970848}}}, "icon": "https://maps.gstatic.com/mapfiles/place_api/icons/v1/png_71/hospital-71.png", "name": "Primary Hospital Chutiaro", "photos": [{"height": 2340, "html_attributions": ["<a href=\"https://maps.google.com/maps/contrib/112640709037721647943\">Suraj Kumar</a>"], "photo_reference": "ATtYBwL3e2xw1s86v2rP1PomSe9tS8Lcdlr-BjrsijdRWUrv-TumRy8Sshy4JeFcaK-I-SB-Uub0HezlbGZnni5oiHH-xit1IKnLuqg9ba5-PeTNjuwdQYo_cCRqsVBDWdzHTlbV403T0VTxDvSdrqqXMvkesB48SEx9-EsH-JodZbfvOq6P", "width": 4160}], "place_id": "ChIJGREurZOl9jkR80ttzVO1oys", "plus_code": {"compound_code": "V9W6+99 Chutiaro, Jharkhand, India", "global_code": "7MM8V9W6+99"}, "rating": 5, "reference": "ChIJGREurZOl9jkR80ttzVO1oys", "scope": "GOOGLE", "types": ["hospital", "health", "point_of_interest", "establishment"], "user_ratings_total": 1, "vicinity": "Chutiaro"}, {"business_status": "OPERATIONAL", "geometry": {"location": {"lat": 23.895327, "lng": 86.3608485}, "viewport": {"northeast": {"lat": 23.8966561802915, "lng": 86.36230948029151}, "southwest": {"lat": 23.8939582197085, "lng": 86.3596115197085}}}, "icon": "https://maps.gstatic.com/mapfiles/place_api/icons/v1/png_71/hospital-71.png", "name": "\u092a\u094d\u0930\u093e\u0925\u092e\u093f\u0915 \u0938\u094d\u0935\u093e\u0938\u094d\u0925\u094d\u092f \u0915\u0947\u0902\u0926\u094d\u0930 \u091a\u0941\u091f\u093f\u092f\u093e\u0930\u094b", "opening_hours": {"open_now": true}, "photos": [{"height": 3456, "html_attributions": ["<a href=\"https://maps.google.com/maps/contrib/106235089876823262750\">manish kumar</a>"], "photo_reference": "ATtYBwIV7GD7KsVFyKKi333kPj1szsaPXrmpE1h4Vkz5sKdUqqzxVDa8UJl-tbXphXzWFKwjDsh7HjYtLxTGkiEE1n43MRa3-pw1SpEJeSWJtGx8dE55kSShKY3E33r_GJUURVhLFL8-rbZuIVLsgLplxUG5NJIZtAL_FIStMr0iJTYfYdCP", "width": 4608}], "place_id": "ChIJjfKW2N6l9jkRni2C2cJ1ZO8", "plus_code": {"compound_code": "V9W6+48 Sadhubad, Jharkhand, India", "global_code": "7MM8V9W6+48"}, "reference": "ChIJjfKW2N6l9jkRni2C2cJ1ZO8", "scope": "GOOGLE", "types": ["hospital", "health", "point_of_interest", "establishment"], "vicinity": "Unnamed Road, Sadhubad"}], "status": "OK"}