{"html_attributions": [], "results": [{"business_status": "OPERATIONAL", "geometry": {"location": {"lat": 23.7411482, "lng": 86.4226006}, "viewport": {"northeast": {"lat": 23.7425199802915, "lng": 86.4239667302915}, "southwest": {"lat": 23.7398220197085, "lng": 86.42126876970849}}}, "icon": "https://maps.gstatic.com/mapfiles/place_api/icons/v1/png_71/hospital-71.png", "name": "Animal hospital Jharia", "opening_hours": {"open_now": true}, "place_id": "ChIJA20-60u99jkRUaMjh_CR0Mk", "plus_code": {"compound_code": "PCRF+F2 Jharia, Jharkhand, India", "global_code": "7MM8PCRF+F2"}, "rating": 3, "reference": "ChIJA20-60u99jkRUaMjh_CR0Mk", "scope": "GOOGLE", "types": ["hospital", "health", "point_of_interest", "establishment"], "user_ratings_total": 1, "vicinity": "Ghanudi Basti Baliyapur Road, Nai Duniya Mohlla, Jharia"}, {"business_status": "OPERATIONAL", "geometry": {"location": {"lat": 23.7415938, "lng": 86.4198605}, "viewport": {"northeast": {"lat": 23.7429210802915, "lng": 86.4212545802915}, "southwest": {"lat": 23.7402231197085, "lng": 86.4185566197085}}}, "icon": "https://maps.gstatic.com/mapfiles/place_api/icons/v1/png_71/hospital-71.png", "name": "Bharat Medical", "opening_hours": {"open_now": true}, "photos": [{"height": 720, "html_attributions": ["<a href=\"https://maps.google.com/maps/contrib/114256222744376998985\">Third Media</a>"], "photo_reference": "ATtYBwLjtlvl-c21Jm6Sa_XoMuVOQrNsG_4qs7Udu-5pTtuGDnCwmTYptRAn2TnSt5G0VUHrbi4Cpek7EkiHNDx-JYmwwp01ifQ2PbsOk4BrM9elIchyGrmmqbHh2EXS41h3cdFkgsjOCT8c-i1C3MGUXGNgHJjTycDk06qj32pXb7ABDHhQ", "width": 1280}], "place_id": "ChIJndgk_UW99jkR3Qq_AmgsiOo", "plus_code": {"compound_code": "PCR9+JW Jharia, Jharkhand, India", "global_code": "7MM8PCR9+JW"}, "reference": "ChIJndgk_UW99jkR3Qq_AmgsiOo", "scope": "GOOGLE", "types": ["hospital", "health", "point_of_interest", "establishment"], "vicinity": "near Vaishno mata mandir, Jharia Main Rd,shiv market, near Vaishno mata mandir, Jharia"}, {"business_status": "OPERATIONAL", "geometry": {"location": {"lat": 23.7309467, "lng": 86.4334483}, "viewport": {"northeast": {"lat": 23.7324396802915, "lng": 86.43476683029151}, "southwest": {"lat": 23.7297417197085, "lng": 86.43206886970849}}}, "icon": "https://maps.gstatic.com/mapfiles/place_api/icons/v1/png_71/hospital-71.png", "name": "Kujama Colliery Tisra", "photos": [{"height": 1080, "html_attributions": ["<a href=\"https://maps.google.com/maps/contrib/102945126061378545843\">Pream Kumar</a>"], "photo_reference": "ATtYBwK0Rg2yCwY6mr0rTm81sKJlKRMUqVO4VslJb5OaLh_7II92_MbGiaZOb8jLXUs-yt1Vulx9au58gXhK391suJk6ZXbkWRfhRk970bfhdi_Yb4amjAT2BsirAnmlKDoXUbNdOiLg4B-0gwxf5Fn1dB51SDTrlcM8ehWuPVAYLwjThhAe", "width": 1920}], "place_id": "ChIJJaydg1u99jkRlLR84ldimF0", "plus_code": {"compound_code": "PCJM+99 Tisra, Jharkhand, India", "global_code": "7MM8PCJM+99"}, "rating": 3.8, "reference": "ChIJJaydg1u99jkRlLR84ldimF0", "scope": "GOOGLE", "types": ["hospital", "health", "point_of_interest", "establishment"], "user_ratings_total": 4, "vicinity": "Tisra"}, {"business_status": "OPERATIONAL", "geometry": {"location": {"lat": 23.7396388, "lng": 86.4183018}, "viewport": {"northeast": {"lat": 23.7409753302915, "lng": 86.41964308029151}, "southwest": {"lat": 23.7382773697085, "lng": 86.4169451197085}}}, "icon": "https://maps.gstatic.com/mapfiles/place_api/icons/v1/png_71/hospital-71.png", "name": "Dr Winfa Mau Dr Parijat Pallav Dental And Orthodontic Clinic", "photos": [{"height": 800, "html_attributions": ["<a href=\"https://maps.google.com/maps/contrib/117040801581421129252\">Dr Winfa Mau Dr Parijat Pallav Dental And Orthodontic Clinic</a>"], "photo_reference": "ATtYBwL6u2zTXYRH7U3i_g1cE7i_wFOM9qU20RcWp_gHRxE56zFqrQPCP2k_9BycLXiEQX6d5xd2RJz16iiWTiBrhe2r1OPo4UEpiZZ9V0k2TtFh1AfWWYfDJnoVbizkogdZVOwiBzdXyRVqYjE0jkJVr3F4LfSFvefIuROxQqHQJhPz78Yd", "width": 1093}], "place_id": "ChIJN3zXqLSi9jkRwKm2cPVbrug", "plus_code": {"compound_code": "PCQ9+V8 Jharia, Jharkhand, India", "global_code": "7MM8PCQ9+V8"}, "rating": 5, "reference": "ChIJN3zXqLSi9jkRwKm2cPVbrug", "scope": "GOOGLE", "types": ["hospital", "health", "point_of_interest", "establishment"], "user_ratings_total": 6, "vicinity": "Gandhi Road, deshbandhu Rd, Jharia"}, {"business_status": "OPERATIONAL", "geometry": {"location": {"lat": 23.7394599, "lng": 86.41798159999999}, "viewport": {"northeast": {"lat": 23.7408252302915, "lng": 86.41928838029149}, "southwest": {"lat": 23.7381272697085, "lng": 86.41659041970848}}}, "icon": "https://maps.gstatic.com/mapfiles/place_api/icons/v1/png_71/hospital-71.png", "name": "DR. J.D KUMAR MEDICAL", "opening_hours": {"open_now": true}, "photos": [{"height": 3120, "html_attributions": ["<a href=\"https://maps.google.com/maps/contrib/102043610308688047379\">satish rawani</a>"], "photo_reference": "ATtYBwJnakJaxiO00Lo1C-ReMw1DS3AjQDcw4Z2Pj0e_PGhpFCkSvPNPtrY87YPFZ3-ArIxemOdtxQYfNiIjN6GxCRoqD0BGTeHA2ISrELiYoCqPdX04NJgCzOKPhd8jCew1aCJ2-Kml6e9CMDmfkhGZLFZzQGhrHKjxKsUgxNqc7VWeWlfJ", "width": 4160}], "place_id": "ChIJ7ZmIWbOi9jkRbBA-aoCtRqo", "plus_code": {"compound_code": "PCQ9+Q5 Jharia, Jharkhand, India", "global_code": "7MM8PCQ9+Q5"}, "rating": 2.7, "reference": "ChIJ7ZmIWbOi9jkRbBA-aoCtRqo", "scope": "GOOGLE", "types": ["hospital", "health", "point_of_interest", "establishment"], "user_ratings_total": 10, "vicinity": "Jharia Main Road, Nai Duniya Mohlla, Jharia"}, {"business_status": "OPERATIONAL", "geometry": {"location": {"lat": 23.738272, "lng": 86.417335}, "viewport": {"northeast": {"lat": 23.7396659802915, "lng": 86.4187240802915}, "southwest": {"lat": 23.7369680197085, "lng": 86.41602611970849}}}, "icon": "https://maps.gstatic.com/mapfiles/place_api/icons/v1/png_71/hospital-71.png", "name": "Vaishnavi clinic", "opening_hours": {"open_now": true}, "place_id": "ChIJBXEvFbOi9jkRgRnTWCLPx6E", "plus_code": {"compound_code": "PCQ8+8W Jharia, Jharkhand, India", "global_code": "7MM8PCQ8+8W"}, "reference": "ChIJBXEvFbOi9jkRgRnTWCLPx6E", "scope": "GOOGLE", "types": ["hospital", "health", "point_of_interest", "establishment"], "vicinity": "Usha Talkies Main Road, Poddar Para, Jharia"}, {"business_status": "OPERATIONAL", "geometry": {"location": {"lat": 23.7381629, "lng": 86.4173466}, "viewport": {"northeast": {"lat": 23.7395210302915, "lng": 86.4186735802915}, "southwest": {"lat": 23.7368230697085, "lng": 86.41597561970849}}}, "icon": "https://maps.gstatic.com/mapfiles/place_api/icons/v1/png_71/hospital-71.png", "name": "Dr Dixit Clinic", "opening_hours": {"open_now": true}, "photos": [{"height": 3120, "html_attributions": ["<a href=\"https://maps.google.com/maps/contrib/107225718720273550531\">Ashok Singh</a>"], "photo_reference": "ATtYBwL9lOLUIk9MT2F753mpwrwlc-wZ0KLEE9yWAGDi3up3mo3isYpztSzVw6E81MTPi0ylNv5NURzMMnpVEl684fl5LYuqIXob_2MrfDX_69BClGuwPLJW0N6fASWynjLkir8T9WPu4j5S6JEsdALLfEg_m1rUihObmqSLFe2KZ1Jj3TER", "width": 4160}], "place_id": "ChIJp4AFFbOi9jkROPhIy4Atnlg", "plus_code": {"compound_code": "PCQ8+7W Jharia, Jharkhand, India", "global_code": "7MM8PCQ8+7W"}, "rating": 4.5, "reference": "ChIJp4AFFbOi9jkROPhIy4Atnlg", "scope": "GOOGLE", "types": ["hospital", "health", "point_of_interest", "establishment"], "user_ratings_total": 2, "vicinity": "4 No. Tempo Stand, Main Road, Jharia"}, {"business_status": "OPERATIONAL", "geometry": {"location": {"lat": 23.7364415, "lng": 86.44248499999999}, "viewport": {"northeast": {"lat": 23.7377856302915, "lng": 86.4438008802915}, "southwest": {"lat": 23.73508766970849, "lng": 86.44110291970848}}}, "icon": "https://maps.gstatic.com/mapfiles/place_api/icons/v1/png_71/hospital-71.png", "name": "PANDEY CLINIC", "photos": [{"height": 1280, "html_attributions": ["<a href=\"https://maps.google.com/maps/contrib/112142310226313473931\">Future funny Thought</a>"], "photo_reference": "ATtYBwJ0tbCPUZrbFNq281oyDwHuWjLMXbhskLiuoqa2q3vXhW8Pk0eAmxN9_s4mkVDdQ5LjNtLiYoR63g6goOJSmN4TNCpjvY_GDyqMf0yPEJjHHqPV5qBnLgjjjVutTR7wcwKET9irsr2WnwneKeR0BVhBIvFghZ2rtNSru4B_EZFEX5LE", "width": 720}], "place_id": "ChIJO6Uv6Wi99jkRelYP5kU3O5I", "plus_code": {"compound_code": "PCPR+HX Tisra, Jharkhand, India", "global_code": "7MM8PCPR+HX"}, "rating": 4.5, "reference": "ChIJO6Uv6Wi99jkRelYP5kU3O5I", "scope": "GOOGLE", "types": ["hospital", "health", "point_of_interest", "establishment"], "user_ratings_total": 2, "vicinity": "Jairampur More to Baliapur, Tisra"}, {"business_status": "OPERATIONAL", "geometry": {"location": {"lat": 23.7426603, "lng": 86.4169309}, "viewport": {"northeast": {"lat": 23.7438951802915, "lng": 86.4182096802915}, "southwest": {"lat": 23.7411972197085, "lng": 86.41551171970849}}}, "icon": "https://maps.gstatic.com/mapfiles/place_api/icons/v1/png_71/hospital-71.png", "name": "Life line hospital", "photos": [{"height": 1920, "html_attributions": ["<a href=\"https://maps.google.com/maps/contrib/107927740883356300656\">Sagar Kumar</a>"], "photo_reference": "ATtYBwKNgXUk0YPUGSDu1wf1-FuIAJQPwD_S__fFT53GJIyLnLbcjYvPdPLfIugyVDgfY8Rf7KptgQxIJBkiJiNHtZGn2bk45Auk4fuMW0D1Vln6imtZzD5Jk5AJgiZ7IjhIy6ZFsB4MlsdKm2VxQmqVmO78DvR_C7c_kJgFRkaumZN_39Kv", "width": 1080}], "place_id": "ChIJW5xSfPCj9jkRNL8jxgjBuuY", "plus_code": {"compound_code": "PCV8+3Q Jharia, Jharkhand, India", "global_code": "7MM8PCV8+3Q"}, "rating": 4, "reference": "ChIJW5xSfPCj9jkRNL8jxgjBuuY", "scope": "GOOGLE", "types": ["hospital", "health", "point_of_interest", "establishment"], "user_ratings_total": 8, "vicinity": "Lal Bazar, Jharia"}, {"business_status": "OPERATIONAL", "geometry": {"location": {"lat": 23.7427655, "lng": 86.4164987}, "viewport": {"northeast": {"lat": 23.74410088029151, "lng": 86.4178894802915}, "southwest": {"lat": 23.7414029197085, "lng": 86.4151915197085}}}, "icon": "https://maps.gstatic.com/mapfiles/place_api/icons/v1/png_71/hospital-71.png", "name": "Mukherjee's Dental Care", "opening_hours": {"open_now": true}, "photos": [{"height": 3000, "html_attributions": ["<a href=\"https://maps.google.com/maps/contrib/111219124962781105437\">Mukherjee&#39;s Dental Care</a>"], "photo_reference": "ATtYBwLpU55jVyFsRgJIUeLfchSRSOfS7nSCmTEX7rlLF0c2UKkkNUuyE8q57Ur4BZOyRCOaG9oqExcVUpuJ1PbA5nOmxJ1doRO4dEVBe4KslIsYEl-ABHMHOOD1RruCuzYBZxFQyWa2BmlVQbpd7sIqm95h8jphtP4hwYcJgjVOJEJxe1ni", "width": 4000}], "place_id": "ChIJm4X-AbWi9jkRDIrO8ZAlxVc", "plus_code": {"compound_code": "PCV8+4H Jharia, Jharkhand, India", "global_code": "7MM8PCV8+4H"}, "rating": 4.8, "reference": "ChIJm4X-AbWi9jkRDIrO8ZAlxVc", "scope": "GOOGLE", "types": ["hospital", "health", "point_of_interest", "establishment"], "user_ratings_total": 22, "vicinity": "near Life line hospital, Sabji Patti, near Life line hospital, Jharia"}], "status": "OK"}