{"html_attributions": [], "results": [{"business_status": "OPERATIONAL", "geometry": {"location": {"lat": 26.0187577, "lng": 89.9869547}, "viewport": {"northeast": {"lat": 26.0201103802915, "lng": 89.9882676302915}, "southwest": {"lat": 26.0174124197085, "lng": 89.9855696697085}}}, "icon": "https://maps.gstatic.com/mapfiles/place_api/icons/v1/png_71/shopping-71.png", "icon_background_color": "#4B96F3", "icon_mask_base_uri": "https://maps.gstatic.com/mapfiles/place_api/icons/v2/shopping_pinlet", "name": "town store", "opening_hours": {"open_now": true}, "place_id": "ChIJP1CVRhOg4jkRR19XV-ZIPzA", "plus_code": {"compound_code": "2X9P+GQ Dhubri, Assam, India", "global_code": "7MRF2X9P+GQ"}, "rating": 5, "reference": "ChIJP1CVRhOg4jkRR19XV-ZIPzA", "scope": "GOOGLE", "types": ["department_store", "point_of_interest", "store", "establishment"], "user_ratings_total": 2, "vicinity": "Boro Bazar, Dhubri"}, {"business_status": "OPERATIONAL", "geometry": {"location": {"lat": 26.0198236, "lng": 89.9877319}, "viewport": {"northeast": {"lat": 26.0211760802915, "lng": 89.9890708802915}, "southwest": {"lat": 26.0184781197085, "lng": 89.98637291970849}}}, "icon": "https://maps.gstatic.com/mapfiles/place_api/icons/v1/png_71/shopping-71.png", "icon_background_color": "#4B96F3", "icon_mask_base_uri": "https://maps.gstatic.com/mapfiles/place_api/icons/v2/shopping_pinlet", "name": "M Baazar Dhubri", "opening_hours": {"open_now": true}, "photos": [{"height": 608, "html_attributions": ["<a href=\"https://maps.google.com/maps/contrib/107253702293998568479\">M Baazar Dhubri</a>"], "photo_reference": "Aap_uEAnqpQkWI9RwswYR47T466USxSmTYZpteorHvXLvTU5fa23GrEs3Mqnv7hJCJG7AE32lKHpOz-WKIPbamHO3QhGg_iYZr9mol4N-TZxRi6QeD1HYe8ctfAAUWyzjjO_uYRZxIAuOCxWhRK3yoZLDR87NxtIZA566EzwtT1FJ5uO59m9", "width": 1080}], "place_id": "ChIJc4O8EBOg4jkRy4XvbAyssJ0", "plus_code": {"compound_code": "2X9Q+W3 Dhubri, Assam, India", "global_code": "7MRF2X9Q+W3"}, "rating": 3.9, "reference": "ChIJc4O8EBOg4jkRy4XvbAyssJ0", "scope": "GOOGLE", "types": ["department_store", "shopping_mall", "point_of_interest", "store", "establishment"], "user_ratings_total": 322, "vicinity": "204 H.N. ROAD OPP. NARAYAN AC ARCADE, Dhubri"}, {"business_status": "OPERATIONAL", "geometry": {"location": {"lat": 26.0223625, "lng": 89.9807275}, "viewport": {"northeast": {"lat": 26.0237548802915, "lng": 89.98199083029151}, "southwest": {"lat": 26.0210569197085, "lng": 89.97929286970849}}}, "icon": "https://maps.gstatic.com/mapfiles/place_api/icons/v1/png_71/shopping-71.png", "icon_background_color": "#4B96F3", "icon_mask_base_uri": "https://maps.gstatic.com/mapfiles/place_api/icons/v2/shopping_pinlet", "name": "V-Mart", "opening_hours": {"open_now": true}, "photos": [{"height": 4160, "html_attributions": ["<a href=\"https://maps.google.com/maps/contrib/114560555438327714460\">Reza official</a>"], "photo_reference": "Aap_uEDrU4WMEsQxUBy4zRtdPGKAd94fjkizzflOzkGJqXospoMSnfk8ngZpB5TyQecEf8_ehCO5T3Us2Fj8f4jZCEymQKfO1fogNgGPaYgnRW3YKHSwnI14LBhE62d5dsSlUMcsyCoCwqY_iNsROeeZK3DF3Goz-J1vGoG_GwkRAb36KER8", "width": 2352}], "place_id": "ChIJvVXb3pmh4jkRLe_slkdqNmk", "plus_code": {"compound_code": "2XCJ+W7 Dhubri, Assam, India", "global_code": "7MRF2XCJ+W7"}, "rating": 3.6, "reference": "ChIJvVXb3pmh4jkRLe_slkdqNmk", "scope": "GOOGLE", "types": ["clothing_store", "department_store", "convenience_store", "food", "point_of_interest", "store", "establishment"], "user_ratings_total": 10, "vicinity": "Ward No, 9, GTB Road, Bidyapara, Dhubri"}, {"business_status": "OPERATIONAL", "geometry": {"location": {"lat": 26.0206982, "lng": 89.9743463}, "viewport": {"northeast": {"lat": 26.0219513302915, "lng": 89.9758081802915}, "southwest": {"lat": 26.0192533697085, "lng": 89.97311021970847}}}, "icon": "https://maps.gstatic.com/mapfiles/place_api/icons/v1/png_71/shopping-71.png", "icon_background_color": "#4B96F3", "icon_mask_base_uri": "https://maps.gstatic.com/mapfiles/place_api/icons/v2/shopping_pinlet", "name": "M Baazar Bilasipara", "opening_hours": {"open_now": false}, "place_id": "ChIJ251C6Dmh4jkRB0UrbbpOMGs", "plus_code": {"compound_code": "2XCF+7P Dhubri, Assam, India", "global_code": "7MRF2XCF+7P"}, "rating": 5, "reference": "ChIJ251C6Dmh4jkRB0UrbbpOMGs", "scope": "GOOGLE", "types": ["department_store", "point_of_interest", "store", "establishment"], "user_ratings_total": 1, "vicinity": "J.P ROAD, WARD NO.11 DIST, Dhubri"}], "status": "OK"}