{"html_attributions": [], "results": [{"business_status": "OPERATIONAL", "geometry": {"location": {"lat": 25.5965072, "lng": 89.9494953}, "viewport": {"northeast": {"lat": 25.5979035302915, "lng": 89.95075233029151}, "southwest": {"lat": 25.5952055697085, "lng": 89.9480543697085}}}, "icon": "https://maps.gstatic.com/mapfiles/place_api/icons/v1/png_71/school-71.png", "icon_background_color": "#7B9EB0", "icon_mask_base_uri": "https://maps.gstatic.com/mapfiles/place_api/icons/v2/school_pinlet", "name": "Naribhita L.p school", "place_id": "ChIJza_atWVV_TkRNWFoLFlFCUI", "plus_code": {"compound_code": "HWWX+JQ Chomrashali, Assam, India", "global_code": "7MQFHWWX+JQ"}, "reference": "ChIJza_atWVV_TkRNWFoLFlFCUI", "scope": "GOOGLE", "types": ["primary_school", "school", "point_of_interest", "establishment"], "vicinity": "Unnamed Road, Chomrashali"}, {"business_status": "OPERATIONAL", "geometry": {"location": {"lat": 25.6023177, "lng": 89.95252459999999}, "viewport": {"northeast": {"lat": 25.60368598029151, "lng": 89.9538355302915}, "southwest": {"lat": 25.6009880197085, "lng": 89.9511375697085}}}, "icon": "https://maps.gstatic.com/mapfiles/place_api/icons/v1/png_71/school-71.png", "icon_background_color": "#7B9EB0", "icon_mask_base_uri": "https://maps.gstatic.com/mapfiles/place_api/icons/v2/school_pinlet", "name": "Navadeep Jatio Vidyalaya, Baghapara (NJVB)", "opening_hours": {"open_now": true}, "place_id": "ChIJ5yPstp9V_TkRN73oj2Osj4A", "reference": "ChIJ5yPstp9V_TkRN73oj2Osj4A", "scope": "GOOGLE", "types": ["primary_school", "school", "point_of_interest", "establishment"], "vicinity": "JX23+W2C, Gopalpur"}, {"business_status": "OPERATIONAL", "geometry": {"location": {"lat": 25.6050724, "lng": 89.9546697}, "viewport": {"northeast": {"lat": 25.6064313302915, "lng": 89.95599128029151}, "southwest": {"lat": 25.60373336970849, "lng": 89.9532933197085}}}, "icon": "https://maps.gstatic.com/mapfiles/place_api/icons/v1/png_71/school-71.png", "icon_background_color": "#7B9EB0", "icon_mask_base_uri": "https://maps.gstatic.com/mapfiles/place_api/icons/v2/school_pinlet", "name": "Jangal Chariali LP School", "place_id": "ChIJieHTKPFV_TkRWf0b5MZzh-I", "rating": 5, "reference": "ChIJieHTKPFV_TkRWf0b5MZzh-I", "scope": "GOOGLE", "types": ["primary_school", "school", "point_of_interest", "establishment"], "user_ratings_total": 1, "vicinity": "JX43+2VF, Gopalpur"}], "status": "OK"}