{"html_attributions": [], "results": [{"business_status": "OPERATIONAL", "geometry": {"location": {"lat": 26.0227461, "lng": 89.96693309999999}, "viewport": {"northeast": {"lat": 26.0240640802915, "lng": 89.9682548302915}, "southwest": {"lat": 26.02136611970849, "lng": 89.9655568697085}}}, "icon": "https://maps.gstatic.com/mapfiles/place_api/icons/v1/png_71/school-71.png", "icon_background_color": "#7B9EB0", "icon_mask_base_uri": "https://maps.gstatic.com/mapfiles/place_api/icons/v2/school_pinlet", "name": "Khalilpur L.P School,Dhubri", "opening_hours": {"open_now": true}, "place_id": "ChIJsZQGGzSg4jkRwcc--1DN-10", "rating": 2, "reference": "ChIJsZQGGzSg4jkRwcc--1DN-10", "scope": "GOOGLE", "types": ["primary_school", "school", "point_of_interest", "establishment"], "user_ratings_total": 1, "vicinity": "2XF8+3QV, Silghagri, Santi Nagar, Dhubri"}, {"business_status": "CLOSED_TEMPORARILY", "geometry": {"location": {"lat": 26.0280827, "lng": 89.97111530000001}, "viewport": {"northeast": {"lat": 26.0294016302915, "lng": 89.9723984302915}, "southwest": {"lat": 26.0267036697085, "lng": 89.9697004697085}}}, "icon": "https://maps.gstatic.com/mapfiles/place_api/icons/v1/png_71/school-71.png", "icon_background_color": "#7B9EB0", "icon_mask_base_uri": "https://maps.gstatic.com/mapfiles/place_api/icons/v2/school_pinlet", "name": "1869 Nababidyapara LP School", "permanently_closed": true, "place_id": "ChIJ7ThTazCg4jkR8i9AC959Z_E", "reference": "ChIJ7ThTazCg4jkR8i9AC959Z_E", "scope": "GOOGLE", "types": ["primary_school", "school", "point_of_interest", "establishment"], "vicinity": "2XHC+6CQ, College Nagar, Dhubri"}, {"business_status": "OPERATIONAL", "geometry": {"location": {"lat": 26.0191849, "lng": 89.9767506}, "viewport": {"northeast": {"lat": 26.0206128302915, "lng": 89.9779111302915}, "southwest": {"lat": 26.0179148697085, "lng": 89.9752131697085}}}, "icon": "https://maps.gstatic.com/mapfiles/place_api/icons/v1/png_71/school-71.png", "icon_background_color": "#7B9EB0", "icon_mask_base_uri": "https://maps.gstatic.com/mapfiles/place_api/icons/v2/school_pinlet", "name": "1709 Shantinagar LP School", "opening_hours": {"open_now": true}, "photos": [{"height": 1080, "html_attributions": ["<a href=\"https://maps.google.com/maps/contrib/103040076468677319984\">Sumanta Das</a>"], "photo_reference": "Aap_uECzeRkjE1m_ETDVH72nmVrQPzLM5KaBsysAsnOSBphlHInJIgcX13vIrOtkC1wEeVv8VQnEIU4tfusRpk8tN2VA5VwLH2Oi--4Qu4PWhyFopZlUEdub40YxbvDHKPGlXaSrLZeeBjL5pqkAqBzagvUkmO6gA1ZZYkqFHFRG21rSPAko", "width": 1920}], "place_id": "ChIJl4aiSj-g4jkR-LtEbN3BeWc", "plus_code": {"compound_code": "2X9G+MP Dhubri, Assam, India", "global_code": "7MRF2X9G+MP"}, "rating": 5, "reference": "ChIJl4aiSj-g4jkR-LtEbN3BeWc", "scope": "GOOGLE", "types": ["primary_school", "school", "point_of_interest", "establishment"], "user_ratings_total": 1, "vicinity": "Shantinagar Road, Santi Nagar, Dhubri"}], "status": "OK"}