{"html_attributions": [], "results": [{"business_status": "CLOSED_TEMPORARILY", "geometry": {"location": {"lat": 26.0203379, "lng": 89.9856988}, "viewport": {"northeast": {"lat": 26.0216854802915, "lng": 89.98705848029151}, "southwest": {"lat": 26.0189875197085, "lng": 89.9843605197085}}}, "icon": "https://maps.gstatic.com/mapfiles/place_api/icons/v1/png_71/school-71.png", "icon_background_color": "#7B9EB0", "icon_mask_base_uri": "https://maps.gstatic.com/mapfiles/place_api/icons/v2/school_pinlet", "name": "679 No Matrimandir Sanhati L.P. School", "permanently_closed": true, "photos": [{"height": 720, "html_attributions": ["<a href=\"https://maps.google.com/maps/contrib/114962497702974484561\">Biswanath Pratap Shah</a>"], "photo_reference": "Aap_uEBG-AymuP_0tGnnX-8UE0c81Ae82eoYZwvzVC9VAo1EkT_0FtA7qQAsTzRFBF6GJER19zR7YvgOqzQH6JJ34XvTWVQx97maK8BrBZASsCo09A5TH4s7999LM8cYVA8pqLa_lXEAl-5LzYKhjzXM5dE5mLxIozbG2CoE0LBuAPlZb0W8", "width": 1280}], "place_id": "ChIJDYmphhSg4jkR_3P2KURGPQg", "plus_code": {"compound_code": "2XCP+47 Dhubri, Assam, India", "global_code": "7MRF2XCP+47"}, "reference": "ChIJDYmphhSg4jkR_3P2KURGPQg", "scope": "GOOGLE", "types": ["primary_school", "school", "point_of_interest", "establishment"], "vicinity": "Boro Bazar, Dhubri"}, {"business_status": "OPERATIONAL", "geometry": {"location": {"lat": 26.0199637, "lng": 89.9861853}, "viewport": {"northeast": {"lat": 26.0213212302915, "lng": 89.98749888029151}, "southwest": {"lat": 26.0186232697085, "lng": 89.9848009197085}}}, "icon": "https://maps.gstatic.com/mapfiles/place_api/icons/v1/png_71/school-71.png", "icon_background_color": "#7B9EB0", "icon_mask_base_uri": "https://maps.gstatic.com/mapfiles/place_api/icons/v2/school_pinlet", "name": "922 No. Town Nimna Buniyadi School", "place_id": "ChIJY8_SfBOg4jkR6BHzZeRf4rQ", "reference": "ChIJY8_SfBOg4jkR6BHzZeRf4rQ", "scope": "GOOGLE", "types": ["primary_school", "school", "point_of_interest", "establishment"], "vicinity": "2X9P+XFM, Boro Bazar, Dhubri"}, {"business_status": "CLOSED_TEMPORARILY", "geometry": {"location": {"lat": 26.0192221, "lng": 89.98717529999999}, "viewport": {"northeast": {"lat": 26.0205731302915, "lng": 89.9885199802915}, "southwest": {"lat": 26.0178751697085, "lng": 89.9858220197085}}}, "icon": "https://maps.gstatic.com/mapfiles/place_api/icons/v1/png_71/school-71.png", "icon_background_color": "#7B9EB0", "icon_mask_base_uri": "https://maps.gstatic.com/mapfiles/place_api/icons/v2/school_pinlet", "name": "Bahadurtari LP School", "permanently_closed": true, "place_id": "ChIJq6qqahOg4jkRd67cV7Df9vQ", "plus_code": {"compound_code": "2X9P+MV Dhubri, Assam, India", "global_code": "7MRF2X9P+MV"}, "rating": 2, "reference": "ChIJq6qqahOg4jkRd67cV7Df9vQ", "scope": "GOOGLE", "types": ["primary_school", "school", "point_of_interest", "establishment"], "user_ratings_total": 1, "vicinity": "Bahadurtary, Dhubri"}, {"business_status": "OPERATIONAL", "geometry": {"location": {"lat": 26.0163913, "lng": 89.98069919999999}, "viewport": {"northeast": {"lat": 26.0177263302915, "lng": 89.9820510802915}, "southwest": {"lat": 26.0150283697085, "lng": 89.97935311970848}}}, "icon": "https://maps.gstatic.com/mapfiles/place_api/icons/v1/png_71/school-71.png", "icon_background_color": "#7B9EB0", "icon_mask_base_uri": "https://maps.gstatic.com/mapfiles/place_api/icons/v2/school_pinlet", "name": "Binapani L.P. School", "opening_hours": {"open_now": true}, "place_id": "ChIJefyWF0Cg4jkRWYEDaX_ukmM", "plus_code": {"compound_code": "2X8J+H7 Dhubri, Assam, India", "global_code": "7MRF2X8J+H7"}, "rating": 4, "reference": "ChIJefyWF0Cg4jkRWYEDaX_ukmM", "scope": "GOOGLE", "types": ["primary_school", "school", "point_of_interest", "establishment"], "user_ratings_total": 2, "vicinity": "Ward No. 12, Old Petrol Tank Road, Dhubri"}, {"business_status": "OPERATIONAL", "geometry": {"location": {"lat": 26.0191849, "lng": 89.9767506}, "viewport": {"northeast": {"lat": 26.0206128302915, "lng": 89.9779111302915}, "southwest": {"lat": 26.0179148697085, "lng": 89.9752131697085}}}, "icon": "https://maps.gstatic.com/mapfiles/place_api/icons/v1/png_71/school-71.png", "icon_background_color": "#7B9EB0", "icon_mask_base_uri": "https://maps.gstatic.com/mapfiles/place_api/icons/v2/school_pinlet", "name": "1709 Shantinagar LP School", "opening_hours": {"open_now": true}, "photos": [{"height": 1080, "html_attributions": ["<a href=\"https://maps.google.com/maps/contrib/103040076468677319984\">Sumanta Das</a>"], "photo_reference": "Aap_uEChnw4bDPZFBxZYtMHkiXEOL3WzOdXiDsB37f03whP-h5HrElEBbjdLBTo1wNf-VqdxviTVnfCmdHyXnDPbt98Mdz7xK1xD7OwuLC1JP2nAplKq4zpd0xp9OAAMADDAI3zFW7Et4oZ_c2nwKoYiL7IQSAJm-00cegoCP_zPER7pApBw", "width": 1920}], "place_id": "ChIJl4aiSj-g4jkR-LtEbN3BeWc", "plus_code": {"compound_code": "2X9G+MP Dhubri, Assam, India", "global_code": "7MRF2X9G+MP"}, "rating": 5, "reference": "ChIJl4aiSj-g4jkR-LtEbN3BeWc", "scope": "GOOGLE", "types": ["primary_school", "school", "point_of_interest", "establishment"], "user_ratings_total": 1, "vicinity": "Shantinagar Road, Santi Nagar, Dhubri"}], "status": "OK"}