{"html_attributions": [], "results": [{"business_status": "OPERATIONAL", "geometry": {"location": {"lat": 26.22424880000001, "lng": 90.23073420000001}, "viewport": {"northeast": {"lat": 26.22558513029151, "lng": 90.23198658029152}, "southwest": {"lat": 26.2228871697085, "lng": 90.2292886197085}}}, "icon": "https://maps.gstatic.com/mapfiles/place_api/icons/v1/png_71/school-71.png", "icon_background_color": "#7B9EB0", "icon_mask_base_uri": "https://maps.gstatic.com/mapfiles/place_api/icons/v2/school_pinlet", "name": "Town JB LP School", "photos": [{"height": 1844, "html_attributions": ["<a href=\"https://maps.google.com/maps/contrib/101512297710043695411\">Choton Saha</a>"], "photo_reference": "Aap_uEDSp6ORA4I_f-oAvZH56svW0enhxfWgn385hbRP3SHgKarQRWoZC_EpSHxqpd94BGATGIX9Si5RYkUyuJGYbyblw9j6W9aKx6BvtN8XVDtVUg9G5rQe4FnFhdfEn6x4GdtGEs3-kkdUkPLQG8rTq1mN_A-3LOdeDV_sUrCigdM67EbM", "width": 4000}], "place_id": "ChIJjcnszK5oWDcRjqPx17lbpV0", "rating": 3, "reference": "ChIJjcnszK5oWDcRjqPx17lbpV0", "scope": "GOOGLE", "types": ["primary_school", "school", "point_of_interest", "establishment"], "user_ratings_total": 2, "vicinity": "66FJ+M7X, Bilasipara"}, {"business_status": "OPERATIONAL", "geometry": {"location": {"lat": 26.2200172, "lng": 90.2484423}, "viewport": {"northeast": {"lat": 26.2212917302915, "lng": 90.2493800302915}, "southwest": {"lat": 26.21859376970849, "lng": 90.24668206970848}}}, "icon": "https://maps.gstatic.com/mapfiles/place_api/icons/v1/png_71/school-71.png", "icon_background_color": "#7B9EB0", "icon_mask_base_uri": "https://maps.gstatic.com/mapfiles/place_api/icons/v2/school_pinlet", "name": "Hatipota LP School", "place_id": "ChIJVbHBIppoWDcR72vzOVATfY8", "plus_code": {"compound_code": "66CX+29 Hatipota Pt.II, Assam, India", "global_code": "7MRG66CX+29"}, "reference": "ChIJVbHBIppoWDcR72vzOVATfY8", "scope": "GOOGLE", "types": ["primary_school", "school", "point_of_interest", "establishment"], "vicinity": "To Hatipota Char, Hatipota Pt.II"}, {"business_status": "OPERATIONAL", "geometry": {"location": {"lat": 26.221776, "lng": 90.25607699999999}, "viewport": {"northeast": {"lat": 26.2231334802915, "lng": 90.2575068802915}, "southwest": {"lat": 26.2204355197085, "lng": 90.2548089197085}}}, "icon": "https://maps.gstatic.com/mapfiles/place_api/icons/v1/png_71/school-71.png", "icon_background_color": "#7B9EB0", "icon_mask_base_uri": "https://maps.gstatic.com/mapfiles/place_api/icons/v2/school_pinlet", "name": "Shaheb Prathamik School Bilasipara", "place_id": "ChIJtfZFDGJpWDcRFZlUldvVAJ4", "plus_code": {"compound_code": "67C4+PC Hatipota Pt.I, Assam, India", "global_code": "7MRG67C4+PC"}, "reference": "ChIJtfZFDGJpWDcRFZlUldvVAJ4", "scope": "GOOGLE", "types": ["primary_school", "school", "point_of_interest", "establishment"], "vicinity": "Unnamed Road, Hatipota Pt.I"}, {"business_status": "OPERATIONAL", "geometry": {"location": {"lat": 26.2223519, "lng": 90.2566439}, "viewport": {"northeast": {"lat": 26.2236710302915, "lng": 90.2577651802915}, "southwest": {"lat": 26.2209730697085, "lng": 90.2550672197085}}}, "icon": "https://maps.gstatic.com/mapfiles/place_api/icons/v1/png_71/school-71.png", "icon_background_color": "#7B9EB0", "icon_mask_base_uri": "https://maps.gstatic.com/mapfiles/place_api/icons/v2/school_pinlet", "name": "Saheb Prathamik Vidylaya", "place_id": "ChIJ9by4uIBpWDcRjfTlXQ_dGM0", "plus_code": {"compound_code": "67C4+WM Bilasipara, Assam, India", "global_code": "7MRG67C4+WM"}, "reference": "ChIJ9by4uIBpWDcRjfTlXQ_dGM0", "scope": "GOOGLE", "types": ["primary_school", "school", "point_of_interest", "establishment"], "vicinity": "Village- hatipota pt.1, Bilasipara"}], "status": "OK"}