{"html_attributions": [], "results": [{"business_status": "OPERATIONAL", "geometry": {"location": {"lat": 26.0366699, "lng": 90.3057986}, "viewport": {"northeast": {"lat": 26.0379433802915, "lng": 90.3072003302915}, "southwest": {"lat": 26.0352454197085, "lng": 90.30450236970849}}}, "icon": "https://maps.gstatic.com/mapfiles/place_api/icons/v1/png_71/school-71.png", "icon_background_color": "#7B9EB0", "icon_mask_base_uri": "https://maps.gstatic.com/mapfiles/place_api/icons/v2/school_pinlet", "name": "Sri Sri Ram Krishna L.P School", "place_id": "ChIJt41AE_k_WDcRNFahT4O9Ttw", "plus_code": {"compound_code": "28P4+M8 Lakhipur, Assam, India", "global_code": "7MRG28P4+M8"}, "rating": 5, "reference": "ChIJt41AE_k_WDcRNFahT4O9Ttw", "scope": "GOOGLE", "types": ["primary_school", "school", "point_of_interest", "establishment"], "user_ratings_total": 1, "vicinity": "Ward No 2, Goalpara,, Lakhipur"}, {"business_status": "OPERATIONAL", "geometry": {"location": {"lat": 26.0339965, "lng": 90.3028563}, "viewport": {"northeast": {"lat": 26.0351426302915, "lng": 90.30427778029151}, "southwest": {"lat": 26.03244466970849, "lng": 90.3015798197085}}}, "icon": "https://maps.gstatic.com/mapfiles/place_api/icons/v1/png_71/school-71.png", "icon_background_color": "#7B9EB0", "icon_mask_base_uri": "https://maps.gstatic.com/mapfiles/place_api/icons/v2/school_pinlet", "name": "Bishwajyoti Jatiya Bidyalaya, Lakhipur", "opening_hours": {"open_now": true}, "photos": [{"height": 3468, "html_attributions": ["<a href=\"https://maps.google.com/maps/contrib/103826719191791258422\">Bishwajyoti Jatiya Bidyalaya, Lakhipur</a>"], "photo_reference": "Aap_uEC_Qpd5PD6e9v7If8RV4DpPt-wxnxJ__2YOdfuASyvFZL4Oj2_xEV1BH8T9eZR8Q3UPbJL2oWR8iRSQFErmqnGkFL6x8K8aOcXUEtrW49vyL1x4qxJt7wMNlYhaDhPTaeDvM9xWCzYAGAo1nsOJRD0zCwwv4oDUJDBsK8510a7TfIdg", "width": 4624}], "place_id": "ChIJb6RgB_s_WDcRD4HBQ060BAM", "plus_code": {"compound_code": "28M3+H4 Lakhipur, Assam, India", "global_code": "7MRG28M3+H4"}, "rating": 4.4, "reference": "ChIJb6RgB_s_WDcRD4HBQ060BAM", "scope": "GOOGLE", "types": ["primary_school", "secondary_school", "school", "point_of_interest", "establishment"], "user_ratings_total": 11, "vicinity": "Ward No. 2, PWD Road, Lakhipur - Goalpara Road, Bamunpara"}, {"business_status": "OPERATIONAL", "geometry": {"location": {"lat": 26.0453762, "lng": 90.31714319999999}, "viewport": {"northeast": {"lat": 26.0468246802915, "lng": 90.31844738029149}, "southwest": {"lat": 26.0441267197085, "lng": 90.31574941970848}}}, "icon": "https://maps.gstatic.com/mapfiles/place_api/icons/v1/png_71/school-71.png", "icon_background_color": "#7B9EB0", "icon_mask_base_uri": "https://maps.gstatic.com/mapfiles/place_api/icons/v2/school_pinlet", "name": "Taltola LP School", "photos": [{"height": 2000, "html_attributions": ["<a href=\"https://maps.google.com/maps/contrib/114899905404735047737\">Tasnim Zotder</a>"], "photo_reference": "Aap_uECTyw-cMQZIPJSkjj_6orWdEWykdPQHia4jGa8VBbAu3Z3VmEyvzBNHZoarUPRlw7s-bJryQ2BCoon1b-iq9mzf8mXANv6ecipggSLCn3baX2FuK6zsUcmR15ieFjYSnIz1ntpN3ERfVYpmoe9z_Uj-8nSRoZO_MHz4THrPdQx0KFib", "width": 4000}], "place_id": "ChIJj_7jL1RBWDcReUTkNBjZNg8", "rating": 4, "reference": "ChIJj_7jL1RBWDcReUTkNBjZNg8", "scope": "GOOGLE", "types": ["primary_school", "school", "point_of_interest", "establishment"], "user_ratings_total": 2, "vicinity": "28W8+5V2, Goalpara"}], "status": "OK"}