{"html_attributions": [], "results": [{"business_status": "OPERATIONAL", "geometry": {"location": {"lat": 25.0995481, "lng": 85.8547861}, "viewport": {"northeast": {"lat": 25.1008922302915, "lng": 85.8561849802915}, "southwest": {"lat": 25.0981942697085, "lng": 85.8534870197085}}}, "icon": "https://maps.gstatic.com/mapfiles/place_api/icons/v1/png_71/hospital-71.png", "icon_background_color": "#F88181", "icon_mask_base_uri": "https://maps.gstatic.com/mapfiles/place_api/icons/v2/hospital-H_pinlet", "name": "KRISHNA HOSPITAL", "place_id": "ChIJ2YzglptG8jkRWW7n4xmTeXg", "rating": 5, "reference": "ChIJ2YzglptG8jkRWW7n4xmTeXg", "scope": "GOOGLE", "types": ["hospital", "health", "point_of_interest", "establishment"], "user_ratings_total": 3, "vicinity": "3VX3+RW7, Sheikhpura"}, {"business_status": "OPERATIONAL", "geometry": {"location": {"lat": 25.1049918, "lng": 85.85382229999999}, "viewport": {"northeast": {"lat": 25.1063502802915, "lng": 85.8550992302915}, "southwest": {"lat": 25.10365231970849, "lng": 85.85240126970848}}}, "icon": "https://maps.gstatic.com/mapfiles/place_api/icons/v1/png_71/hospital-71.png", "icon_background_color": "#F88181", "icon_mask_base_uri": "https://maps.gstatic.com/mapfiles/place_api/icons/v2/hospital-H_pinlet", "name": "Rishi clinic", "place_id": "ChIJwWqu9tJH8jkRVEz9uKEmH8A", "plus_code": {"compound_code": "4V33+XG Husainabad, Bihar, India", "global_code": "7MQ74V33+XG"}, "reference": "ChIJwWqu9tJH8jkRVEz9uKEmH8A", "scope": "GOOGLE", "types": ["hospital", "health", "point_of_interest", "establishment"], "vicinity": "Arha-Sheikhpura Road"}, {"business_status": "OPERATIONAL", "geometry": {"location": {"lat": 25.10517249999999, "lng": 85.85449009999999}, "viewport": {"northeast": {"lat": 25.1063243302915, "lng": 85.85586528029151}, "southwest": {"lat": 25.1036263697085, "lng": 85.8531673197085}}}, "icon": "https://maps.gstatic.com/mapfiles/place_api/icons/v1/png_71/hospital-71.png", "icon_background_color": "#F88181", "icon_mask_base_uri": "https://maps.gstatic.com/mapfiles/place_api/icons/v2/hospital-H_pinlet", "name": "Rishi clinic Belchhi Mod husenabad", "place_id": "ChIJz09yazBH8jkRu_wP0qOzseY", "reference": "ChIJz09yazBH8jkRu_wP0qOzseY", "scope": "GOOGLE", "types": ["hospital", "health", "point_of_interest", "establishment"], "vicinity": "4V43+3Q9, Husainabad"}, {"business_status": "OPERATIONAL", "geometry": {"location": {"lat": 25.1052278, "lng": 85.8557956}, "viewport": {"northeast": {"lat": 25.1065745302915, "lng": 85.85716828029149}, "southwest": {"lat": 25.1038765697085, "lng": 85.85447031970848}}}, "icon": "https://maps.gstatic.com/mapfiles/place_api/icons/v1/png_71/hospital-71.png", "icon_background_color": "#F88181", "icon_mask_base_uri": "https://maps.gstatic.com/mapfiles/place_api/icons/v2/hospital-H_pinlet", "name": "A To Z Medical Hall", "photos": [{"height": 4000, "html_attributions": ["<a href=\"https://maps.google.com/maps/contrib/111359011784695296465\">Rajesh Kumar</a>"], "photo_reference": "Aap_uEAmIV9oAolsymo2k4EqCTew0LB8gEO1RiFi-06J-IY9_mFwV55Pu1wljMhbCiMbxNgjqaZKjtNP_SNUbk6RbIZb7NSaUvobsh-9Y-S1ptkcZ4C0eddZB4pJ2OnBX4YlD6DP_vKbDtgrIij-p98HFQPn810jwqvo3je1SG9z7uWtA8l8", "width": 2250}], "place_id": "ChIJlZ-O-phG8jkRN2bjaL5t_ec", "rating": 3, "reference": "ChIJlZ-O-phG8jkRN2bjaL5t_ec", "scope": "GOOGLE", "types": ["hospital", "health", "point_of_interest", "establishment"], "user_ratings_total": 2, "vicinity": "4V44+38V, Husainabad"}, {"business_status": "OPERATIONAL", "geometry": {"location": {"lat": 25.107375, "lng": 85.8542332}, "viewport": {"northeast": {"lat": 25.1087341302915, "lng": 85.8555277302915}, "southwest": {"lat": 25.1060361697085, "lng": 85.85282976970849}}}, "icon": "https://maps.gstatic.com/mapfiles/place_api/icons/v1/png_71/hospital-71.png", "icon_background_color": "#F88181", "icon_mask_base_uri": "https://maps.gstatic.com/mapfiles/place_api/icons/v2/hospital-H_pinlet", "name": "Anand Hospital", "opening_hours": {"open_now": true}, "photos": [{"height": 4160, "html_attributions": ["<a href=\"https://maps.google.com/maps/contrib/104364365271735673601\">Manoj Shinha</a>"], "photo_reference": "Aap_uEDzbuyuAWUt87UKIqg0k0v32IOEXGbDFnoUyEuJOwmvYhE5RcQRvbtCY2B1BPmZ1ogXCK0SwapzqMn6hUKGSL3QgwAjofcUSWXQTCUcKcHBks4hde9LKaLKCHIVMdg0Cgj5a6vEqV0lJx6oZOqWh3O5TQ7U8YxIQIGAXw4XvfJnralS", "width": 3120}], "place_id": "ChIJe8oDs2BH8jkRQFGBoH9wkiA", "plus_code": {"compound_code": "4V43+WM Husainabad, Bihar, India", "global_code": "7MQ74V43+WM"}, "rating": 3, "reference": "ChIJe8oDs2BH8jkRQFGBoH9wkiA", "scope": "GOOGLE", "types": ["hospital", "health", "point_of_interest", "establishment"], "user_ratings_total": 1, "vicinity": "Arha-Sheikhpura Road"}], "status": "OK"}