{"html_attributions": [], "results": [{"business_status": "OPERATIONAL", "geometry": {"location": {"lat": 24.5747075, "lng": 86.06662329999999}, "viewport": {"northeast": {"lat": 24.5760071802915, "lng": 86.06793843029149}, "southwest": {"lat": 24.5733092197085, "lng": 86.06524046970848}}}, "icon": "https://maps.gstatic.com/mapfiles/place_api/icons/v1/png_71/hospital-71.png", "icon_background_color": "#F88181", "icon_mask_base_uri": "https://maps.gstatic.com/mapfiles/place_api/icons/v2/hospital-H_pinlet", "name": "Patlawati seva sadan tisri", "photos": [{"height": 1152, "html_attributions": ["<a href=\"https://maps.google.com/maps/contrib/111152571755275952552\">PRAMOD YADAV</a>"], "photo_reference": "Aap_uEBSw4LHilQETQ3GpMl4LQGCuJIb4Yxcp1kFJ3DZSEnOlINFGII4db7hm-TBNrTJk5t7A3lo17YYgVC2Ohfkyi6XhNNH5s-2lfgDoen9uxes_oCON9slW5ohRCTq4b0trF6X2n9-9eGbuPmgO4r2p0xybzArfsQ8vIyd1oXRBV9QcxRU", "width": 648}], "place_id": "ChIJVxmCAlHF8zkRgJfQ_VUjfAo", "rating": 4.6, "reference": "ChIJVxmCAlHF8zkRgJfQ_VUjfAo", "scope": "GOOGLE", "types": ["hospital", "health", "point_of_interest", "establishment"], "user_ratings_total": 12, "vicinity": "H3F8+VJQ, Giridih"}, {"business_status": "OPERATIONAL", "geometry": {"location": {"lat": 24.5755061, "lng": 86.06493139999999}, "viewport": {"northeast": {"lat": 24.5768882802915, "lng": 86.06622873029151}, "southwest": {"lat": 24.5741903197085, "lng": 86.06353076970849}}}, "icon": "https://maps.gstatic.com/mapfiles/place_api/icons/v1/png_71/hospital-71.png", "icon_background_color": "#F88181", "icon_mask_base_uri": "https://maps.gstatic.com/mapfiles/place_api/icons/v2/hospital-H_pinlet", "name": "Shubham medical agency", "place_id": "ChIJ_zIlbN7F8zkRc64-jStV-mU", "plus_code": {"compound_code": "H3G7+6X Tisri, Jharkhand, India", "global_code": "7MP8H3G7+6X"}, "reference": "ChIJ_zIlbN7F8zkRc64-jStV-mU", "scope": "GOOGLE", "types": ["hospital", "health", "point_of_interest", "establishment"], "vicinity": "Bandari, Road, Tisri"}, {"business_status": "OPERATIONAL", "geometry": {"location": {"lat": 24.5852403, "lng": 86.0625252}, "viewport": {"northeast": {"lat": 24.58662458029151, "lng": 86.0639877302915}, "southwest": {"lat": 24.5839266197085, "lng": 86.0612897697085}}}, "icon": "https://maps.gstatic.com/mapfiles/place_api/icons/v1/png_71/hospital-71.png", "icon_background_color": "#F88181", "icon_mask_base_uri": "https://maps.gstatic.com/mapfiles/place_api/icons/v2/hospital-H_pinlet", "name": "Tisri Government Hospital", "opening_hours": {"open_now": true}, "photos": [{"height": 607, "html_attributions": ["<a href=\"https://maps.google.com/maps/contrib/111065206861530352376\">Birendra Thakur</a>"], "photo_reference": "Aap_uECz2kt_XVANMjj9NaCdtDkmAQmcN3RAWw9iAZY5XxZ2yKkIirMZrxIB9lk-BISJ7TRon5MdSB1Gsbzb3bYh9h1v-_unPqJW2kLB93uLBx1gEyyBYAj61e8ZV40Y2VEP0ucVc06-JFUJymLyH0oYuFLDWLoapRJbgkB4wxEP4DbL5u8P", "width": 1080}], "place_id": "ChIJJzx9BY7E8zkR-_EtM0DkHI0", "rating": 4.3, "reference": "ChIJJzx9BY7E8zkR-_EtM0DkHI0", "scope": "GOOGLE", "types": ["hospital", "health", "point_of_interest", "establishment"], "user_ratings_total": 9, "vicinity": "H3P7+32R, Tisri"}, {"business_status": "OPERATIONAL", "geometry": {"location": {"lat": 24.5850508, "lng": 86.0611692}, "viewport": {"northeast": {"lat": 24.5863894802915, "lng": 86.0625629802915}, "southwest": {"lat": 24.5836915197085, "lng": 86.05986501970848}}}, "icon": "https://maps.gstatic.com/mapfiles/place_api/icons/v1/png_71/hospital-71.png", "icon_background_color": "#F88181", "icon_mask_base_uri": "https://maps.gstatic.com/mapfiles/place_api/icons/v2/hospital-H_pinlet", "name": "Shubham medical agency", "opening_hours": {"open_now": true}, "photos": [{"height": 2000, "html_attributions": ["<a href=\"https://maps.google.com/maps/contrib/108503480120912431505\">UNIQUE NATION ACADEMY</a>"], "photo_reference": "Aap_uEAG6Thkb2ERoXV-YzFaedi97iQ-pwDa9FsIDtcJ75HAarCVyguoBRRPMYZjL7cWl3kM7SBbE1m2iFjhNFrEY_-txhWMadU3ukm9z4HMsIn_T7AwG07rak8_nSIz71X15wZ52ADrlu-ZEV6fE6pgKGeuvHmnaTJYjrQvp8YyyKnQTMVV", "width": 4000}], "place_id": "ChIJkYXuzO7F8zkRgv36fwZa1Hk", "plus_code": {"compound_code": "H3P6+2F Tisri, Jharkhand, India", "global_code": "7MP8H3P6+2F"}, "rating": 5, "reference": "ChIJkYXuzO7F8zkRgv36fwZa1Hk", "scope": "GOOGLE", "types": ["hospital", "health", "point_of_interest", "establishment"], "user_ratings_total": 2, "vicinity": "Bandari, Road, Tisri"}, {"business_status": "OPERATIONAL", "geometry": {"location": {"lat": 24.5692565, "lng": 86.0610054}, "viewport": {"northeast": {"lat": 24.5706684302915, "lng": 86.06235648029151}, "southwest": {"lat": 24.5679704697085, "lng": 86.0596585197085}}}, "icon": "https://maps.gstatic.com/mapfiles/place_api/icons/v1/png_71/hospital-71.png", "icon_background_color": "#F88181", "icon_mask_base_uri": "https://maps.gstatic.com/mapfiles/place_api/icons/v2/hospital-H_pinlet", "name": "Tisri Hospital", "opening_hours": {"open_now": true}, "place_id": "ChIJMR5ojILE8zkRJdRV_DDhxZk", "rating": 3.8, "reference": "ChIJMR5ojILE8zkRJdRV_DDhxZk", "scope": "GOOGLE", "types": ["hospital", "health", "point_of_interest", "establishment"], "user_ratings_total": 9, "vicinity": "H396+PC2, Tisri"}], "status": "OK"}