{"html_attributions": [], "results": [{"business_status": "OPERATIONAL", "geometry": {"location": {"lat": 24.91813669999999, "lng": 86.11103729999999}, "viewport": {"northeast": {"lat": 24.9195568802915, "lng": 86.1124022802915}, "southwest": {"lat": 24.9168589197085, "lng": 86.10970431970848}}}, "icon": "https://maps.gstatic.com/mapfiles/place_api/icons/v1/png_71/shopping-71.png", "icon_background_color": "#4B96F3", "icon_mask_base_uri": "https://maps.gstatic.com/mapfiles/place_api/icons/v2/shoppingcart_pinlet", "name": "MAA SITA COMPLEX", "opening_hours": {"open_now": true}, "photos": [{"height": 4160, "html_attributions": ["<a href=\"https://maps.google.com/maps/contrib/102885621429758691727\">golu Kumar</a>"], "photo_reference": "Aap_uEBRhoHqXnJTpp_gCfIaQ12siFKNJN18eJXoY5ZaWFF9dLAQckj1_3acNowljsnMdRn5VSv-KzGzCANwnXLUVO2ByLIsfLypaC_vvQ_PKCstZgPFizw7zDPiaq-Y3WoiJucLT_7hpKNAmxzh22eXTBumKnPSKObzMUrv-tM92b2zvtgK", "width": 3120}], "place_id": "ChIJrT69j5Yt8jkROBSFopLdJLE", "rating": 4.3, "reference": "ChIJrT69j5Yt8jkROBSFopLdJLE", "scope": "GOOGLE", "types": ["supermarket", "grocery_or_supermarket", "food", "point_of_interest", "store", "establishment"], "user_ratings_total": 3, "vicinity": "W496+7C3, Jamui"}, {"business_status": "OPERATIONAL", "geometry": {"location": {"lat": 24.9182634, "lng": 86.1121304}, "viewport": {"northeast": {"lat": 24.9195203802915, "lng": 86.11345708029152}, "southwest": {"lat": 24.9168224197085, "lng": 86.1107591197085}}}, "icon": "https://maps.gstatic.com/mapfiles/place_api/icons/v1/png_71/shopping-71.png", "icon_background_color": "#4B96F3", "icon_mask_base_uri": "https://maps.gstatic.com/mapfiles/place_api/icons/v2/shoppingcart_pinlet", "name": "Chahat beauty parlour", "opening_hours": {"open_now": true}, "photos": [{"height": 4160, "html_attributions": ["<a href=\"https://maps.google.com/maps/contrib/114420661133892763844\">Mohammed Saddam Hussain</a>"], "photo_reference": "Aap_uECZJvCJhHptPLHXv--yxv2Ys-9duqMlqcN9uP4_SH6xJu7vcfUGa4ncP5KEqFXSJFLoauCRn4s21P1duE5gZQ7fgnAjg35BAq0GCO7x-4u4OyvGrwNSdAkTrxRmLqdn1svQk_HgLJZJMvrLedcbGh7AA0YapZ9eORhPDDRonPzbSuEl", "width": 3120}], "place_id": "ChIJf37LepYt8jkRh2IsHw0X4Tc", "plus_code": {"compound_code": "W496+8V Shiudih, Bihar, India", "global_code": "7MP8W496+8V"}, "rating": 3.8, "reference": "ChIJf37LepYt8jkRh2IsHw0X4Tc", "scope": "GOOGLE", "types": ["supermarket", "grocery_or_supermarket", "food", "point_of_interest", "store", "establishment"], "user_ratings_total": 4, "vicinity": "Lachhuar - Jamui, Shiudih"}, {"business_status": "OPERATIONAL", "geometry": {"location": {"lat": 24.91885989999999, "lng": 86.10711959999999}, "viewport": {"northeast": {"lat": 24.9202548802915, "lng": 86.1084770802915}, "southwest": {"lat": 24.91755691970849, "lng": 86.10577911970849}}}, "icon": "https://maps.gstatic.com/mapfiles/place_api/icons/v1/png_71/shopping-71.png", "icon_background_color": "#4B96F3", "icon_mask_base_uri": "https://maps.gstatic.com/mapfiles/place_api/icons/v2/shoppingcart_pinlet", "name": "Sudha icecream", "photos": [{"height": 1920, "html_attributions": ["<a href=\"https://maps.google.com/maps/contrib/108268664878512150538\">RZ classes</a>"], "photo_reference": "Aap_uEAY0wycBkj3x-uBXY7tGLWNcxDRadgi8IahzbJCOw9DxbCno_sSEFdsNhmTElZRWwA-pyfcEkwjd8h41h8YmZYlOEVlSaznwd7A83zojnO2eENOj0DCOaf_lkf37V-zkQ9HhJurS_C0OKN-vBhu-rniJaS3VaKp-jFF5ZOlLxceDEA9", "width": 1080}], "place_id": "ChIJ9-aj_egt8jkRHh9bXVCaYh4", "reference": "ChIJ9-aj_egt8jkRHh9bXVCaYh4", "scope": "GOOGLE", "types": ["supermarket", "grocery_or_supermarket", "food", "point_of_interest", "store", "establishment"], "vicinity": "W494+GRX, Mahadeo -Simeria"}, {"business_status": "OPERATIONAL", "geometry": {"location": {"lat": 24.9178974, "lng": 86.1137565}, "viewport": {"northeast": {"lat": 24.9191790802915, "lng": 86.1150892802915}, "southwest": {"lat": 24.9164811197085, "lng": 86.1123913197085}}}, "icon": "https://maps.gstatic.com/mapfiles/place_api/icons/v1/png_71/shopping-71.png", "icon_background_color": "#4B96F3", "icon_mask_base_uri": "https://maps.gstatic.com/mapfiles/place_api/icons/v2/shoppingcart_pinlet", "name": "RITA COMPLEX", "photos": [{"height": 1728, "html_attributions": ["<a href=\"https://maps.google.com/maps/contrib/106182784345559997334\">RAMSHARAN KUMAR</a>"], "photo_reference": "Aap_uEDxhGgPSqhqG-PML5BMRhn6uN6zfI3ENQxLpQlpPnd0-mpyjd-0VikOFNare0-B-mpT_ocjIxF0Et2WV4oKNHvFsVPosrMTp476QUhOmL_f8hrwrbXvx68oPrNebrj4uhjKmUMsLpXEQxvSSqyNRX7rMsCQJggf4nxi-7uQdCW958BJ", "width": 3840}], "place_id": "ChIJiU5zc7Ut8jkRzh9IQpZi7CI", "plus_code": {"compound_code": "W497+5G Shiudih, Bihar, India", "global_code": "7MP8W497+5G"}, "rating": 4.5, "reference": "ChIJiU5zc7Ut8jkRzh9IQpZi7CI", "scope": "GOOGLE", "types": ["grocery_or_supermarket", "supermarket", "food", "point_of_interest", "store", "establishment"], "user_ratings_total": 2, "vicinity": "Shiudih"}], "status": "OK"}