{"html_attributions": [], "results": [{"business_status": "OPERATIONAL", "geometry": {"location": {"lat": 27.1213109, "lng": 79.7254249}, "viewport": {"northeast": {"lat": 27.1226491302915, "lng": 79.7267588302915}, "southwest": {"lat": 27.11995116970849, "lng": 79.7240608697085}}}, "icon": "https://maps.gstatic.com/mapfiles/place_api/icons/v1/png_71/school-71.png", "icon_background_color": "#7B9EB0", "icon_mask_base_uri": "https://maps.gstatic.com/mapfiles/place_api/icons/v2/school_pinlet", "name": "My HOME", "photos": [{"height": 1280, "html_attributions": ["<a href=\"https://maps.google.com/maps/contrib/114253055134380997410\">ABHIJEET SINGH</a>"], "photo_reference": "Aap_uEC-7rjSY5KSMlHYAeWRbIJm30qavkkfsCTO4YJx4jq7xUOlMNg69xw6YkcOEEfWV2WhExt3YSQroIgc2tWk0Cjoal1jGKQSfA7ABowxtYi0oYLSb1X4Q7hKf2VBx8j-HBR8bGwSAGWOuXKEQ-vh8FAgI0QPKEoHgOG3lWXLISt3MPAU", "width": 720}], "place_id": "ChIJw1FCHg4VnjkROvb_SBW6ttE", "rating": 5, "reference": "ChIJw1FCHg4VnjkROvb_SBW6ttE", "scope": "GOOGLE", "types": ["primary_school", "school", "point_of_interest", "establishment"], "user_ratings_total": 1, "vicinity": "4PCG+G5F, Gursahaiganj"}, {"business_status": "OPERATIONAL", "geometry": {"location": {"lat": 27.1170775, "lng": 79.72988269999999}, "viewport": {"northeast": {"lat": 27.11837098029151, "lng": 79.73122168029151}, "southwest": {"lat": 27.1156730197085, "lng": 79.72852371970849}}}, "icon": "https://maps.gstatic.com/mapfiles/place_api/icons/v1/png_71/school-71.png", "icon_background_color": "#7B9EB0", "icon_mask_base_uri": "https://maps.gstatic.com/mapfiles/place_api/icons/v2/school_pinlet", "name": "Fundan global academy", "opening_hours": {"open_now": true}, "photos": [{"height": 477, "html_attributions": ["<a href=\"https://maps.google.com/maps/contrib/103864092360781395660\">Alam Khan</a>"], "photo_reference": "Aap_uECEJTSnY3RfR3mFnTU_NSGybBeZZYiXTerg-rYL_qbkhfvvUbA_djIV_uygOxd-p44W5aQl1H3ncHFpfMDos5b7SnjUhhm_ROJnnzHkS9lX8gUBCWxUrbXElJPysEs1kDkgKSC2pW7oXUpAADwzIc9TAfjUea2gILA6eewUnSl5I66M", "width": 720}], "place_id": "ChIJYzsF7Q0VnjkRp1TfhpfnmSg", "reference": "ChIJYzsF7Q0VnjkRp1TfhpfnmSg", "scope": "GOOGLE", "types": ["primary_school", "school", "point_of_interest", "establishment"], "vicinity": "4P8H+RXJ, Kidwai nagar, Gursahaiganj"}, {"business_status": "OPERATIONAL", "geometry": {"location": {"lat": 27.1149623, "lng": 79.7247148}, "viewport": {"northeast": {"lat": 27.1163228302915, "lng": 79.7260706802915}, "southwest": {"lat": 27.1136248697085, "lng": 79.72337271970848}}}, "icon": "https://maps.gstatic.com/mapfiles/place_api/icons/v1/png_71/school-71.png", "icon_background_color": "#7B9EB0", "icon_mask_base_uri": "https://maps.gstatic.com/mapfiles/place_api/icons/v2/school_pinlet", "name": "SS GIRLS PRIMARY SCHOOL", "opening_hours": {"open_now": false}, "place_id": "ChIJASX8FNsUnjkRk3uubNARrn4", "rating": 5, "reference": "ChIJASX8FNsUnjkRk3uubNARrn4", "scope": "GOOGLE", "types": ["primary_school", "school", "point_of_interest", "establishment"], "user_ratings_total": 1, "vicinity": "4P7F+XVP, Gursahaiganj"}], "status": "OK"}