{"html_attributions": [], "results": [{"business_status": "OPERATIONAL", "geometry": {"location": {"lat": 27.7626446, "lng": 80.729331}, "viewport": {"northeast": {"lat": 27.76399403029151, "lng": 80.7307986302915}, "southwest": {"lat": 27.7612960697085, "lng": 80.7281006697085}}}, "icon": "https://maps.gstatic.com/mapfiles/place_api/icons/v1/png_71/school-71.png", "icon_background_color": "#7B9EB0", "icon_mask_base_uri": "https://maps.gstatic.com/mapfiles/place_api/icons/v2/school_pinlet", "name": "Vivekanand School", "place_id": "ChIJP9PB_dAtnzkRlJtKPIBKmK4", "rating": 3, "reference": "ChIJP9PB_dAtnzkRlJtKPIBKmK4", "scope": "GOOGLE", "types": ["primary_school", "school", "point_of_interest", "establishment"], "user_ratings_total": 1, "vicinity": "QP7H+3P4, Sarayan Pitthu"}, {"business_status": "OPERATIONAL", "geometry": {"location": {"lat": 27.76739999999999, "lng": 80.72919999999999}, "viewport": {"northeast": {"lat": 27.7687466302915, "lng": 80.73072733029151}, "southwest": {"lat": 27.7660486697085, "lng": 80.7280293697085}}}, "icon": "https://maps.gstatic.com/mapfiles/place_api/icons/v1/png_71/school-71.png", "icon_background_color": "#7B9EB0", "icon_mask_base_uri": "https://maps.gstatic.com/mapfiles/place_api/icons/v2/school_pinlet", "name": "Purva Madhyamik Vidyalaya Hargaon", "opening_hours": {"open_now": false}, "place_id": "ChIJ5UAOW9otnzkRyTAkbTKYclo", "plus_code": {"compound_code": "QP8H+XM Hargaon, Uttar Pradesh, India", "global_code": "7MV2QP8H+XM"}, "rating": 3, "reference": "ChIJ5UAOW9otnzkRyTAkbTKYclo", "scope": "GOOGLE", "types": ["primary_school", "school", "point_of_interest", "establishment"], "user_ratings_total": 1, "vicinity": "State Highway 21, Sitapur"}, {"business_status": "OPERATIONAL", "geometry": {"location": {"lat": 27.7631218, "lng": 80.7388687}, "viewport": {"northeast": {"lat": 27.7644514302915, "lng": 80.74035028029151}, "southwest": {"lat": 27.7617534697085, "lng": 80.7376523197085}}}, "icon": "https://maps.gstatic.com/mapfiles/place_api/icons/v1/png_71/school-71.png", "icon_background_color": "#7B9EB0", "icon_mask_base_uri": "https://maps.gstatic.com/mapfiles/place_api/icons/v2/school_pinlet", "name": "Primary school, hargaon", "photos": [{"height": 2268, "html_attributions": ["<a href=\"https://maps.google.com/maps/contrib/102897568064145663602\">Dr. Rahul gupta</a>"], "photo_reference": "Aap_uECEVvj59_quKwDq7T5qHrfpK4vGNVSQB6COcS_h2PO00ODXNJNh5BJoRu-B_pKlodHgOLBFp07R4E9OfymhPizf1S7Qk1CtJorW-ubJeZtP21KG2pvGPL7RfccnR4VgwfNOkAeSKVseLKpjoO8amG7sZAKlowuR7jVuuHMVQWv8EPMy", "width": 4032}], "place_id": "ChIJm7ZFCaYtnzkRYWKegMRtwLI", "plus_code": {"compound_code": "QP7Q+6G Muradnagar, Hargaon, Uttar Pradesh, India", "global_code": "7MV2QP7Q+6G"}, "rating": 3, "reference": "ChIJm7ZFCaYtnzkRYWKegMRtwLI", "scope": "GOOGLE", "types": ["primary_school", "school", "point_of_interest", "establishment"], "user_ratings_total": 2, "vicinity": "Hargaon Basti Road, Muradnagar"}, {"business_status": "OPERATIONAL", "geometry": {"location": {"lat": 27.7678781, "lng": 80.7370529}, "viewport": {"northeast": {"lat": 27.7696641302915, "lng": 80.7384589302915}, "southwest": {"lat": 27.7669661697085, "lng": 80.7357609697085}}}, "icon": "https://maps.gstatic.com/mapfiles/place_api/icons/v1/png_71/school-71.png", "icon_background_color": "#7B9EB0", "icon_mask_base_uri": "https://maps.gstatic.com/mapfiles/place_api/icons/v2/school_pinlet", "name": "Chandra nagar", "place_id": "ChIJM5j6YBQtnzkRw67lE_Dxzbs", "plus_code": {"compound_code": "QP9P+5R Hargaon, Uttar Pradesh, India", "global_code": "7MV2QP9P+5R"}, "reference": "ChIJM5j6YBQtnzkRw67lE_Dxzbs", "scope": "GOOGLE", "types": ["primary_school", "school", "point_of_interest", "establishment"], "vicinity": "MDR 19C, Muradnagar, Hargaon"}], "status": "OK"}