{"html_attributions": [], "results": [{"business_status": "OPERATIONAL", "geometry": {"location": {"lat": 27.77680889999999, "lng": 80.7270194}, "viewport": {"northeast": {"lat": 27.77824343029149, "lng": 80.7282471302915}, "southwest": {"lat": 27.77554546970849, "lng": 80.7255491697085}}}, "icon": "https://maps.gstatic.com/mapfiles/place_api/icons/v1/png_71/school-71.png", "icon_background_color": "#7B9EB0", "icon_mask_base_uri": "https://maps.gstatic.com/mapfiles/place_api/icons/v2/school_pinlet", "name": "Primary Birla Vidya Mandir", "place_id": "ChIJOfHa_90tnzkRScOGLm1-U0Y", "rating": 3.7, "reference": "ChIJOfHa_90tnzkRScOGLm1-U0Y", "scope": "GOOGLE", "types": ["primary_school", "school", "point_of_interest", "establishment"], "user_ratings_total": 3, "vicinity": "QPGG+PRC, Hargaon"}, {"business_status": "OPERATIONAL", "geometry": {"location": {"lat": 27.7768084, "lng": 80.7269347}, "viewport": {"northeast": {"lat": 27.77822363029151, "lng": 80.7281871802915}, "southwest": {"lat": 27.7755256697085, "lng": 80.72548921970848}}}, "icon": "https://maps.gstatic.com/mapfiles/place_api/icons/v1/png_71/school-71.png", "icon_background_color": "#7B9EB0", "icon_mask_base_uri": "https://maps.gstatic.com/mapfiles/place_api/icons/v2/school_pinlet", "name": "Chota College, BVM", "place_id": "ChIJf1hpAN4tnzkRa0s39628uMc", "reference": "ChIJf1hpAN4tnzkRa0s39628uMc", "scope": "GOOGLE", "types": ["primary_school", "school", "point_of_interest", "establishment"], "vicinity": "QPGG+PQF, Hargaon"}, {"business_status": "OPERATIONAL", "geometry": {"location": {"lat": 27.7867204, "lng": 80.7156626}, "viewport": {"northeast": {"lat": 27.7880574302915, "lng": 80.7170054302915}, "southwest": {"lat": 27.7853594697085, "lng": 80.71430746970849}}}, "icon": "https://maps.gstatic.com/mapfiles/place_api/icons/v1/png_71/school-71.png", "icon_background_color": "#7B9EB0", "icon_mask_base_uri": "https://maps.gstatic.com/mapfiles/place_api/icons/v2/school_pinlet", "name": "Government school kasimapur", "photos": [{"height": 3120, "html_attributions": ["<a href=\"https://maps.google.com/maps/contrib/103643713537572469834\">sandeep kumar</a>"], "photo_reference": "Aap_uECgJJVzB2SK5WexWr_h0ox7San06gPUp12g7WjAL53S9mO6qdMd9FJSuvlfScdotANrsEB8m440B7ipfrC9MkPVeMDjL6utQzrrK4c7QmitFlh-dy0qcmd88JB9Xh2FKRDhkYO6kwouN_ZlWvRTVYc0sdSJu3AONmp-vc8k6mOjiSaZ", "width": 4160}], "place_id": "ChIJE9yHIYcvnzkRb0cwDHjSx84", "rating": 4, "reference": "ChIJE9yHIYcvnzkRb0cwDHjSx84", "scope": "GOOGLE", "types": ["primary_school", "school", "point_of_interest", "establishment"], "user_ratings_total": 1, "vicinity": "QPP8+M7M, Kasimapur, Hargaon"}], "status": "OK"}