{"html_attributions": [], "results": [{"business_status": "OPERATIONAL", "geometry": {"location": {"lat": 26.9555465, "lng": 79.7867727}, "viewport": {"northeast": {"lat": 26.9568218802915, "lng": 79.7880558302915}, "southwest": {"lat": 26.9541239197085, "lng": 79.78535786970849}}}, "icon": "https://maps.gstatic.com/mapfiles/place_api/icons/v1/png_71/school-71.png", "icon_background_color": "#7B9EB0", "icon_mask_base_uri": "https://maps.gstatic.com/mapfiles/place_api/icons/v2/school_pinlet", "name": "P.S. TIRWA GANJ", "place_id": "ChIJ_9yzyK9znjkRmCPJ1Fx0Aac", "reference": "ChIJ_9yzyK9znjkRmCPJ1Fx0Aac", "scope": "GOOGLE", "types": ["primary_school", "school", "point_of_interest", "establishment"], "vicinity": "XQ4P+6P6, Tirwaganj"}, {"business_status": "OPERATIONAL", "geometry": {"location": {"lat": 26.9610225, "lng": 79.7971642}, "viewport": {"northeast": {"lat": 26.9624299302915, "lng": 79.7986373302915}, "southwest": {"lat": 26.9597319697085, "lng": 79.79593936970849}}}, "icon": "https://maps.gstatic.com/mapfiles/place_api/icons/v1/png_71/school-71.png", "icon_background_color": "#7B9EB0", "icon_mask_base_uri": "https://maps.gstatic.com/mapfiles/place_api/icons/v2/school_pinlet", "name": "PS DAULIKHATI", "place_id": "ChIJK96GHaRznjkREdXhpCavYVg", "reference": "ChIJK96GHaRznjkREdXhpCavYVg", "scope": "GOOGLE", "types": ["primary_school", "school", "point_of_interest", "establishment"], "vicinity": "XQ6W+CV3, Tirwaganj"}, {"business_status": "OPERATIONAL", "geometry": {"location": {"lat": 26.955473, "lng": 79.77942879999999}, "viewport": {"northeast": {"lat": 26.9569089302915, "lng": 79.7806820302915}, "southwest": {"lat": 26.9542109697085, "lng": 79.7779840697085}}}, "icon": "https://maps.gstatic.com/mapfiles/place_api/icons/v1/png_71/school-71.png", "icon_background_color": "#7B9EB0", "icon_mask_base_uri": "https://maps.gstatic.com/mapfiles/place_api/icons/v2/school_pinlet", "name": "PS BAURAPUR OR MUDARWA GANG", "place_id": "ChIJpVDACytznjkRnAlkTylHpm8", "rating": 5, "reference": "ChIJpVDACytznjkRnAlkTylHpm8", "scope": "GOOGLE", "types": ["primary_school", "school", "point_of_interest", "establishment"], "user_ratings_total": 1, "vicinity": "XQ4H+5QM, Mudwaraganj"}, {"business_status": "OPERATIONAL", "geometry": {"location": {"lat": 26.9628993, "lng": 79.7979452}, "viewport": {"northeast": {"lat": 26.9641484802915, "lng": 79.79928133029149}, "southwest": {"lat": 26.9614505197085, "lng": 79.79658336970849}}}, "icon": "https://maps.gstatic.com/mapfiles/place_api/icons/v1/png_71/school-71.png", "icon_background_color": "#7B9EB0", "icon_mask_base_uri": "https://maps.gstatic.com/mapfiles/place_api/icons/v2/school_pinlet", "name": "Prince Nayak", "place_id": "ChIJYRA3A8FznjkRWaRF532meEM", "plus_code": {"compound_code": "XQ7X+55 Tirwaganj, Uttar Pradesh, India", "global_code": "7JRXXQ7X+55"}, "reference": "ChIJYRA3A8FznjkRWaRF532meEM", "scope": "GOOGLE", "types": ["primary_school", "school", "point_of_interest", "establishment"], "vicinity": "sara, Dhingargadi , ratnapur, Tirwaganj"}], "status": "OK"}