{"html_attributions": [], "results": [{"business_status": "OPERATIONAL", "geometry": {"location": {"lat": 24.7349478, "lng": 86.3131186}, "viewport": {"northeast": {"lat": 24.7365454302915, "lng": 86.31444218029151}, "southwest": {"lat": 24.73384746970849, "lng": 86.3117442197085}}}, "icon": "https://maps.gstatic.com/mapfiles/place_api/icons/v1/png_71/civic_building-71.png", "icon_background_color": "#7B9EB0", "icon_mask_base_uri": "https://maps.gstatic.com/mapfiles/place_api/icons/v2/civic-bldg_pinlet", "name": "Panchayat Bhawan, Balthar", "place_id": "ChIJU_Kav1998TkR_8Dg2ieGRrk", "rating": 3, "reference": "ChIJU_Kav1998TkR_8Dg2ieGRrk", "scope": "GOOGLE", "types": ["local_government_office", "point_of_interest", "establishment"], "user_ratings_total": 1, "vicinity": "P8M7+X6H, Tola Sono"}, {"business_status": "OPERATIONAL", "geometry": {"location": {"lat": 24.7409275, "lng": 86.3061536}, "viewport": {"northeast": {"lat": 24.7422410302915, "lng": 86.3074043302915}, "southwest": {"lat": 24.7395430697085, "lng": 86.3047063697085}}}, "icon": "https://maps.gstatic.com/mapfiles/place_api/icons/v1/png_71/civic_building-71.png", "icon_background_color": "#7B9EB0", "icon_mask_base_uri": "https://maps.gstatic.com/mapfiles/place_api/icons/v2/civic-bldg_pinlet", "name": "Block Resources Centre,Sono (Jamui)", "photos": [{"height": 3008, "html_attributions": ["<a href=\"https://maps.google.com/maps/contrib/105203938369121890625\">Shivam Kumar</a>"], "photo_reference": "Aap_uEC_Y0W-ypdYxXfToSD1miQhNQBDaJOTBwlASxKFu5AhG1YRTnKuITEcSALurDCxm2XQaaH5OElK48kQwerELGpkDrAwmbQJ1qNJsJAGUf74DxaSm0REkDSCih50YrbSsBcPMWhaNBOiOC2_g4mFt5xK7AobUKBijSuDGbnKrDFdnalV", "width": 4016}], "place_id": "ChIJX-FkqyJ98TkRSZp1GRmuoTI", "rating": 5, "reference": "ChIJX-FkqyJ98TkRSZp1GRmuoTI", "scope": "GOOGLE", "types": ["local_government_office", "point_of_interest", "establishment"], "user_ratings_total": 1, "vicinity": "P8R4+9FC, Tola Sono"}, {"business_status": "OPERATIONAL", "geometry": {"location": {"lat": 24.7382993, "lng": 86.3027613}, "viewport": {"northeast": {"lat": 24.7396135802915, "lng": 86.30410988029149}, "southwest": {"lat": 24.73691561970849, "lng": 86.30141191970849}}}, "icon": "https://maps.gstatic.com/mapfiles/place_api/icons/v1/png_71/civic_building-71.png", "icon_background_color": "#7B9EB0", "icon_mask_base_uri": "https://maps.gstatic.com/mapfiles/place_api/icons/v2/civic-bldg_pinlet", "name": "Arun Pd Barnwal Home", "opening_hours": {"open_now": true}, "place_id": "ChIJb3J3H0l88TkRfBzI4Cct4tI", "plus_code": {"compound_code": "P8Q3+84 Tola Sono, Bihar, India", "global_code": "7MP8P8Q3+84"}, "rating": 4.4, "reference": "ChIJb3J3H0l88TkRfBzI4Cct4tI", "scope": "GOOGLE", "types": ["city_hall", "local_government_office", "point_of_interest", "establishment"], "user_ratings_total": 7, "vicinity": "1st Floor,Barhi Tola,Mukhiaji Road,Govindsingh Chowk, \u0938\u094b\u0928\u094b - \u091a\u0941\u0930\u0939\u091f - \u091a\u0930\u0915\u093e \u092a\u0924\u094d\u0925\u0930 \u0930\u094b\u0921, Tola Sono"}, {"business_status": "CLOSED_TEMPORARILY", "geometry": {"location": {"lat": 24.7376345, "lng": 86.3023711}, "viewport": {"northeast": {"lat": 24.7390074802915, "lng": 86.30372583029151}, "southwest": {"lat": 24.7363095197085, "lng": 86.30102786970849}}}, "icon": "https://maps.gstatic.com/mapfiles/place_api/icons/v1/png_71/civic_building-71.png", "icon_background_color": "#7B9EB0", "icon_mask_base_uri": "https://maps.gstatic.com/mapfiles/place_api/icons/v2/civic-bldg_pinlet", "name": "Barnwal Bhawan", "permanently_closed": true, "photos": [{"height": 648, "html_attributions": ["<a href=\"https://maps.google.com/maps/contrib/101286601033398977477\">Vinod Kumar</a>"], "photo_reference": "Aap_uECBy2xFQD7GfVRXAe5PpmDNt1sl9CvSbeYs9Ke3P8q3BLY3n_PI-lMk0NoCE3hLH_LTEkF24LQ_xLqMIRmVEQpwshf6ggDUG-_AIwwC-eOZWwMG9mgAt3S3LidJG8ylIoZqDApe-2LmsfEpPwxgI76Rb8VzLgn6vIHqfXP_kj-jkdt1", "width": 1152}], "place_id": "ChIJpSf4hkl88TkRkejoP7t3Krc", "rating": 5, "reference": "ChIJpSf4hkl88TkRkejoP7t3Krc", "scope": "GOOGLE", "types": ["city_hall", "local_government_office", "point_of_interest", "establishment"], "user_ratings_total": 4, "vicinity": "P8Q2+3W5, Tola Sono"}], "status": "OK"}