{"html_attributions": [], "results": [{"business_status": "OPERATIONAL", "geometry": {"location": {"lat": 24.7781272, "lng": 86.36864109999999}, "viewport": {"northeast": {"lat": 24.7795489802915, "lng": 86.37011228029151}, "southwest": {"lat": 24.7768510197085, "lng": 86.36741431970849}}}, "icon": "https://maps.gstatic.com/mapfiles/place_api/icons/v1/png_71/civic_building-71.png", "icon_background_color": "#7B9EB0", "icon_mask_base_uri": "https://maps.gstatic.com/mapfiles/place_api/icons/v2/civic-bldg_pinlet", "name": "Jhajha Block Office", "opening_hours": {"open_now": true}, "photos": [{"height": 1840, "html_attributions": ["<a href=\"https://maps.google.com/maps/contrib/102358032067409364102\">KARTIK KUSUM</a>"], "photo_reference": "Aap_uEAa-pmPh8gUzWBfc6Sr5DMhK0QN7jCuEI5IoF4zYa67HCzlHUjoITGteb22r4wrg17NTkWeltRaFqf6ey-JPTTo3RBOCPdllCWd_ZQ4jbtfxWVPxiuMQV_tcMT6_Jj9-odJRBny3lGYPdANwV90gnDJJL8kAUck8-n0TP7huettNkqb", "width": 3264}], "place_id": "ChIJBZ2AGnB58TkRGrKq8xtftSE", "rating": 3.3, "reference": "ChIJBZ2AGnB58TkRGrKq8xtftSE", "scope": "GOOGLE", "types": ["local_government_office", "point_of_interest", "establishment"], "user_ratings_total": 27, "vicinity": "Q9H9+7F2, Jhajha"}, {"business_status": "OPERATIONAL", "geometry": {"location": {"lat": 24.7785413, "lng": 86.3676909}, "viewport": {"northeast": {"lat": 24.7798972802915, "lng": 86.36896903029151}, "southwest": {"lat": 24.77719931970849, "lng": 86.36627106970849}}}, "icon": "https://maps.gstatic.com/mapfiles/place_api/icons/v1/png_71/civic_building-71.png", "icon_background_color": "#7B9EB0", "icon_mask_base_uri": "https://maps.gstatic.com/mapfiles/place_api/icons/v2/civic-bldg_pinlet", "name": "\u092a\u094d\u0930\u0916\u0902\u0921 \u0915\u0943\u0937\u093f \u0915\u093e\u0930\u094d\u092f\u093e\u0932\u092f \u091d\u093e\u091d\u093e", "opening_hours": {"open_now": true}, "photos": [{"height": 2080, "html_attributions": ["<a href=\"https://maps.google.com/maps/contrib/102358032067409364102\">KARTIK KUSUM</a>"], "photo_reference": "Aap_uEDTQsngZBkFeIATpIU7wy00LOYZWBBqZoqw8GJiKi3rYQgYZZ8vKW-qNG5YPz_epMvSUuSBAdNOnPhRHyOhMd7-QeG26UP4GnUttMiEHB4H_8r8vIjRM4w9ZtE1joKqyy3oA5e_eqnlGMOONU0o733UwOQhxfaLYU6YPlcAaTNlJ8IZ", "width": 4160}], "place_id": "ChIJPYHDyDl58TkRM71mLifM3lQ", "rating": 4.5, "reference": "ChIJPYHDyDl58TkRM71mLifM3lQ", "scope": "GOOGLE", "types": ["local_government_office", "point_of_interest", "establishment"], "user_ratings_total": 2, "vicinity": "Q9H9+C38, Jhajha"}, {"business_status": "CLOSED_TEMPORARILY", "geometry": {"location": {"lat": 24.7760938, "lng": 86.3740636}, "viewport": {"northeast": {"lat": 24.7773426802915, "lng": 86.3753455802915}, "southwest": {"lat": 24.7746447197085, "lng": 86.37264761970849}}}, "icon": "https://maps.gstatic.com/mapfiles/place_api/icons/v1/png_71/civic_building-71.png", "icon_background_color": "#7B9EB0", "icon_mask_base_uri": "https://maps.gstatic.com/mapfiles/place_api/icons/v2/civic-bldg_pinlet", "name": "Shivnandan Jha Memorial Town Hall", "permanently_closed": true, "photos": [{"height": 3000, "html_attributions": ["<a href=\"https://maps.google.com/maps/contrib/110687705778717341476\">Gulshan Xx</a>"], "photo_reference": "Aap_uECmqA1NC90xf2NzO8_R2j1BtwqENqDX4reLYGA1pRQcWJeuLOKvsAebwbm5WhNeSnL7kcp_orvHf-8DQf7-JgfK0F3BnnM1t2OMAdbd_wslak-CoYKeS6Men4gjoqWacEu5p78HIc6L2z7KE4J9WGqR8CHHpGSBRA2uW5OfgnvCV9eQ", "width": 4000}], "place_id": "ChIJocSR7Hl58TkRsthfT1wCvxc", "plus_code": {"compound_code": "Q9GF+CJ Jhajha, Bihar, India", "global_code": "7MP8Q9GF+CJ"}, "rating": 3.7, "reference": "ChIJocSR7Hl58TkRsthfT1wCvxc", "scope": "GOOGLE", "types": ["city_hall", "local_government_office", "point_of_interest", "establishment"], "user_ratings_total": 6, "vicinity": "Tej Bahadur Colony Road, Jhajha"}, {"business_status": "OPERATIONAL", "geometry": {"location": {"lat": 24.7744999, "lng": 86.3756867}, "viewport": {"northeast": {"lat": 24.7758536802915, "lng": 86.37704198029151}, "southwest": {"lat": 24.77315571970849, "lng": 86.3743440197085}}}, "icon": "https://maps.gstatic.com/mapfiles/place_api/icons/v1/png_71/civic_building-71.png", "icon_background_color": "#7B9EB0", "icon_mask_base_uri": "https://maps.gstatic.com/mapfiles/place_api/icons/v2/civic-bldg_pinlet", "name": "Arohan financial services Ltd", "photos": [{"height": 2128, "html_attributions": ["<a href=\"https://maps.google.com/maps/contrib/115902968342395924316\">ASHISH KUMAR GUPTA</a>"], "photo_reference": "Aap_uEAb8Co8eQCMKVy-n7vi3wDp23HnozXthzC9jG_WruAH9yE9s2j1TjvRIWJkB8OSOGFFQSKAx0RcMu_bc93arUrsyX3WrnJd8YlW2txtWVojjBJ86LjuZ6-41soVgY5K2tpVI61JdtDwt-xUREsA1IVvPXoeDLa-NefL3pxoINjPOQHj", "width": 4608}], "place_id": "ChIJ10nIPM958TkRUH2eR4rK10c", "plus_code": {"compound_code": "Q9FG+Q7 Jhajha, Bihar, India", "global_code": "7MP8Q9FG+Q7"}, "rating": 5, "reference": "ChIJ10nIPM958TkRUH2eR4rK10c", "scope": "GOOGLE", "types": ["local_government_office", "point_of_interest", "establishment"], "user_ratings_total": 3, "vicinity": "Jhajha"}, {"business_status": "CLOSED_TEMPORARILY", "geometry": {"location": {"lat": 24.7744999, "lng": 86.3756867}, "viewport": {"northeast": {"lat": 24.7758536802915, "lng": 86.37704198029151}, "southwest": {"lat": 24.77315571970849, "lng": 86.3743440197085}}}, "icon": "https://maps.gstatic.com/mapfiles/place_api/icons/v1/png_71/civic_building-71.png", "icon_background_color": "#7B9EB0", "icon_mask_base_uri": "https://maps.gstatic.com/mapfiles/place_api/icons/v2/civic-bldg_pinlet", "name": "SRIRAM GST CENTAR", "permanently_closed": true, "place_id": "ChIJn63ERnt58TkR8yc7veHE7i4", "plus_code": {"compound_code": "Q9FG+Q7 Jhajha, Bihar, India", "global_code": "7MP8Q9FG+Q7"}, "reference": "ChIJn63ERnt58TkR8yc7veHE7i4", "scope": "GOOGLE", "types": ["local_government_office", "point_of_interest", "establishment"], "vicinity": "near aapnajach ghar, sriram digital gst pipradih, near aapnajach ghar, Jhajha"}, {"business_status": "OPERATIONAL", "geometry": {"location": {"lat": 24.7744999, "lng": 86.3756867}, "viewport": {"northeast": {"lat": 24.7758536802915, "lng": 86.37704198029151}, "southwest": {"lat": 24.77315571970849, "lng": 86.3743440197085}}}, "icon": "https://maps.gstatic.com/mapfiles/place_api/icons/v1/png_71/civic_building-71.png", "icon_background_color": "#7B9EB0", "icon_mask_base_uri": "https://maps.gstatic.com/mapfiles/place_api/icons/v2/civic-bldg_pinlet", "name": "AYUR & NATURE HERBS", "opening_hours": {"open_now": true}, "photos": [{"height": 1279, "html_attributions": ["<a href=\"https://maps.google.com/maps/contrib/115238375269217561385\">AYUR &amp; NATURE HERBS</a>"], "photo_reference": "Aap_uEBpZtTnFkwWCTutXU5UPdP_xUDp0wxgVd_iq4-osbIknmMVT057fmUFyOnW4on4qDTL6427kSJqVlQLQkhiYTkLiCNCaEWSi1H1hV5IPfq3nnZ6VKLMEXao3JWmIimDsnqSj9k6EbQLaEVedWKxtAuomViPvIw8ZEPD6sDLgaMoOs5P", "width": 2779}], "place_id": "ChIJq6qqqnl58TkRjCOZuyOHQ5o", "plus_code": {"compound_code": "Q9FG+Q7 Jhajha, Bihar, India", "global_code": "7MP8Q9FG+Q7"}, "rating": 4.6, "reference": "ChIJq6qqqnl58TkRjCOZuyOHQ5o", "scope": "GOOGLE", "types": ["local_government_office", "point_of_interest", "establishment"], "user_ratings_total": 11, "vicinity": "Aadarsh Colony, Jhajha"}, {"business_status": "OPERATIONAL", "geometry": {"location": {"lat": 24.7711386, "lng": 86.3754584}, "viewport": {"northeast": {"lat": 24.77247373029151, "lng": 86.3767794302915}, "southwest": {"lat": 24.7697757697085, "lng": 86.37408146970849}}}, "icon": "https://maps.gstatic.com/mapfiles/place_api/icons/v1/png_71/civic_building-71.png", "icon_background_color": "#7B9EB0", "icon_mask_base_uri": "https://maps.gstatic.com/mapfiles/place_api/icons/v2/civic-bldg_pinlet", "name": "NAGAR PANCHAYAT, Jhanjharpur", "opening_hours": {"open_now": true}, "place_id": "ChIJeymf1n558TkRL_QJgg2LaNc", "plus_code": {"compound_code": "Q9CG+F5 Jhajha, Bihar, India", "global_code": "7MP8Q9CG+F5"}, "rating": 4, "reference": "ChIJeymf1n558TkRL_QJgg2LaNc", "scope": "GOOGLE", "types": ["local_government_office", "point_of_interest", "establishment"], "user_ratings_total": 1, "vicinity": "arvind jha jha complex, Jhanjharpur"}, {"business_status": "OPERATIONAL", "geometry": {"location": {"lat": 24.78568, "lng": 86.36489499999999}, "viewport": {"northeast": {"lat": 24.7870168802915, "lng": 86.3662084802915}, "southwest": {"lat": 24.7843189197085, "lng": 86.3635105197085}}}, "icon": "https://maps.gstatic.com/mapfiles/place_api/icons/v1/png_71/civic_building-71.png", "icon_background_color": "#7B9EB0", "icon_mask_base_uri": "https://maps.gstatic.com/mapfiles/place_api/icons/v2/civic-bldg_pinlet", "name": "Irrigation Division, Jhajha", "opening_hours": {"open_now": true}, "photos": [{"height": 443, "html_attributions": ["<a href=\"https://maps.google.com/maps/contrib/103078889594813807543\">Rajesh Kumar Tandon</a>"], "photo_reference": "Aap_uECt0dmP3sBUnQh69x8AdigDhwPI2B07igvIbqrpgSb0G9U2Ust_Xpzkd-D0cwVDxOXCEn3kENkF6i3_Hp52fXKxwCn_2DncVAWIsrsT5dNf6Tw42PPXnihNct7x6XuYRKXnpmNtbpPUxp_D_ADaEqORM48SvpKPFr6t5O8ZA8EMbcyf", "width": 394}], "place_id": "ChIJW40FWmx58TkR_D0Kl3iFDXY", "rating": 4.8, "reference": "ChIJW40FWmx58TkR_D0Kl3iFDXY", "scope": "GOOGLE", "types": ["local_government_office", "point_of_interest", "establishment"], "user_ratings_total": 4, "vicinity": "Q9P7+7XC, Tola Dhapri Kita"}, {"business_status": "OPERATIONAL", "geometry": {"location": {"lat": 24.7692598, "lng": 86.37797290000002}, "viewport": {"northeast": {"lat": 24.7706366302915, "lng": 86.37935618029152}, "southwest": {"lat": 24.7679386697085, "lng": 86.3766582197085}}}, "icon": "https://maps.gstatic.com/mapfiles/place_api/icons/v1/png_71/civic_building-71.png", "icon_background_color": "#7B9EB0", "icon_mask_base_uri": "https://maps.gstatic.com/mapfiles/place_api/icons/v2/civic-bldg_pinlet", "name": "Old Nagar Panchayat Office", "photos": [{"height": 1280, "html_attributions": ["<a href=\"https://maps.google.com/maps/contrib/107298986157346685703\">Shubham Technical</a>"], "photo_reference": "Aap_uEDwMoYScmRrJBtc8J4TGfafA_OWobqAB8an1DqbAKF9CZUUfhcke3XzADMUQC96O9gTibMCBwYZ0ZQQYwJ4dDJ88rVi3OBxR7WQwiDh5EV_mnXXfEKt4W3FQITup3vQ8AafDoQznpfIsPWCobPcgCrSlGp23mIZHJ2rygUrDUogFC_Q", "width": 720}], "place_id": "ChIJy9WVfH958TkR-or5o7pTzj0", "plus_code": {"compound_code": "Q99H+P5 Jhajha, Bihar, India", "global_code": "7MP8Q99H+P5"}, "reference": "ChIJy9WVfH958TkR-or5o7pTzj0", "scope": "GOOGLE", "types": ["local_government_office", "point_of_interest", "establishment"], "vicinity": "Nawab Road, Gandhi Chowk, Jhajha"}], "status": "OK"}