{"html_attributions": [], "results": [{"business_status": "OPERATIONAL", "geometry": {"location": {"lat": 23.8031007, "lng": 86.39529739999999}, "viewport": {"northeast": {"lat": 23.8046015302915, "lng": 86.3967390802915}, "southwest": {"lat": 23.80190356970849, "lng": 86.39404111970849}}}, "icon": "https://maps.gstatic.com/mapfiles/place_api/icons/v1/png_71/civic_building-71.png", "name": "Bhuli Police Station", "photos": [{"height": 2576, "html_attributions": ["<a href=\"https://maps.google.com/maps/contrib/101518923902855110435\">juli Kumari</a>"], "photo_reference": "ATtYBwI5jVwjvdBwUOmGgmiuEYphsLl8OEegTtQvg7oeM3UjDQJDeY-Dd8JCcwZ4vdA5vWC_p_a5CA_4hxo5YSqQnKzsX7DO_RbMQqoTczGEdxRHWikKzdsAPM0lJBBghMxUs8o3kqknrYLpV1woQvgvP4I019eoQ3U6tUWQZcQUyPYbN22G", "width": 1932}], "place_id": "ChIJKQ1A7Wij9jkRFKll9Kx7D10", "plus_code": {"compound_code": "R93W+64 Dhanbad, Jharkhand, India", "global_code": "7MM8R93W+64"}, "rating": 3.6, "reference": "ChIJKQ1A7Wij9jkRFKll9Kx7D10", "scope": "GOOGLE", "types": ["police", "point_of_interest", "establishment"], "user_ratings_total": 15, "vicinity": "near Lale Bhawan, Bhanumati Road, Rahim Dhanbad, near Lale Bhawan, Road, Azad Nagar, Bhuli, Dhanbad"}, {"business_status": "OPERATIONAL", "geometry": {"location": {"lat": 23.8095812, "lng": 86.38806489999999}, "viewport": {"northeast": {"lat": 23.8107807302915, "lng": 86.3893896302915}, "southwest": {"lat": 23.8080827697085, "lng": 86.3866916697085}}}, "icon": "https://maps.gstatic.com/mapfiles/place_api/icons/v1/png_71/civic_building-71.png", "name": "Bhanumati Circle, Dhanbad.", "place_id": "ChIJAeYmCpSj9jkRU83tPtMM9zc", "plus_code": {"compound_code": "R95Q+R6 Dhanbad, Jharkhand, India", "global_code": "7MM8R95Q+R6"}, "reference": "ChIJAeYmCpSj9jkRU83tPtMM9zc", "scope": "GOOGLE", "types": ["police", "point_of_interest", "establishment"], "vicinity": "Bhanumati Road, Dhanbad"}, {"business_status": "OPERATIONAL", "geometry": {"location": {"lat": 23.8051407, "lng": 86.37861989999999}, "viewport": {"northeast": {"lat": 23.8064979802915, "lng": 86.37994738029151}, "southwest": {"lat": 23.8038000197085, "lng": 86.37724941970849}}}, "icon": "https://maps.gstatic.com/mapfiles/place_api/icons/v1/png_71/civic_building-71.png", "name": "East Bsuria Op", "photos": [{"height": 1280, "html_attributions": ["<a href=\"https://maps.google.com/maps/contrib/107721846919643487996\">Angel 5M</a>"], "photo_reference": "ATtYBwJ1rjevNHgFIdRYkm9hFaDGkQRCoJp5N-MuEBc3vOGGss46shw1snU1T8iW-qOAWQCmL1vq62yIYmCGaiF6iEVZogfolib-Dn62jFDzHNhIQDMOnj6wCE1wiTPK7NayZtCLfrU9MdDi_Y7ZW51R9-VDvI9C4v5Al4qZ71FRXhJRehMp", "width": 960}], "place_id": "ChIJ1xgYD3ij9jkR5a_2i-Ia-Fo", "plus_code": {"compound_code": "R94H+3C Dhanbad, Jharkhand, India", "global_code": "7MM8R94H+3C"}, "reference": "ChIJ1xgYD3ij9jkR5a_2i-Ia-Fo", "scope": "GOOGLE", "types": ["police", "point_of_interest", "establishment"], "vicinity": "Coal Dump Colony, Dhanbad"}, {"business_status": "OPERATIONAL", "geometry": {"location": {"lat": 23.7959117, "lng": 86.3940767}, "viewport": {"northeast": {"lat": 23.7972606802915, "lng": 86.39542568029151}, "southwest": {"lat": 23.79456271970849, "lng": 86.3927277197085}}}, "icon": "https://maps.gstatic.com/mapfiles/place_api/icons/v1/png_71/civic_building-71.png", "name": "Aditya kumar", "place_id": "ChIJgRJxlrSj9jkRGLaLBASyL_E", "plus_code": {"compound_code": "Q9WV+9J Matkuria, Jharkhand, India", "global_code": "7MM8Q9WV+9J"}, "reference": "ChIJgRJxlrSj9jkRGLaLBASyL_E", "scope": "GOOGLE", "types": ["police", "point_of_interest", "establishment"], "vicinity": "Unnamed Road, Matkuria"}], "status": "OK"}