{"html_attributions": [], "results": [{"business_status": "OPERATIONAL", "geometry": {"location": {"lat": 25.5362423, "lng": 89.8620986}, "viewport": {"northeast": {"lat": 25.5375606802915, "lng": 89.8635773802915}, "southwest": {"lat": 25.5348627197085, "lng": 89.86087941970848}}}, "icon": "https://maps.gstatic.com/mapfiles/place_api/icons/v1/png_71/civic_building-71.png", "icon_background_color": "#7B9EB0", "icon_mask_base_uri": "https://maps.gstatic.com/mapfiles/place_api/icons/v2/civic-bldg_pinlet", "name": "Prabha rani bordoloi", "place_id": "ChIJNf1rmv5R_TkR4ChfapXX3rY", "plus_code": {"compound_code": "GVP6+FR Mankachar, Assam, India", "global_code": "7MQFGVP6+FR"}, "reference": "ChIJNf1rmv5R_TkR4ChfapXX3rY", "scope": "GOOGLE", "types": ["police", "point_of_interest", "establishment"], "vicinity": "police station, Mankachar"}, {"business_status": "OPERATIONAL", "geometry": {"location": {"lat": 25.5362423, "lng": 89.8620986}, "viewport": {"northeast": {"lat": 25.5375606802915, "lng": 89.8635773802915}, "southwest": {"lat": 25.5348627197085, "lng": 89.86087941970848}}}, "icon": "https://maps.gstatic.com/mapfiles/place_api/icons/v1/png_71/civic_building-71.png", "icon_background_color": "#7B9EB0", "icon_mask_base_uri": "https://maps.gstatic.com/mapfiles/place_api/icons/v2/civic-bldg_pinlet", "name": "Mankachar Police Station", "photos": [{"height": 2128, "html_attributions": ["<a href=\"https://maps.google.com/maps/contrib/112280394417244173809\">Shahin Aktar</a>"], "photo_reference": "Aap_uECAlm_iSC997Z_tyWy9Jo-tSWtebY_HJa3XociIk2-evs3dEcbSl7P3DJ7wcGJe6W1L5_w5ha3_pX74tTL3ftIMbJ9UFPy_cid5roMceGm3FxI9avsKEJoONRiAlTvitVv5MXmEEM8Uw_nVgkNbY1MbCAE4XUtGFFACuhOzkQt_mbnR", "width": 4608}], "place_id": "ChIJoTqP98RR_TkR6UWL6pKeMqc", "plus_code": {"compound_code": "GVP6+FR Mankachar, Assam, India", "global_code": "7MQFGVP6+FR"}, "rating": 4.4, "reference": "ChIJoTqP98RR_TkR6UWL6pKeMqc", "scope": "GOOGLE", "types": ["police", "point_of_interest", "establishment"], "user_ratings_total": 15, "vicinity": "Near J.M High Secondary school, Mankachar"}, {"business_status": "OPERATIONAL", "geometry": {"location": {"lat": 25.5483039, "lng": 89.8722853}, "viewport": {"northeast": {"lat": 25.5495035302915, "lng": 89.8736695802915}, "southwest": {"lat": 25.5468055697085, "lng": 89.87097161970848}}}, "icon": "https://maps.gstatic.com/mapfiles/place_api/icons/v1/png_71/civic_building-71.png", "icon_background_color": "#7B9EB0", "icon_mask_base_uri": "https://maps.gstatic.com/mapfiles/place_api/icons/v2/civic-bldg_pinlet", "name": "JORDANGA BARMANPARA POLICE OUT POST", "opening_hours": {"open_now": true}, "place_id": "ChIJZcH6b6FR_TkRB6OHo6fetGA", "rating": 3, "reference": "ChIJZcH6b6FR_TkRB6OHo6fetGA", "scope": "GOOGLE", "types": ["police", "point_of_interest", "establishment"], "user_ratings_total": 2, "vicinity": "GVXC+8WF, Mankachar"}], "status": "OK"}