{"html_attributions": [], "results": [{"business_status": "OPERATIONAL", "geometry": {"location": {"lat": 25.5123611, "lng": 90.21977749999999}, "viewport": {"northeast": {"lat": 25.5137448802915, "lng": 90.22107248029151}, "southwest": {"lat": 25.5110469197085, "lng": 90.2183745197085}}}, "icon": "https://maps.gstatic.com/mapfiles/place_api/icons/v1/png_71/civic_building-71.png", "icon_background_color": "#7B9EB0", "icon_mask_base_uri": "https://maps.gstatic.com/mapfiles/place_api/icons/v2/civic-bldg_pinlet", "name": "Tura Police Station", "opening_hours": {"open_now": true}, "place_id": "ChIJqVangobxVzcRWT_Fb9PGokk", "plus_code": {"compound_code": "G669+WW Tura, Meghalaya, India", "global_code": "7MQGG669+WW"}, "rating": 3.4, "reference": "ChIJqVangobxVzcRWT_Fb9PGokk", "scope": "GOOGLE", "types": ["police", "point_of_interest", "establishment"], "user_ratings_total": 8, "vicinity": "Nakhabazar Road, Police Reserve, Tura"}, {"business_status": "OPERATIONAL", "geometry": {"location": {"lat": 25.5048258, "lng": 90.21440969999999}, "viewport": {"northeast": {"lat": 25.5061545302915, "lng": 90.2158398802915}, "southwest": {"lat": 25.5034565697085, "lng": 90.21314191970849}}}, "icon": "https://maps.gstatic.com/mapfiles/place_api/icons/v1/png_71/civic_building-71.png", "icon_background_color": "#7B9EB0", "icon_mask_base_uri": "https://maps.gstatic.com/mapfiles/place_api/icons/v2/civic-bldg_pinlet", "name": "Dobasipara Beat House", "place_id": "ChIJ-wVo25HxVzcR0MtFz08wk5E", "rating": 3.2, "reference": "ChIJ-wVo25HxVzcR0MtFz08wk5E", "scope": "GOOGLE", "types": ["police", "point_of_interest", "establishment"], "user_ratings_total": 5, "vicinity": "G637+WQM, Dobasipara, Tura"}, {"geometry": {"location": {"lat": 25.5112307, "lng": 90.2166259}, "viewport": {"northeast": {"lat": 25.51266802758165, "lng": 90.21799234083393}, "southwest": {"lat": 25.50997006699865, "lng": 90.21529438025092}}}, "icon": "https://maps.gstatic.com/mapfiles/place_api/icons/v1/png_71/school-71.png", "icon_background_color": "#7B9EB0", "icon_mask_base_uri": "https://maps.gstatic.com/mapfiles/place_api/icons/v2/school_pinlet", "name": "Police Parade Ground", "place_id": "ChIJp5oJHIXxVzcRBV-XbBmbd_U", "reference": "ChIJp5oJHIXxVzcRBV-XbBmbd_U", "scope": "GOOGLE", "types": ["premise", "police", "point_of_interest", "establishment"], "vicinity": "Tura"}], "status": "OK"}