{"html_attributions": [], "results": [{"business_status": "OPERATIONAL", "geometry": {"location": {"lat": 27.4336654, "lng": 79.9254702}, "viewport": {"northeast": {"lat": 27.4349130802915, "lng": 79.9267501802915}, "southwest": {"lat": 27.43221511970849, "lng": 79.9240522197085}}}, "icon": "https://maps.gstatic.com/mapfiles/place_api/icons/v1/png_71/bank-71.png", "icon_background_color": "#909CE1", "icon_mask_base_uri": "https://maps.gstatic.com/mapfiles/place_api/icons/v2/bank-intl_pinlet", "name": "Shree Ram Janki Mandir", "photos": [{"height": 934, "html_attributions": ["<a href=\"https://maps.google.com/maps/contrib/117397690484508878259\">Deepak And Brothers</a>"], "photo_reference": "Aap_uEB8cjsRz2J1a9H-YLqFF7bFjpCy8lo9UM79qnh0FUtBPABZfO7AfW9pFkm6Q12V9ZLFu4fAGt-iPEJ0p0C4isBfhCNjwy93oZU-8ptUPNMmrKd8xQk-Tr8EHo5pPrPfptpDAU8hWhk-6UpYQ7T2kguPKSrKtBEndqo75xP25rfrNPSC", "width": 622}], "place_id": "ChIJHWasFg9RnjkRN627qh8Mx8g", "reference": "ChIJHWasFg9RnjkRN627qh8Mx8g", "scope": "GOOGLE", "types": ["bank", "finance", "point_of_interest", "establishment"], "vicinity": "CWMG+F59, Auhadpur Sakara"}, {"business_status": "OPERATIONAL", "geometry": {"location": {"lat": 27.445739, "lng": 79.917524}, "viewport": {"northeast": {"lat": 27.4470702302915, "lng": 79.91890233029149}, "southwest": {"lat": 27.4443722697085, "lng": 79.91620436970848}}}, "icon": "https://maps.gstatic.com/mapfiles/place_api/icons/v1/png_71/bank-71.png", "icon_background_color": "#909CE1", "icon_mask_base_uri": "https://maps.gstatic.com/mapfiles/place_api/icons/v2/bank-intl_pinlet", "name": "Bank Of Baroda", "opening_hours": {"open_now": false}, "photos": [{"height": 288, "html_attributions": ["<a href=\"https://maps.google.com/maps/contrib/107162895666553832225\">Bank Of Baroda</a>"], "photo_reference": "Aap_uEDvjIiqBIVYchaZT2oyDetK9LvxNIYUyfrgcHqfPdndYTSTn8MKU4D9I5hHvH-0XN3kJwDzhcbI8fFYk8X7j6Si9-89DS3mMoOPe0TSSEENAfT5ax7KiA6e50dGM9phzJMtYn_awgym71twMq-5pbn6xqLP9EDjk4mjMjI-dBKmKauA", "width": 512}], "place_id": "ChIJKw8zRYFPnjkRqKICHhugZE8", "plus_code": {"compound_code": "CWW9+72 Nasauli Damar, Uttar Pradesh, India", "global_code": "7JVXCWW9+72"}, "reference": "ChIJKw8zRYFPnjkRqKICHhugZE8", "scope": "GOOGLE", "types": ["bank", "finance", "point_of_interest", "establishment"], "vicinity": "Tehsil, NASAUL, Bank Of Baroda Nasauli Gopal, Distt, Shahabad"}, {"business_status": "OPERATIONAL", "geometry": {"location": {"lat": 27.44947, "lng": 79.91672}, "viewport": {"northeast": {"lat": 27.45133534999999, "lng": 79.9184710802915}, "southwest": {"lat": 27.44387395, "lng": 79.91577311970849}}}, "icon": "https://maps.gstatic.com/mapfiles/place_api/icons/v1/png_71/bank-71.png", "icon_background_color": "#909CE1", "icon_mask_base_uri": "https://maps.gstatic.com/mapfiles/place_api/icons/v2/bank-intl_pinlet", "name": "Bank Of Baroda", "opening_hours": {"open_now": false}, "place_id": "ChIJ3c20rR1OnjkRbdxMAHIhziU", "plus_code": {"compound_code": "CWX8+QM Nasauli Gopal, Uttar Pradesh, India", "global_code": "7JVXCWX8+QM"}, "rating": 5, "reference": "ChIJ3c20rR1OnjkRbdxMAHIhziU", "scope": "GOOGLE", "types": ["bank", "finance", "point_of_interest", "establishment"], "user_ratings_total": 1, "vicinity": "NASAULI GOPAL,SHAHBAD, Nasauli Gopal"}], "status": "OK"}