{"html_attributions": [], "results": [{"business_status": "OPERATIONAL", "geometry": {"location": {"lat": 27.6419482, "lng": 79.9365918}, "viewport": {"northeast": {"lat": 27.6432962302915, "lng": 79.9379454802915}, "southwest": {"lat": 27.64059826970849, "lng": 79.93524751970848}}}, "icon": "https://maps.gstatic.com/mapfiles/place_api/icons/v1/png_71/bank-71.png", "icon_background_color": "#909CE1", "icon_mask_base_uri": "https://maps.gstatic.com/mapfiles/place_api/icons/v2/bank-intl_pinlet", "name": "Bank Of India", "opening_hours": {"open_now": false}, "photos": [{"height": 720, "html_attributions": ["<a href=\"https://maps.google.com/maps/contrib/109725153998450042883\">Amir Khan</a>"], "photo_reference": "Aap_uED9fxThBNVxs1uT9y_7pY6fculN659MfBs49TerMvITPCS93TzhlujX22tXuVsY6iBcW2b0UflsTY7ThmXWGsDFdxrn9k2rk3DgOewAifMEJ5HvtHzq3lbYMwHs_eqtBk4jKli2Wmx8gSJG6hjRpm1lvsp9ldgIcHYs6kC4GydhnY_L", "width": 1280}], "place_id": "ChIJnwQYcuatnzkRhJJSCna6LBQ", "plus_code": {"compound_code": "JWRP+QJ Shahabad, Uttar Pradesh, India", "global_code": "7JVXJWRP+QJ"}, "rating": 2.9, "reference": "ChIJnwQYcuatnzkRhJJSCna6LBQ", "scope": "GOOGLE", "types": ["bank", "finance", "point_of_interest", "establishment"], "user_ratings_total": 15, "vicinity": "Bazaar Road, Mohalla Chowk, Shahabad"}, {"business_status": "OPERATIONAL", "geometry": {"location": {"lat": 27.6475876, "lng": 79.94306329999999}, "viewport": {"northeast": {"lat": 27.6489511802915, "lng": 79.94435348029151}, "southwest": {"lat": 27.6462532197085, "lng": 79.9416555197085}}}, "icon": "https://maps.gstatic.com/mapfiles/place_api/icons/v1/png_71/bank-71.png", "icon_background_color": "#909CE1", "icon_mask_base_uri": "https://maps.gstatic.com/mapfiles/place_api/icons/v2/bank-intl_pinlet", "name": "Bank of Baroda", "opening_hours": {"open_now": false}, "photos": [{"height": 2340, "html_attributions": ["<a href=\"https://maps.google.com/maps/contrib/106634191369815072737\">Shubham Gupta</a>"], "photo_reference": "Aap_uEA6W4OjFXUy61h1YKO6z-mLQ_LL82LaS80gg_jUZGoVUeJubV6ePti_DMNb0sQC8ol6Mt78AoJC909451Q25F60VRZAlk3QyTODWEyFKEFKy_4P3ZZJBwT3mIRAijZwclDF8VNC-6in2jXtcSMs1e6bb4QegedmbfNC61UGEHjFF32K", "width": 4160}], "place_id": "ChIJRV3xbN6tnzkRQ--XVrnJQyQ", "plus_code": {"compound_code": "JWXV+26 Shahabad, Uttar Pradesh, India", "global_code": "7JVXJWXV+26"}, "rating": 3.7, "reference": "ChIJRV3xbN6tnzkRQ--XVrnJQyQ", "scope": "GOOGLE", "types": ["bank", "finance", "point_of_interest", "establishment"], "user_ratings_total": 19, "vicinity": "Shadoi, Miran Basti, Carpet Centre, Shahabad"}, {"business_status": "OPERATIONAL", "geometry": {"location": {"lat": 27.6487685, "lng": 79.94399709999999}, "viewport": {"northeast": {"lat": 27.65007463029151, "lng": 79.9452635802915}, "southwest": {"lat": 27.6473766697085, "lng": 79.94256561970849}}}, "icon": "https://maps.gstatic.com/mapfiles/place_api/icons/v1/png_71/bank-71.png", "icon_background_color": "#909CE1", "icon_mask_base_uri": "https://maps.gstatic.com/mapfiles/place_api/icons/v2/bank-intl_pinlet", "name": "Carporation Bank & A T M", "opening_hours": {"open_now": false}, "photos": [{"height": 2340, "html_attributions": ["<a href=\"https://maps.google.com/maps/contrib/106634191369815072737\">Shubham Gupta</a>"], "photo_reference": "Aap_uED4beF-lXdRxamy3KuMlWpKD8gYiS8K13cSa9Rn3wZvhSm890Mpv_GF9gAPP3XGu394mBu3KyF_j90DpxCtR9H_XEdYSE9KMAfI5EwR1FB51iU27cV9Ld5yCbSYMfu3co1el4Y1hh_dU1UiYM8TFkFrzIkOUp8UcKuwQsSfAHCDJqtN", "width": 4160}], "place_id": "ChIJDbdPUN6tnzkRm8P3esoqIo4", "plus_code": {"compound_code": "JWXV+GH Shahabad, Uttar Pradesh, India", "global_code": "7JVXJWXV+GH"}, "rating": 3.2, "reference": "ChIJDbdPUN6tnzkRm8P3esoqIo4", "scope": "GOOGLE", "types": ["bank", "finance", "point_of_interest", "establishment"], "user_ratings_total": 5, "vicinity": "State Highway 25, Shahabad"}, {"business_status": "OPERATIONAL", "geometry": {"location": {"lat": 27.6368766, "lng": 79.9547951}, "viewport": {"northeast": {"lat": 27.6381779802915, "lng": 79.95610743029151}, "southwest": {"lat": 27.6354800197085, "lng": 79.95340946970849}}}, "icon": "https://maps.gstatic.com/mapfiles/place_api/icons/v1/png_71/atm-71.png", "icon_background_color": "#909CE1", "icon_mask_base_uri": "https://maps.gstatic.com/mapfiles/place_api/icons/v2/atm_pinlet", "name": "Axis Bank ATM", "opening_hours": {"open_now": true}, "photos": [{"height": 558, "html_attributions": ["<a href=\"https://maps.google.com/maps/contrib/114517593865673520683\">Axis Bank ATM</a>"], "photo_reference": "Aap_uEBCEwJFDQkQNUbh7uAe1GMP-8KaRGM2O6Dc35bU3UR7w47yqFIJvlG1NxB_GDH1HPRkE4_5N94vG3pfMST7L8j9ihkDc4zhhYJUMK9jqij0IAdKJ3ckSoDUha2Szr5aFcpfq671LbWP463gvw0IpchiWy3ak-xgKyyyGws7kPgekQ-k", "width": 992}], "place_id": "ChIJ55u0BDv4njkRk0UA3I_AKkc", "plus_code": {"compound_code": "JXP3+QW Shahabad, Uttar Pradesh, India", "global_code": "7JVXJXP3+QW"}, "rating": 5, "reference": "ChIJ55u0BDv4njkRk0UA3I_AKkc", "scope": "GOOGLE", "types": ["atm", "bank", "finance", "point_of_interest", "establishment"], "user_ratings_total": 1, "vicinity": "opposite Mandi Samiti, Building No 57/1, Ground Floor, opposite Mandi Samiti, Shahabad"}, {"business_status": "OPERATIONAL", "geometry": {"location": {"lat": 27.647901, "lng": 79.937889}, "viewport": {"northeast": {"lat": 27.64927503029151, "lng": 79.93916428029151}, "southwest": {"lat": 27.6465770697085, "lng": 79.9364663197085}}}, "icon": "https://maps.gstatic.com/mapfiles/place_api/icons/v1/png_71/bank-71.png", "icon_background_color": "#909CE1", "icon_mask_base_uri": "https://maps.gstatic.com/mapfiles/place_api/icons/v2/bank-intl_pinlet", "name": "ICICI Bank Main Market, Shahabad-Branch & ATM", "opening_hours": {"open_now": false}, "place_id": "ChIJ6by1FuGtnzkRYR1QF8vQl3I", "plus_code": {"compound_code": "JWXQ+55 Shahabad, Uttar Pradesh, India", "global_code": "7JVXJWXQ+55"}, "rating": 3.9, "reference": "ChIJ6by1FuGtnzkRYR1QF8vQl3I", "scope": "GOOGLE", "types": ["bank", "finance", "point_of_interest", "establishment"], "user_ratings_total": 7, "vicinity": "Diler Ganj, Main Market, Shahabad"}, {"business_status": "OPERATIONAL", "geometry": {"location": {"lat": 27.64940319999999, "lng": 79.9368983}, "viewport": {"northeast": {"lat": 27.6507779302915, "lng": 79.93824873029149}, "southwest": {"lat": 27.6480799697085, "lng": 79.93555076970848}}}, "icon": "https://maps.gstatic.com/mapfiles/place_api/icons/v1/png_71/bank-71.png", "icon_background_color": "#909CE1", "icon_mask_base_uri": "https://maps.gstatic.com/mapfiles/place_api/icons/v2/bank-intl_pinlet", "name": "State Bank of India", "opening_hours": {"open_now": false}, "place_id": "ChIJwXfRm-GtnzkRLEi57k6ynNU", "plus_code": {"compound_code": "JWXP+QQ Shahabad, Uttar Pradesh, India", "global_code": "7JVXJWXP+QQ"}, "rating": 2.7, "reference": "ChIJwXfRm-GtnzkRLEi57k6ynNU", "scope": "GOOGLE", "types": ["bank", "finance", "point_of_interest", "establishment"], "user_ratings_total": 13, "vicinity": "Khatta - Dilerganj Road, Dilerganj, Shahabad"}, {"business_status": "OPERATIONAL", "geometry": {"location": {"lat": 27.644138, "lng": 79.94483869999999}, "viewport": {"northeast": {"lat": 27.6455143302915, "lng": 79.9461132302915}, "southwest": {"lat": 27.6428163697085, "lng": 79.94341526970848}}}, "icon": "https://maps.gstatic.com/mapfiles/place_api/icons/v1/png_71/bank-71.png", "icon_background_color": "#909CE1", "icon_mask_base_uri": "https://maps.gstatic.com/mapfiles/place_api/icons/v2/bank-intl_pinlet", "name": "SyndicateBank Huseypur Branch", "place_id": "ChIJ7Ykv_9ytnzkR_QKf84QM4Xs", "plus_code": {"compound_code": "JWVV+MW Shahabad, Uttar Pradesh, India", "global_code": "7JVXJWVV+MW"}, "reference": "ChIJ7Ykv_9ytnzkR_QKf84QM4Xs", "scope": "GOOGLE", "types": ["bank", "finance", "point_of_interest", "establishment"], "vicinity": "Village Husepur Lukaman Teh:Shahabad Huseypur"}, {"business_status": "OPERATIONAL", "geometry": {"location": {"lat": 27.6441, "lng": 79.9447}, "viewport": {"northeast": {"lat": 27.6454570802915, "lng": 79.94603138029149}, "southwest": {"lat": 27.6427591197085, "lng": 79.94333341970848}}}, "icon": "https://maps.gstatic.com/mapfiles/place_api/icons/v1/png_71/bank-71.png", "icon_background_color": "#909CE1", "icon_mask_base_uri": "https://maps.gstatic.com/mapfiles/place_api/icons/v2/bank-intl_pinlet", "name": "Allahabad Bank", "place_id": "ChIJUZGNU9ytnzkRKR7ck40SxCQ", "plus_code": {"compound_code": "JWVV+JV Shahabad, Uttar Pradesh, India", "global_code": "7JVXJWVV+JV"}, "reference": "ChIJUZGNU9ytnzkRKR7ck40SxCQ", "scope": "GOOGLE", "types": ["bank", "finance", "point_of_interest", "establishment"], "vicinity": "POST : RADHAMOHANPURTEHSHIL : KHARAGPUR, BLOCK : DEBRA, DISTRICT :"}, {"business_status": "OPERATIONAL", "geometry": {"location": {"lat": 27.644138, "lng": 79.94471}, "viewport": {"northeast": {"lat": 27.6454906802915, "lng": 79.9460509802915}, "southwest": {"lat": 27.6427927197085, "lng": 79.94335301970848}}}, "icon": "https://maps.gstatic.com/mapfiles/place_api/icons/v1/png_71/bank-71.png", "icon_background_color": "#909CE1", "icon_mask_base_uri": "https://maps.gstatic.com/mapfiles/place_api/icons/v2/bank-intl_pinlet", "name": "SyndicateBank Shahabad Branch", "place_id": "ChIJ_15KvtytnzkRuZ_mPyCxBWs", "plus_code": {"compound_code": "JWVV+MV Shahabad, Uttar Pradesh, India", "global_code": "7JVXJWVV+MV"}, "rating": 4, "reference": "ChIJ_15KvtytnzkRuZ_mPyCxBWs", "scope": "GOOGLE", "types": ["bank", "finance", "point_of_interest", "establishment"], "user_ratings_total": 2, "vicinity": "Ground Floor H No.90 Mohalla Chowk, Shahabad"}, {"business_status": "OPERATIONAL", "geometry": {"location": {"lat": 27.6441382, "lng": 79.9447096}, "viewport": {"northeast": {"lat": 27.6454906802915, "lng": 79.9460509802915}, "southwest": {"lat": 27.6427927197085, "lng": 79.94335301970848}}}, "icon": "https://maps.gstatic.com/mapfiles/place_api/icons/v1/png_71/bank-71.png", "icon_background_color": "#909CE1", "icon_mask_base_uri": "https://maps.gstatic.com/mapfiles/place_api/icons/v2/bank-intl_pinlet", "name": "Bank of India", "place_id": "ChIJz9-UU9ytnzkRUbHaB9y_YEA", "rating": 5, "reference": "ChIJz9-UU9ytnzkRUbHaB9y_YEA", "scope": "GOOGLE", "types": ["bank", "finance", "point_of_interest", "establishment"], "user_ratings_total": 1, "vicinity": "Mohalla Chowk, Shahabad, Shahabad"}, {"business_status": "OPERATIONAL", "geometry": {"location": {"lat": 27.6455574, "lng": 79.9456999}, "viewport": {"northeast": {"lat": 27.6468819302915, "lng": 79.9470810302915}, "southwest": {"lat": 27.6441839697085, "lng": 79.9443830697085}}}, "icon": "https://maps.gstatic.com/mapfiles/place_api/icons/v1/png_71/bank-71.png", "icon_background_color": "#909CE1", "icon_mask_base_uri": "https://maps.gstatic.com/mapfiles/place_api/icons/v2/bank-intl_pinlet", "name": "Aryavart Gramin Bank,Anjhi", "opening_hours": {"open_now": false}, "photos": [{"height": 4160, "html_attributions": ["<a href=\"https://maps.google.com/maps/contrib/107019644694881237529\">Matloob Ansari</a>"], "photo_reference": "Aap_uEAOkqm-n4cSpmycR5oRbKgO5Gmw6eqwgcE6IyUOofKd8X97WPrTJgQl_n4xBmVR5pG4zUmO8WIXTVa4O-B6Uou_4XwffkIuh14Q5eLs3DJG3R18yYqaDHzXrZAXltkZenZCIz3BguOLI-dufo_9xp16CU6EaS6YBiBLZpNFvuoxhon_", "width": 2352}], "place_id": "ChIJgbK3PdytnzkRu6mV8FOSJZ0", "plus_code": {"compound_code": "JWWW+67 Shahabad, Uttar Pradesh, India", "global_code": "7JVXJWWW+67"}, "rating": 3.6, "reference": "ChIJgbK3PdytnzkRu6mV8FOSJZ0", "scope": "GOOGLE", "types": ["bank", "finance", "point_of_interest", "establishment"], "user_ratings_total": 5, "vicinity": "Hardoi Bus Stand, State Highway 29, Shahabad"}, {"business_status": "OPERATIONAL", "geometry": {"location": {"lat": 27.64229419999999, "lng": 79.9400314}, "viewport": {"northeast": {"lat": 27.6436326802915, "lng": 79.9413801802915}, "southwest": {"lat": 27.6409347197085, "lng": 79.93868221970848}}}, "icon": "https://maps.gstatic.com/mapfiles/place_api/icons/v1/png_71/bank-71.png", "icon_background_color": "#909CE1", "icon_mask_base_uri": "https://maps.gstatic.com/mapfiles/place_api/icons/v2/bank-intl_pinlet", "name": "Bima Seva Kendra LIC", "opening_hours": {"open_now": true}, "place_id": "ChIJXULFes2tnzkR8paxmmkwrvI", "plus_code": {"compound_code": "JWRR+W2 Shahabad, Uttar Pradesh, India", "global_code": "7JVXJWRR+W2"}, "rating": 3.5, "reference": "ChIJXULFes2tnzkR8paxmmkwrvI", "scope": "GOOGLE", "types": ["bank", "finance", "point_of_interest", "establishment"], "user_ratings_total": 2, "vicinity": "Barua, Shivalay Lane, Shahabad"}, {"business_status": "OPERATIONAL", "geometry": {"location": {"lat": 27.646366, "lng": 79.940423}, "viewport": {"northeast": {"lat": 27.6477210802915, "lng": 79.94174893029151}, "southwest": {"lat": 27.6450231197085, "lng": 79.9390509697085}}}, "icon": "https://maps.gstatic.com/mapfiles/place_api/icons/v1/png_71/bank-71.png", "icon_background_color": "#909CE1", "icon_mask_base_uri": "https://maps.gstatic.com/mapfiles/place_api/icons/v2/bank-intl_pinlet", "name": "Yadav computers & Jan sewa Kendra", "opening_hours": {"open_now": true}, "photos": [{"height": 2448, "html_attributions": ["<a href=\"https://maps.google.com/maps/contrib/113016440530588880714\">jeetu yadav</a>"], "photo_reference": "Aap_uEBVQDtA3a-8QtI5f1dbEdsGEAsjCJxGgW1DyfMQuYoBd3JJSJ6xXDZ942DPcane5F8r3JnUWHMmSU0ZpBfJsSAmbT-gjrQAoWDoVVU7thNYQeABcdQ0_7T4A4EiW2fzyK59aHuyu2LAAZzAv4F-EC8QAv-XqrumMiEKFkP9piqL1ZNX", "width": 3264}], "place_id": "ChIJI4WeteCtnzkREeeKq_ZLGGI", "plus_code": {"compound_code": "JWWR+G5 Shahabad, Uttar Pradesh, India", "global_code": "7JVXJWWR+G5"}, "rating": 5, "reference": "ChIJI4WeteCtnzkREeeKq_ZLGGI", "scope": "GOOGLE", "types": ["bank", "finance", "electronics_store", "point_of_interest", "store", "establishment"], "user_ratings_total": 4, "vicinity": "near Rastrapita Inter College, Cinema Road, near Rastrapita Inter College, Shahabad"}, {"business_status": "OPERATIONAL", "geometry": {"location": {"lat": 27.6406768, "lng": 79.9368865}, "viewport": {"northeast": {"lat": 27.6420250302915, "lng": 79.9382579302915}, "southwest": {"lat": 27.6393270697085, "lng": 79.93555996970849}}}, "icon": "https://maps.gstatic.com/mapfiles/place_api/icons/v1/png_71/bank-71.png", "icon_background_color": "#909CE1", "icon_mask_base_uri": "https://maps.gstatic.com/mapfiles/place_api/icons/v2/bank-intl_pinlet", "name": "CANARA BANK (formerly Syndicate Bank)", "place_id": "ChIJi7hf5qatnzkRsK3-XAI_-xk", "plus_code": {"compound_code": "JWRP+7Q Shahabad, Uttar Pradesh, India", "global_code": "7JVXJWRP+7Q"}, "reference": "ChIJi7hf5qatnzkRsK3-XAI_-xk", "scope": "GOOGLE", "types": ["bank", "finance", "point_of_interest", "establishment"], "vicinity": "GROUND FLOOR H NO.90 MOHALLA CHOWK, Shahabad"}, {"business_status": "OPERATIONAL", "geometry": {"location": {"lat": 27.6479416, "lng": 79.93848419999999}, "viewport": {"northeast": {"lat": 27.6492865302915, "lng": 79.9398826302915}, "southwest": {"lat": 27.6465885697085, "lng": 79.9371846697085}}}, "icon": "https://maps.gstatic.com/mapfiles/place_api/icons/v1/png_71/bank-71.png", "icon_background_color": "#909CE1", "icon_mask_base_uri": "https://maps.gstatic.com/mapfiles/place_api/icons/v2/bank-intl_pinlet", "name": "ICICI BANK ATM", "opening_hours": {"open_now": true}, "place_id": "ChIJ7aXMJlGtnzkR-uGpViBGNJw", "plus_code": {"compound_code": "JWXQ+59 Shahabad, Uttar Pradesh, India", "global_code": "7JVXJWXQ+59"}, "reference": "ChIJ7aXMJlGtnzkR-uGpViBGNJw", "scope": "GOOGLE", "types": ["bank", "finance", "point_of_interest", "establishment"], "vicinity": "Municipal Number-114, Mohalla, Dilerganj, Shahabad"}], "status": "OK"}