{"html_attributions": [], "results": [{"business_status": "OPERATIONAL", "geometry": {"location": {"lat": 27.0283317, "lng": 80.04809070000002}, "viewport": {"northeast": {"lat": 27.0296046802915, "lng": 80.04951913029151}, "southwest": {"lat": 27.0269067197085, "lng": 80.04682116970851}}}, "icon": "https://maps.gstatic.com/mapfiles/place_api/icons/v1/png_71/bank-71.png", "icon_background_color": "#909CE1", "icon_mask_base_uri": "https://maps.gstatic.com/mapfiles/place_api/icons/v2/bank-intl_pinlet", "name": "Owaisi Tenders", "photos": [{"height": 5344, "html_attributions": ["<a href=\"https://maps.google.com/maps/contrib/103728859781764797096\">HTR GAMING</a>"], "photo_reference": "Aap_uEB2IUzvZVZk8XJ0sQxPKeBwleLtjYXqF3FSNABUr1riUDYGiKaN11nCm5Ae2xRm9xVTHEtOLpj_1685ls7kc0fiL4f7ugSRGp6cTePO_atqlOObKayCye7ASgIMB6b2e8Zc-PWA2akx-P-BdH1Tzw8JZhbys7iQUqQ7Hh5kQwthtIV1", "width": 4008}], "place_id": "ChIJ3aUAJmNjnjkReUjhIilkmw0", "reference": "ChIJ3aUAJmNjnjkReUjhIilkmw0", "scope": "GOOGLE", "types": ["bank", "finance", "point_of_interest", "establishment"], "vicinity": "22HX+86P, Matiyamau"}, {"business_status": "OPERATIONAL", "geometry": {"location": {"lat": 27.0283311, "lng": 80.0483347}, "viewport": {"northeast": {"lat": 27.0296599302915, "lng": 80.0497047802915}, "southwest": {"lat": 27.02696196970849, "lng": 80.0470068197085}}}, "icon": "https://maps.gstatic.com/mapfiles/place_api/icons/v1/png_71/bank-71.png", "icon_background_color": "#909CE1", "icon_mask_base_uri": "https://maps.gstatic.com/mapfiles/place_api/icons/v2/bank-intl_pinlet", "name": "Saif Furnituer House", "photos": [{"height": 960, "html_attributions": ["<a href=\"https://maps.google.com/maps/contrib/103728859781764797096\">HTR GAMING</a>"], "photo_reference": "Aap_uEBlrJr0YWA-0YgX_M7gPbP_rBIKTE3Hxmg-g7p1o-ZCpYaTUu5NV_0WcGrvROQG7voZyWRkWB1XI8hjpnVo4XX79Ji2GrvLRaarviAVYZuGIaajt-H-zbI4T1MBp4MGnAQPed328CmXb6R3IAZVhaXGTwyNBW6TdFJzzhXg_I21GlvO", "width": 1280}], "place_id": "ChIJR7VJeyFjnjkRHzmj5uQB8t0", "plus_code": {"compound_code": "22HX+88 Matiyamau, Uttar Pradesh, India", "global_code": "7MV222HX+88"}, "rating": 1, "reference": "ChIJR7VJeyFjnjkRHzmj5uQB8t0", "scope": "GOOGLE", "types": ["bank", "finance", "point_of_interest", "establishment"], "user_ratings_total": 1, "vicinity": "Bhaghauli Road, Matiyamau"}, {"business_status": "OPERATIONAL", "geometry": {"location": {"lat": 27.0284007, "lng": 80.04833889999999}, "viewport": {"northeast": {"lat": 27.0297103802915, "lng": 80.0497289802915}, "southwest": {"lat": 27.0270124197085, "lng": 80.0470310197085}}}, "icon": "https://maps.gstatic.com/mapfiles/place_api/icons/v1/png_71/bank-71.png", "icon_background_color": "#909CE1", "icon_mask_base_uri": "https://maps.gstatic.com/mapfiles/place_api/icons/v2/bank-intl_pinlet", "name": "Saef Furniture House Matiyamu Hardoi", "photos": [{"height": 960, "html_attributions": ["<a href=\"https://maps.google.com/maps/contrib/103728859781764797096\">HTR GAMING</a>"], "photo_reference": "Aap_uEAZIKU5G8-qvPS8o2Tu-jWLGOy2z5IihDK06QVxONS2_45rngUgT8GzbWfYgPA90oAN7q7XTFcsXqphFV4aJiA4CF2L6JsXq8Fbc482QibsWkD1HW_JF5pesIWx5OcSkwxPfBz4dL2raqsBcisCtb6fDuZxiqQLxFy7b9npjg5nfZRE", "width": 1280}], "place_id": "ChIJdylreyFjnjkRWX1uwBq6Sgg", "plus_code": {"compound_code": "22HX+98 Matiyamau, Uttar Pradesh, India", "global_code": "7MV222HX+98"}, "rating": 3, "reference": "ChIJdylreyFjnjkRWX1uwBq6Sgg", "scope": "GOOGLE", "types": ["bank", "finance", "point_of_interest", "establishment"], "user_ratings_total": 2, "vicinity": "Bhaghauli Road, Matiyamau"}], "status": "OK"}