{"html_attributions": [], "next_page_token": "Aap_uEBG7JoeFERdOnlXPNzqxobSMkvpvmbB6nOdKPQCEdSpBkuDursGV8tlkiMV7EfknqwyaCDnkWKC-nUTBay7jL7QFIHiLO61g0Zyxns4_bqCuKSjbBTLQbsoAEFkD-KpHD8sBoeEMCUJnSOYwRKOrOIhn-0IK-ScVz9obz4RJLQj7UZG9MfFLVGlZwh-xX5nv0DTGS4Ke7fDxY81J8Dterr5SoAYYNcrlatw0qbpUa22tacjgNTPUpAevKjfpSQiatPh7KTggeIrupmGWeBr_snpVdlKb-JpwKS4kPNterB_EwMlnWMkByi_FIbCE1wvCj0Snz-6Bhu4bffbc_sY1Y2ZaAEsU79pKo5-vI4G7sM4NGJDGweDkLidfwvb0qohnpMqzGKHXUb0ZJuxrsI9r2tGKazAx7xNFcyDrha6g-N-JY0R", "results": [{"business_status": "OPERATIONAL", "geometry": {"location": {"lat": 27.3810364, "lng": 80.1226456}, "viewport": {"northeast": {"lat": 27.3823825302915, "lng": 80.1240993802915}, "southwest": {"lat": 27.3796845697085, "lng": 80.12140141970849}}}, "icon": "https://maps.gstatic.com/mapfiles/place_api/icons/v1/png_71/bank-71.png", "icon_background_color": "#909CE1", "icon_mask_base_uri": "https://maps.gstatic.com/mapfiles/place_api/icons/v2/bank-intl_pinlet", "name": "Bank of India", "opening_hours": {"open_now": false}, "place_id": "ChIJnf8Ye4v3njkRRG0AbgPsG7Y", "plus_code": {"compound_code": "94JF+C3 Hardoi, Uttar Pradesh, India", "global_code": "7MV294JF+C3"}, "rating": 3.8, "reference": "ChIJnf8Ye4v3njkRRG0AbgPsG7Y", "scope": "GOOGLE", "types": ["bank", "finance", "point_of_interest", "establishment"], "user_ratings_total": 12, "vicinity": "241001, Hardoi - Kanpur Road, Bilgram"}, {"business_status": "OPERATIONAL", "geometry": {"location": {"lat": 27.3865347, "lng": 80.1227418}, "viewport": {"northeast": {"lat": 27.3878732302915, "lng": 80.1241533802915}, "southwest": {"lat": 27.3851752697085, "lng": 80.1214554197085}}}, "icon": "https://maps.gstatic.com/mapfiles/place_api/icons/v1/png_71/bank-71.png", "icon_background_color": "#909CE1", "icon_mask_base_uri": "https://maps.gstatic.com/mapfiles/place_api/icons/v2/bank-intl_pinlet", "name": "UCO Bank", "opening_hours": {"open_now": false}, "place_id": "ChIJebb3eCD4njkRKFsrVoe2tK4", "plus_code": {"compound_code": "94PF+J3 Hardoi, Uttar Pradesh, India", "global_code": "7MV294PF+J3"}, "rating": 4.1, "reference": "ChIJebb3eCD4njkRKFsrVoe2tK4", "scope": "GOOGLE", "types": ["bank", "finance", "point_of_interest", "establishment"], "user_ratings_total": 12, "vicinity": "Krishna Nagria, Hardoi, SH-21, Bilgram Road, Hardoi, 130/6, Bilgram Rd, Krishna Nagria, Hardoi"}, {"business_status": "OPERATIONAL", "geometry": {"location": {"lat": 27.3917563, "lng": 80.1237168}, "viewport": {"northeast": {"lat": 27.3930996802915, "lng": 80.1250998302915}, "southwest": {"lat": 27.3904017197085, "lng": 80.1224018697085}}}, "icon": "https://maps.gstatic.com/mapfiles/place_api/icons/v1/png_71/bank-71.png", "icon_background_color": "#909CE1", "icon_mask_base_uri": "https://maps.gstatic.com/mapfiles/place_api/icons/v2/bank-intl_pinlet", "name": "Punjab National Bank", "opening_hours": {"open_now": false}, "photos": [{"height": 2592, "html_attributions": ["<a href=\"https://maps.google.com/maps/contrib/111790996469348036624\">Ankur Singh</a>"], "photo_reference": "Aap_uEDmlF-4h0y1VQoj_ytbuUqhVeBUE-7dkqoybwt1q1A2JlO05wUNjSGdcGUPFNmEjcFFWHn6l6tiYVMHtzSYKwVdBOSwl0w8OnnoSJBm-U8i5F4TUTi48yDXBs6OOorBtxRT8aD70LxpVGscDO0mxZOVpA-5Ll-0p6IqSd9TifdOpUuw", "width": 1944}], "place_id": "ChIJB3fleyH4njkReYYIrE12Okg", "rating": 2.8, "reference": "ChIJB3fleyH4njkReYYIrE12Okg", "scope": "GOOGLE", "types": ["bank", "finance", "point_of_interest", "establishment"], "user_ratings_total": 12, "vicinity": "94RF+PF4, Sader Bazar, Hardoi"}, {"business_status": "OPERATIONAL", "geometry": {"location": {"lat": 27.391358, "lng": 80.1333177}, "viewport": {"northeast": {"lat": 27.3927001302915, "lng": 80.13464883029151}, "southwest": {"lat": 27.3900021697085, "lng": 80.13195086970849}}}, "icon": "https://maps.gstatic.com/mapfiles/place_api/icons/v1/png_71/bank-71.png", "icon_background_color": "#909CE1", "icon_mask_base_uri": "https://maps.gstatic.com/mapfiles/place_api/icons/v2/bank-intl_pinlet", "name": "Allahabad Bank", "opening_hours": {"open_now": true}, "place_id": "ChIJm1VE6ij4njkR4ccVqx_OANk", "plus_code": {"compound_code": "94RM+G8 Khetuai, Uttar Pradesh, India", "global_code": "7MV294RM+G8"}, "rating": 4, "reference": "ChIJm1VE6ij4njkR4ccVqx_OANk", "scope": "GOOGLE", "types": ["bank", "finance", "point_of_interest", "establishment"], "user_ratings_total": 2, "vicinity": "near Lallu Dada Ki Koti, Lucknow Road, Khetuai"}, {"business_status": "OPERATIONAL", "geometry": {"location": {"lat": 27.392936, "lng": 80.12444839999999}, "viewport": {"northeast": {"lat": 27.3942969302915, "lng": 80.1257233802915}, "southwest": {"lat": 27.3915989697085, "lng": 80.1230254197085}}}, "icon": "https://maps.gstatic.com/mapfiles/place_api/icons/v1/png_71/bank-71.png", "icon_background_color": "#909CE1", "icon_mask_base_uri": "https://maps.gstatic.com/mapfiles/place_api/icons/v2/bank-intl_pinlet", "name": "union bank of india", "opening_hours": {"open_now": true}, "photos": [{"height": 4624, "html_attributions": ["<a href=\"https://maps.google.com/maps/contrib/118211577245963135429\">Yash Tiwari</a>"], "photo_reference": "Aap_uED_nArBh6EGKLW856_3wbDh-e0GcgTS_IlE9pgpg4XoizIQcyCEiLIhjozYaPs9RG3HEtmlO9Amv5VYQKamG39RR8_zyjHNAdgNmhma1DL8CF0MHbxLYoqSWxRKaQ9tu8rBuRCH3x3t7Ebd-M8c-Skbmyy_zDt7A3K5N9gPPNONoD4P", "width": 3472}], "place_id": "ChIJuSWZ3CP4njkRosHBcefADrk", "plus_code": {"compound_code": "94VF+5Q Hardoi, Uttar Pradesh, India", "global_code": "7MV294VF+5Q"}, "rating": 3.8, "reference": "ChIJuSWZ3CP4njkRosHBcefADrk", "scope": "GOOGLE", "types": ["bank", "atm", "finance", "point_of_interest", "establishment"], "user_ratings_total": 22, "vicinity": "Hardoi - Kannauj Road, Mahatma Gandhi Road, Hardoi"}, {"business_status": "OPERATIONAL", "geometry": {"location": {"lat": 27.3932765, "lng": 80.1279144}, "viewport": {"northeast": {"lat": 27.3946146302915, "lng": 80.1292259802915}, "southwest": {"lat": 27.3919166697085, "lng": 80.12652801970849}}}, "icon": "https://maps.gstatic.com/mapfiles/place_api/icons/v1/png_71/bank-71.png", "icon_background_color": "#909CE1", "icon_mask_base_uri": "https://maps.gstatic.com/mapfiles/place_api/icons/v2/bank-intl_pinlet", "name": "United Bank Of India", "opening_hours": {"open_now": false}, "place_id": "ChIJOSX7GCT4njkRcqt0FKDN144", "plus_code": {"compound_code": "94VH+85 Hardoi, Uttar Pradesh, India", "global_code": "7MV294VH+85"}, "rating": 4.1, "reference": "ChIJOSX7GCT4njkRcqt0FKDN144", "scope": "GOOGLE", "types": ["bank", "finance", "point_of_interest", "establishment"], "user_ratings_total": 8, "vicinity": "183, Bansi Nagar, Cinema Road, Hardoi"}, {"business_status": "OPERATIONAL", "geometry": {"location": {"lat": 27.3939731, "lng": 80.12965179999999}, "viewport": {"northeast": {"lat": 27.3953724302915, "lng": 80.13097578029151}, "southwest": {"lat": 27.3926744697085, "lng": 80.12827781970849}}}, "icon": "https://maps.gstatic.com/mapfiles/place_api/icons/v1/png_71/bank-71.png", "icon_background_color": "#909CE1", "icon_mask_base_uri": "https://maps.gstatic.com/mapfiles/place_api/icons/v2/bank-intl_pinlet", "name": "Aryavart Gramin Bank", "opening_hours": {"open_now": false}, "photos": [{"height": 3000, "html_attributions": ["<a href=\"https://maps.google.com/maps/contrib/107895619929803960164\">M_pushpendra sahu</a>"], "photo_reference": "Aap_uEDuPIo6LM4Elpm9u5QCHQeOTT1LVQUVzt30Nw4lN1ECT64qe7JVqDZ8A93uTb3sqbFIv3sYapRi78M9gYOAXANwYX_j3m4Wgh5uw5eWaBaTLPVQihmdGZiDLUz5cjrxbCnPLvMByy9VKQGqbgF-8bjTYJx9bkbicYJ-nhydrt1789La", "width": 4000}], "place_id": "ChIJM6HXxyX4njkRDIONlnWfLKk", "plus_code": {"compound_code": "94VH+HV Hardoi, Uttar Pradesh, India", "global_code": "7MV294VH+HV"}, "rating": 3.6, "reference": "ChIJM6HXxyX4njkRDIONlnWfLKk", "scope": "GOOGLE", "types": ["bank", "finance", "point_of_interest", "establishment"], "user_ratings_total": 20, "vicinity": "Cinema Road, Sader Bazar, Hardoi"}, {"business_status": "OPERATIONAL", "geometry": {"location": {"lat": 27.3828718, "lng": 80.1245005}, "viewport": {"northeast": {"lat": 27.3841978802915, "lng": 80.1258631302915}, "southwest": {"lat": 27.3814999197085, "lng": 80.1231651697085}}}, "icon": "https://maps.gstatic.com/mapfiles/place_api/icons/v1/png_71/shopping-71.png", "icon_background_color": "#4B96F3", "icon_mask_base_uri": "https://maps.gstatic.com/mapfiles/place_api/icons/v2/shopping_pinlet", "name": "CSC Aadhar Seva Kendra", "opening_hours": {"open_now": true}, "photos": [{"height": 3120, "html_attributions": ["<a href=\"https://maps.google.com/maps/contrib/116740920617960453429\">Manoj KUSHWAHA</a>"], "photo_reference": "Aap_uEA0s7u8LgUVqHWd9ERb2iahaGtneu93h02LwGRKLAGrjU5v4J2_n5hjv824gXnJY6eqyMcI_i0gdWE-PANpI6R4qVk1rw7neCCwLi_b3V2nQPQBwgNnp9vJS405bV7w-cBkwIAQC6a4c1eKFO9DZX61F-XcICjQiIK7uNNR_KIT3hFV", "width": 4160}], "place_id": "ChIJVY_bCUv3njkRqpnaNizsIFw", "plus_code": {"compound_code": "94MF+4R Hardoi, Uttar Pradesh, India", "global_code": "7MV294MF+4R"}, "rating": 5, "reference": "ChIJVY_bCUv3njkRqpnaNizsIFw", "scope": "GOOGLE", "types": ["store", "bank", "finance", "electronics_store", "local_government_office", "point_of_interest", "establishment"], "user_ratings_total": 5, "vicinity": "near Bilgram Chungi, Circular Road, Hardoi"}, {"business_status": "OPERATIONAL", "geometry": {"location": {"lat": 27.3876559, "lng": 80.1280767}, "viewport": {"northeast": {"lat": 27.3890176302915, "lng": 80.1293932302915}, "southwest": {"lat": 27.3863196697085, "lng": 80.12669526970849}}}, "icon": "https://maps.gstatic.com/mapfiles/place_api/icons/v1/png_71/atm-71.png", "icon_background_color": "#909CE1", "icon_mask_base_uri": "https://maps.gstatic.com/mapfiles/place_api/icons/v2/atm_pinlet", "name": "Axis Bank ATM", "opening_hours": {"open_now": true}, "photos": [{"height": 558, "html_attributions": ["<a href=\"https://maps.google.com/maps/contrib/102734040688959239524\">Axis Bank ATM</a>"], "photo_reference": "Aap_uEDvuPY-aQZeNqzldhDHWSEBvMTt3J2Orr1Fu-J6jAZGZMpnwLHNCn9Nc-2pw2q3eZ8yec9HA5pv7On62qPEMt-JwlqQCvzEklPn-0OU321iAWQdhh93W8fgFKg75HdOd234QIjhmvo8mrtwleG_Xtbr5FT8BwJ00xTSKF3wLvj84aqe", "width": 992}], "place_id": "ChIJxy9scib4njkR0Mb-UGwYmDo", "plus_code": {"compound_code": "94QH+36 Hardoi, Uttar Pradesh, India", "global_code": "7MV294QH+36"}, "reference": "ChIJxy9scib4njkR0Mb-UGwYmDo", "scope": "GOOGLE", "types": ["atm", "bank", "finance", "point_of_interest", "establishment"], "vicinity": "near Katiyar Nursing Home, No 185, Dharamshala Road, Hardoi"}, {"business_status": "OPERATIONAL", "geometry": {"location": {"lat": 27.379078, "lng": 80.120663}, "viewport": {"northeast": {"lat": 27.3803872802915, "lng": 80.1219866802915}, "southwest": {"lat": 27.3776893197085, "lng": 80.11928871970849}}}, "icon": "https://maps.gstatic.com/mapfiles/place_api/icons/v1/png_71/bank-71.png", "icon_background_color": "#909CE1", "icon_mask_base_uri": "https://maps.gstatic.com/mapfiles/place_api/icons/v2/bank-intl_pinlet", "name": "Bank Of Baroda", "opening_hours": {"open_now": false}, "photos": [{"height": 288, "html_attributions": ["<a href=\"https://maps.google.com/maps/contrib/105247193121627896251\">Bank Of Baroda</a>"], "photo_reference": "Aap_uEDL2CbpnWeCRDld5_DCku0j-CFAqRFvOlutw6YGk5QwpSvQawzSxUjJ91WskOC-jQMFrKAG-6nMx0OnkZ2pxnxHmfzEn50kNZlhCh88BnkLMZnkKfvdFxn2Q5Jz0hzYonZtNblEBhiB2snCPVoMS_EeZtzMNKg_oPTHQtmHOfQhibSH", "width": 512}], "place_id": "ChIJQUsOtYz3njkRg5-mQWj1h1Q", "plus_code": {"compound_code": "94HC+J7 Hardoi, Uttar Pradesh, India", "global_code": "7MV294HC+J7"}, "reference": "ChIJQUsOtYz3njkRg5-mQWj1h1Q", "scope": "GOOGLE", "types": ["bank", "finance", "point_of_interest", "establishment"], "vicinity": "SHOP NO 147, NEAR, Bilgram Rd, Chota Chauraha, Radha Nagar, Hardoi"}, {"business_status": "OPERATIONAL", "geometry": {"location": {"lat": 27.3864654, "lng": 80.13253859999999}, "viewport": {"northeast": {"lat": 27.3878684302915, "lng": 80.13385018029149}, "southwest": {"lat": 27.3851704697085, "lng": 80.13115221970848}}}, "icon": "https://maps.gstatic.com/mapfiles/place_api/icons/v1/png_71/bank-71.png", "icon_background_color": "#909CE1", "icon_mask_base_uri": "https://maps.gstatic.com/mapfiles/place_api/icons/v2/bank-intl_pinlet", "name": "State Bank Of India", "opening_hours": {"open_now": false}, "place_id": "ChIJ86rO8Yf3njkRyFkQhj7OWT8", "plus_code": {"compound_code": "94PM+H2 Hardoi, Uttar Pradesh, India", "global_code": "7MV294PM+H2"}, "rating": 3.9, "reference": "ChIJ86rO8Yf3njkRyFkQhj7OWT8", "scope": "GOOGLE", "types": ["bank", "finance", "point_of_interest", "establishment"], "user_ratings_total": 10, "vicinity": "C-278, Circular Road, Avas Vikas Colony, Hardoi"}, {"business_status": "OPERATIONAL", "geometry": {"location": {"lat": 27.3867193, "lng": 80.1331974}, "viewport": {"northeast": {"lat": 27.38816153029151, "lng": 80.1344793802915}, "southwest": {"lat": 27.3854635697085, "lng": 80.13178141970849}}}, "icon": "https://maps.gstatic.com/mapfiles/place_api/icons/v1/png_71/bank-71.png", "icon_background_color": "#909CE1", "icon_mask_base_uri": "https://maps.gstatic.com/mapfiles/place_api/icons/v2/bank-intl_pinlet", "name": "Gramin Bank of Aryavart - Regional Office Hardoi", "opening_hours": {"open_now": false}, "photos": [{"height": 2185, "html_attributions": ["<a href=\"https://maps.google.com/maps/contrib/115533440021441463713\">Kumar Harsh</a>"], "photo_reference": "Aap_uECspTcXxrXB9koRm_UHfgJfAgKvN3uUNEGEM0LpQYTxzJ0J7o-bxjyFH6qHxtW1ugrILFHCnU611sIsMp1-airQbKngijO9jFGZEJwc98VsudNwoY7ViX_ShOic-afQvxR5t0cfbvgDmbPSFrktU5wLgriNm2p8JEgJ14-8VnhcfcKT", "width": 3142}], "place_id": "ChIJyV17i4f3njkRY5FvObQwqDs", "plus_code": {"compound_code": "94PM+M7 Hardoi, Uttar Pradesh, India", "global_code": "7MV294PM+M7"}, "rating": 4.2, "reference": "ChIJyV17i4f3njkRY5FvObQwqDs", "scope": "GOOGLE", "types": ["bank", "finance", "point_of_interest", "establishment"], "user_ratings_total": 9, "vicinity": "Circular Road, Hardoi"}, {"business_status": "OPERATIONAL", "geometry": {"location": {"lat": 27.38929169999999, "lng": 80.121218}, "viewport": {"northeast": {"lat": 27.3906560302915, "lng": 80.12254723029149}, "southwest": {"lat": 27.3879580697085, "lng": 80.11984926970848}}}, "icon": "https://maps.gstatic.com/mapfiles/place_api/icons/v1/png_71/bank-71.png", "icon_background_color": "#909CE1", "icon_mask_base_uri": "https://maps.gstatic.com/mapfiles/place_api/icons/v2/bank-intl_pinlet", "name": "Bank Of Baroda", "opening_hours": {"open_now": false}, "photos": [{"height": 288, "html_attributions": ["<a href=\"https://maps.google.com/maps/contrib/101810063706391449982\">Bank Of Baroda</a>"], "photo_reference": "Aap_uEBOazxUyAP2szhDf8rsiIxyOVHiAcqr7bLum8a_eBuDrMpjot02ZXR15XhY1h5qkfkx-cZJXOCtGJb7m0cKJkmvnkzGbmsDo1Wa0tnuZG8H9k4mBREegjiHHUs0wWZaAgRVyRmov8O1uo-Ph-0MxWAjx9l7EvNHqB_NBBzP20FPIPZl", "width": 512}], "place_id": "ChIJh--5nUD5njkRZV-EVmdFcSw", "plus_code": {"compound_code": "94QC+PF Hardoi, Uttar Pradesh, India", "global_code": "7MV294QC+PF"}, "reference": "ChIJh--5nUD5njkRZV-EVmdFcSw", "scope": "GOOGLE", "types": ["bank", "finance", "point_of_interest", "establishment"], "vicinity": "opp. CHC HOSPITAL, MUSA, Krishna Nagar Road, opp. CHC HOSPITAL, Ghatampur"}, {"business_status": "OPERATIONAL", "geometry": {"location": {"lat": 27.3907398, "lng": 80.1332025}, "viewport": {"northeast": {"lat": 27.39213703029151, "lng": 80.13472068029151}, "southwest": {"lat": 27.3894390697085, "lng": 80.13202271970849}}}, "icon": "https://maps.gstatic.com/mapfiles/place_api/icons/v1/png_71/bank-71.png", "icon_background_color": "#909CE1", "icon_mask_base_uri": "https://maps.gstatic.com/mapfiles/place_api/icons/v2/bank-intl_pinlet", "name": "Axis Bank", "opening_hours": {"open_now": false}, "photos": [{"height": 1920, "html_attributions": ["<a href=\"https://maps.google.com/maps/contrib/100268075369788881028\">Gaurav Srivastav</a>"], "photo_reference": "Aap_uEAemkbLJGoLvUG-uiIo4zXRsJ3ecXrz3iYtv-iKJUY9edPiYW2NqNulSv-fKGXxGxrmJ-V3mFWWrpSf9lJmlusAlFZfkAtG-Pe_9d3XMBPoP_EUfQvupCkxKite-AVyN-BnrjhkS6ww-fdGy3HgS5urxuNTPisk8KloHcamheN0ScR6", "width": 1080}], "place_id": "ChIJu2g480D5njkRH8plcLEEgKc", "plus_code": {"compound_code": "94RM+77 Hardoi, Uttar Pradesh, India", "global_code": "7MV294RM+77"}, "rating": 3.9, "reference": "ChIJu2g480D5njkRH8plcLEEgKc", "scope": "GOOGLE", "types": ["bank", "atm", "finance", "point_of_interest", "establishment"], "user_ratings_total": 12, "vicinity": "opposite Naag Kothi, Building No 636 & 636/1 Central Lucknow Road, Behra Saudagar, opposite Naag Kothi, Hardoi"}, {"business_status": "OPERATIONAL", "geometry": {"location": {"lat": 27.3910007, "lng": 80.12100219999999}, "viewport": {"northeast": {"lat": 27.39235148029151, "lng": 80.12234198029151}, "southwest": {"lat": 27.3896535197085, "lng": 80.11964401970849}}}, "icon": "https://maps.gstatic.com/mapfiles/place_api/icons/v1/png_71/bank-71.png", "icon_background_color": "#909CE1", "icon_mask_base_uri": "https://maps.gstatic.com/mapfiles/place_api/icons/v2/bank-intl_pinlet", "name": "ICICI BANK ATM", "opening_hours": {"open_now": true}, "place_id": "ChIJB_QCd7D5njkRf0al9QXqYYg", "plus_code": {"compound_code": "94RC+CC Hardoi, Uttar Pradesh, India", "global_code": "7MV294RC+CC"}, "reference": "ChIJB_QCd7D5njkRf0al9QXqYYg", "scope": "GOOGLE", "types": ["bank", "finance", "point_of_interest", "establishment"], "vicinity": "Mayank Memorial Center, Dr. Ramdutt, Chauraha, Whiteganj"}, {"business_status": "OPERATIONAL", "geometry": {"location": {"lat": 27.392248, "lng": 80.1242566}, "viewport": {"northeast": {"lat": 27.3936036802915, "lng": 80.12555858029151}, "southwest": {"lat": 27.3909057197085, "lng": 80.1228606197085}}}, "icon": "https://maps.gstatic.com/mapfiles/place_api/icons/v1/png_71/bank-71.png", "icon_background_color": "#909CE1", "icon_mask_base_uri": "https://maps.gstatic.com/mapfiles/place_api/icons/v2/bank-intl_pinlet", "name": "Punjab Nationl Bank M. G. Marg Hardoi", "opening_hours": {"open_now": false}, "place_id": "ChIJDxRwYiH4njkR5uIA0Qxkbok", "plus_code": {"compound_code": "94RF+VP Hardoi, Uttar Pradesh, India", "global_code": "7MV294RF+VP"}, "rating": 3, "reference": "ChIJDxRwYiH4njkR5uIA0Qxkbok", "scope": "GOOGLE", "types": ["bank", "finance", "point_of_interest", "establishment"], "user_ratings_total": 1, "vicinity": "State Highway 21, Hardoi"}, {"business_status": "OPERATIONAL", "geometry": {"location": {"lat": 27.39119999999999, "lng": 80.13360999999999}, "viewport": {"northeast": {"lat": 27.3925186802915, "lng": 80.1348687302915}, "southwest": {"lat": 27.3898207197085, "lng": 80.1321707697085}}}, "icon": "https://maps.gstatic.com/mapfiles/place_api/icons/v1/png_71/atm-71.png", "icon_background_color": "#909CE1", "icon_mask_base_uri": "https://maps.gstatic.com/mapfiles/place_api/icons/v2/atm_pinlet", "name": "Axis Bank ATM", "opening_hours": {"open_now": true}, "place_id": "ChIJB8Q_seL5njkR0JkYJtmz2P8", "plus_code": {"compound_code": "94RM+FC Hardoi, Uttar Pradesh, India", "global_code": "7MV294RM+FC"}, "reference": "ChIJB8Q_seL5njkR0JkYJtmz2P8", "scope": "GOOGLE", "types": ["atm", "bank", "finance", "point_of_interest", "establishment"], "vicinity": "opposite Naag Kothi, Building No 636 & 636 Mohalla Behra Saudagar, Central, opposite Naag Kothi, Lucknow Road, Hardoi"}, {"business_status": "OPERATIONAL", "geometry": {"location": {"lat": 27.3939979, "lng": 80.12715879999999}, "viewport": {"northeast": {"lat": 27.3953534302915, "lng": 80.1285624802915}, "southwest": {"lat": 27.3926554697085, "lng": 80.1258645197085}}}, "icon": "https://maps.gstatic.com/mapfiles/place_api/icons/v1/png_71/bank-71.png", "icon_background_color": "#909CE1", "icon_mask_base_uri": "https://maps.gstatic.com/mapfiles/place_api/icons/v2/bank-intl_pinlet", "name": "Bank of Baroda (E Dena)", "opening_hours": {"open_now": false}, "photos": [{"height": 288, "html_attributions": ["<a href=\"https://maps.google.com/maps/contrib/113601565204130412809\">Bank of Baroda (E Dena)</a>"], "photo_reference": "Aap_uEBdF5sSlnXvt7PeSaNxlqfvRRnMOAiUTSc_SHDNhCwKZ3Q1Li7OyL2OetvVK7mkG3g35igPHbFU7tzqO1XvSFL7dZ29xmH8DcTLyP6uVW404wso1Wk60CJceyKMj2W7wxu5L5R7G1lDfLzlOCNJBGW053Ip_Fuq8qFFc3VtkAb5RJU", "width": 512}], "place_id": "ChIJ2fVZ3t_5njkRMMMnCbUqVP0", "plus_code": {"compound_code": "94VG+HV Hardoi, Uttar Pradesh, India", "global_code": "7MV294VG+HV"}, "reference": "ChIJ2fVZ3t_5njkRMMMnCbUqVP0", "scope": "GOOGLE", "types": ["bank", "finance", "point_of_interest", "establishment"], "vicinity": "Gopamau House, 157 Circular Road Nagheta, near Essar Petrol P,Pargana, Tehsil Sadae, Hardoi"}, {"business_status": "OPERATIONAL", "geometry": {"location": {"lat": 27.3932283, "lng": 80.1322016}, "viewport": {"northeast": {"lat": 27.3945516802915, "lng": 80.1335467302915}, "southwest": {"lat": 27.3918537197085, "lng": 80.13084876970849}}}, "icon": "https://maps.gstatic.com/mapfiles/place_api/icons/v1/png_71/bank-71.png", "icon_background_color": "#909CE1", "icon_mask_base_uri": "https://maps.gstatic.com/mapfiles/place_api/icons/v2/bank-intl_pinlet", "name": "Idbi Bank", "opening_hours": {"open_now": false}, "photos": [{"height": 333, "html_attributions": ["<a href=\"https://maps.google.com/maps/contrib/101887266210870808409\">Rajat Srivastav</a>"], "photo_reference": "Aap_uEBupBeQnCo0hQTyEkbnjNwHLfiOtF8iVAFn6AB2X84R18OdEEOvCvoimuBO512wCinSRU2wjLz1K5ZHv8aysaNne6yVL3EcitVDeu-6QWr5EubN24RL4NFglX2JPOmW53hDbMoKRQNX4RAEdcDGnn71Uqn79JildNEwjqtThbb_zKN-", "width": 500}], "place_id": "ChIJf2aGUS_4njkRGqhgNvVcijk", "plus_code": {"compound_code": "94VJ+7V Hardoi, Uttar Pradesh, India", "global_code": "7MV294VJ+7V"}, "rating": 3.7, "reference": "ChIJf2aGUS_4njkRGqhgNvVcijk", "scope": "GOOGLE", "types": ["bank", "atm", "finance", "point_of_interest", "establishment"], "user_ratings_total": 19, "vicinity": "417, Lucknow Road, Behra Saudagar, Near Cinema Chauraha"}, {"business_status": "OPERATIONAL", "geometry": {"location": {"lat": 27.3904114, "lng": 80.1375523}, "viewport": {"northeast": {"lat": 27.3917621802915, "lng": 80.1388943802915}, "southwest": {"lat": 27.38906421970849, "lng": 80.13619641970848}}}, "icon": "https://maps.gstatic.com/mapfiles/place_api/icons/v1/png_71/bank-71.png", "icon_background_color": "#909CE1", "icon_mask_base_uri": "https://maps.gstatic.com/mapfiles/place_api/icons/v2/bank-intl_pinlet", "name": "Oriental Bank of Commerce", "opening_hours": {"open_now": false}, "place_id": "ChIJUVu-1Cv4njkR16EFuhK0qjM", "plus_code": {"compound_code": "94RQ+52 Hardoi, Uttar Pradesh, India", "global_code": "7MV294RQ+52"}, "rating": 4, "reference": "ChIJUVu-1Cv4njkR16EFuhK0qjM", "scope": "GOOGLE", "types": ["bank", "finance", "point_of_interest", "establishment"], "user_ratings_total": 11, "vicinity": "Circular Road, Nagheta Purvi, Avas Vikas Colony, Hardoi"}], "status": "OK"}