{"html_attributions": [], "results": [{"business_status": "OPERATIONAL", "geometry": {"location": {"lat": 27.0389396, "lng": 80.152418}, "viewport": {"northeast": {"lat": 27.0403091302915, "lng": 80.15370123029152}, "southwest": {"lat": 27.0376111697085, "lng": 80.1510032697085}}}, "icon": "https://maps.gstatic.com/mapfiles/place_api/icons/v1/png_71/bank-71.png", "icon_background_color": "#909CE1", "icon_mask_base_uri": "https://maps.gstatic.com/mapfiles/place_api/icons/v2/bank-intl_pinlet", "name": "Bank Of India", "opening_hours": {"open_now": true}, "photos": [{"height": 4160, "html_attributions": ["<a href=\"https://maps.google.com/maps/contrib/103762378968876431144\">Kamal Kishor</a>"], "photo_reference": "Aap_uEB_JfTeWHZ6IiJI2zAIOgX_3pTUV6Mz3l8i5QGeWlzNMfJw5_jJKWA2_5BGfsUyILBXQ-kX3YSxNq8e9F28V8Xb2IMZijRy2FLm0WsAd5aMIG88BdL72bjeTMdW1A2SEjkEs3oEJavwFUR8S51R9nndO_N7yoIgY0bh6-GM-NQm9_23", "width": 3120}], "place_id": "ChIJcRcmNI2InjkR2Om5RmInNxQ", "plus_code": {"compound_code": "25Q2+HX Mallawan, Uttar Pradesh, India", "global_code": "7MV225Q2+HX"}, "rating": 3.3, "reference": "ChIJcRcmNI2InjkR2Om5RmInNxQ", "scope": "GOOGLE", "types": ["bank", "atm", "finance", "point_of_interest", "establishment"], "user_ratings_total": 18, "vicinity": "Hardoi Unnao Road, Dist-Hardoi, Mallawan"}, {"business_status": "OPERATIONAL", "geometry": {"location": {"lat": 27.0391116, "lng": 80.1525475}, "viewport": {"northeast": {"lat": 27.0404892302915, "lng": 80.1538018802915}, "southwest": {"lat": 27.0377912697085, "lng": 80.15110391970849}}}, "icon": "https://maps.gstatic.com/mapfiles/place_api/icons/v1/png_71/bank-71.png", "icon_background_color": "#909CE1", "icon_mask_base_uri": "https://maps.gstatic.com/mapfiles/place_api/icons/v2/bank-intl_pinlet", "name": "Aryavart Gramin Bank", "place_id": "ChIJm7mfNY2InjkRE3ubpmQRxfk", "rating": 3, "reference": "ChIJm7mfNY2InjkRE3ubpmQRxfk", "scope": "GOOGLE", "types": ["bank", "finance", "point_of_interest", "establishment"], "user_ratings_total": 2, "vicinity": "25Q3+J2V, Mallawan"}, {"business_status": "OPERATIONAL", "geometry": {"location": {"lat": 27.0367379, "lng": 80.1518655}, "viewport": {"northeast": {"lat": 27.0380867302915, "lng": 80.1532719802915}, "southwest": {"lat": 27.0353887697085, "lng": 80.15057401970849}}}, "icon": "https://maps.gstatic.com/mapfiles/place_api/icons/v1/png_71/bank-71.png", "icon_background_color": "#909CE1", "icon_mask_base_uri": "https://maps.gstatic.com/mapfiles/place_api/icons/v2/bank-intl_pinlet", "name": "State Bank Of India", "opening_hours": {"open_now": true}, "place_id": "ChIJhSzkBY2InjkRPlIQc4f2GPY", "rating": 3.2, "reference": "ChIJhSzkBY2InjkRPlIQc4f2GPY", "scope": "GOOGLE", "types": ["bank", "finance", "point_of_interest", "establishment"], "user_ratings_total": 18, "vicinity": "25P2+MPX, Mallawan"}, {"business_status": "OPERATIONAL", "geometry": {"location": {"lat": 27.0410459, "lng": 80.15292}, "viewport": {"northeast": {"lat": 27.0423694302915, "lng": 80.15434458029151}, "southwest": {"lat": 27.0396714697085, "lng": 80.1516466197085}}}, "icon": "https://maps.gstatic.com/mapfiles/place_api/icons/v1/png_71/bank-71.png", "icon_background_color": "#909CE1", "icon_mask_base_uri": "https://maps.gstatic.com/mapfiles/place_api/icons/v2/bank-intl_pinlet", "name": "BOI Mini Branch", "place_id": "ChIJA6w9lPKInjkReYlt-aU-0Vs", "plus_code": {"compound_code": "25R3+C5 Mallawan, Uttar Pradesh, India", "global_code": "7MV225R3+C5"}, "rating": 5, "reference": "ChIJA6w9lPKInjkReYlt-aU-0Vs", "scope": "GOOGLE", "types": ["bank", "finance", "point_of_interest", "establishment"], "user_ratings_total": 1, "vicinity": "Ganga Rampur, Sitapur - Kanpur Road, Mallawan"}, {"business_status": "OPERATIONAL", "geometry": {"location": {"lat": 27.040019, "lng": 80.15278200000002}, "viewport": {"northeast": {"lat": 27.0413542302915, "lng": 80.15412778029149}, "southwest": {"lat": 27.03865626970849, "lng": 80.15142981970848}}}, "icon": "https://maps.gstatic.com/mapfiles/place_api/icons/v1/png_71/bank-71.png", "icon_background_color": "#909CE1", "icon_mask_base_uri": "https://maps.gstatic.com/mapfiles/place_api/icons/v2/bank-intl_pinlet", "name": "LDB Mallawan", "opening_hours": {"open_now": false}, "place_id": "ChIJRfCDt_KInjkRhn8i-OrerrU", "rating": 4, "reference": "ChIJRfCDt_KInjkRhn8i-OrerrU", "scope": "GOOGLE", "types": ["bank", "finance", "point_of_interest", "establishment"], "user_ratings_total": 1, "vicinity": "25R3+243, Mallawan"}, {"business_status": "OPERATIONAL", "geometry": {"location": {"lat": 27.0367559, "lng": 80.1521279}, "viewport": {"northeast": {"lat": 27.0381050802915, "lng": 80.1534032302915}, "southwest": {"lat": 27.03540711970849, "lng": 80.1507052697085}}}, "icon": "https://maps.gstatic.com/mapfiles/place_api/icons/v1/png_71/bank-71.png", "icon_background_color": "#909CE1", "icon_mask_base_uri": "https://maps.gstatic.com/mapfiles/place_api/icons/v2/bank-intl_pinlet", "name": "SBI CSP", "opening_hours": {"open_now": false}, "place_id": "ChIJ7yjRDo2InjkRBeCUMhFfkx8", "rating": 3, "reference": "ChIJ7yjRDo2InjkRBeCUMhFfkx8", "scope": "GOOGLE", "types": ["bank", "finance", "point_of_interest", "establishment"], "user_ratings_total": 2, "vicinity": "25P2+PV2, Mallawan"}, {"business_status": "OPERATIONAL", "geometry": {"location": {"lat": 27.0353665, "lng": 80.15190079999999}, "viewport": {"northeast": {"lat": 27.0367268302915, "lng": 80.1533182802915}, "southwest": {"lat": 27.0340288697085, "lng": 80.1506203197085}}}, "icon": "https://maps.gstatic.com/mapfiles/place_api/icons/v1/png_71/bank-71.png", "icon_background_color": "#909CE1", "icon_mask_base_uri": "https://maps.gstatic.com/mapfiles/place_api/icons/v2/bank-intl_pinlet", "name": "KBCL INDIA LIMITED", "opening_hours": {"open_now": false}, "place_id": "ChIJgdybsI2InjkRT6EmuXUDVHU", "plus_code": {"compound_code": "25P2+4Q Mallawan, Uttar Pradesh, India", "global_code": "7MV225P2+4Q"}, "rating": 2, "reference": "ChIJgdybsI2InjkRT6EmuXUDVHU", "scope": "GOOGLE", "types": ["bank", "finance", "point_of_interest", "establishment"], "user_ratings_total": 17, "vicinity": "Hardoi District, Gudde Market, 1st Floor, Mallawan"}], "status": "OK"}