{"html_attributions": [], "results": [{"business_status": "OPERATIONAL", "geometry": {"location": {"lat": 27.4197114, "lng": 80.6436595}, "viewport": {"northeast": {"lat": 27.4210182802915, "lng": 80.64500968029151}, "southwest": {"lat": 27.4183203197085, "lng": 80.6423117197085}}}, "icon": "https://maps.gstatic.com/mapfiles/place_api/icons/v1/png_71/bank-71.png", "icon_background_color": "#909CE1", "icon_mask_base_uri": "https://maps.gstatic.com/mapfiles/place_api/icons/v2/bank-intl_pinlet", "name": "Allahabad bank BC poin", "place_id": "ChIJRykDK_3PnjkRXAFllhamPBI", "reference": "ChIJRykDK_3PnjkRXAFllhamPBI", "scope": "GOOGLE", "types": ["bank", "finance", "point_of_interest", "establishment"], "vicinity": "CJ9V+VFM, Mirjapur"}, {"business_status": "OPERATIONAL", "geometry": {"location": {"lat": 27.4227907, "lng": 80.6429406}, "viewport": {"northeast": {"lat": 27.4241069802915, "lng": 80.6443747302915}, "southwest": {"lat": 27.42140901970849, "lng": 80.6416767697085}}}, "icon": "https://maps.gstatic.com/mapfiles/place_api/icons/v1/png_71/bank-71.png", "icon_background_color": "#909CE1", "icon_mask_base_uri": "https://maps.gstatic.com/mapfiles/place_api/icons/v2/bank-intl_pinlet", "name": "Adhaar ATM", "opening_hours": {"open_now": true}, "photos": [{"height": 405, "html_attributions": ["<a href=\"https://maps.google.com/maps/contrib/115840270132040641398\">Adhaar ATM</a>"], "photo_reference": "Aap_uEAn42UJ6NYpUaRCgIVHcTXDKei-68kFQcRZeB07ybwhEwK7eP_TXGbcySJ7v8jtTijx_z6tlMkaHYwR1IKWAt6XLYRZtpMyN_AzV7FJyyB88mGAoGG3EqBmA-XvMaJMVozSjlnlzkKzOSWKw_w7kVaCry2RdU3762r6LX1_5d_cCPaV", "width": 720}], "place_id": "ChIJH9kawL7RnjkRZhDu1u5BMy8", "plus_code": {"compound_code": "CJFV+45 Macharehta, Uttar Pradesh, India", "global_code": "7MV2CJFV+45"}, "rating": 5, "reference": "ChIJH9kawL7RnjkRZhDu1u5BMy8", "scope": "GOOGLE", "types": ["bank", "finance", "point_of_interest", "establishment"], "user_ratings_total": 1, "vicinity": "Adhaar ATM Khairabad road mirjapur uttari, Macharehta"}, {"business_status": "OPERATIONAL", "geometry": {"location": {"lat": 27.4179843, "lng": 80.64158499999999}, "viewport": {"northeast": {"lat": 27.4192277802915, "lng": 80.6428497802915}, "southwest": {"lat": 27.4165298197085, "lng": 80.64015181970849}}}, "icon": "https://maps.gstatic.com/mapfiles/place_api/icons/v1/png_71/bank-71.png", "icon_background_color": "#909CE1", "icon_mask_base_uri": "https://maps.gstatic.com/mapfiles/place_api/icons/v2/bank-intl_pinlet", "name": "Allahabad Bank Rathorpur", "photos": [{"height": 1920, "html_attributions": ["<a href=\"https://maps.google.com/maps/contrib/110625284799443610905\">Anoop Kumar</a>"], "photo_reference": "Aap_uECs-3D6UqUf6p3NxlOHHXoa_crqDTh4b71NNdDmJXpDmaC0R5cHIsR4dQ9Dv6eRvxQQuNzx7kKsY2ZSIsnQxXvu8zwzgJy6FPbM35ko_4vQCPq39mKG1HNCrDJPPYYU-zDUd9_diolwtZxgZhjS-NzsIwbAKhZ6M-Ffi8IiuMCmR2--", "width": 1080}], "place_id": "ChIJsYeUMrzPnjkRq8GL-IvW2kc", "rating": 4, "reference": "ChIJsYeUMrzPnjkRq8GL-IvW2kc", "scope": "GOOGLE", "types": ["bank", "finance", "point_of_interest", "establishment"], "user_ratings_total": 3, "vicinity": "CJ9R+5JW, Matasiya Lakhnsepur"}], "status": "OK"}