{"html_attributions": [], "results": [{"business_status": "OPERATIONAL", "geometry": {"location": {"lat": 27.02406359999999, "lng": 80.7387584}, "viewport": {"northeast": {"lat": 27.0253816302915, "lng": 80.7401935302915}, "southwest": {"lat": 27.02268366970849, "lng": 80.7374955697085}}}, "icon": "https://maps.gstatic.com/mapfiles/place_api/icons/v1/png_71/bank-71.png", "icon_background_color": "#909CE1", "icon_mask_base_uri": "https://maps.gstatic.com/mapfiles/place_api/icons/v2/bank-intl_pinlet", "name": "Allahabad Bank", "place_id": "ChIJV8AqhsatnjkRM3UeXcrkUEc", "plus_code": {"compound_code": "2PFQ+JG Mall, Uttar Pradesh, India", "global_code": "7MV22PFQ+JG"}, "rating": 4.3, "reference": "ChIJV8AqhsatnjkRM3UeXcrkUEc", "scope": "GOOGLE", "types": ["bank", "finance", "point_of_interest", "establishment"], "user_ratings_total": 4, "vicinity": "Mall"}, {"business_status": "OPERATIONAL", "geometry": {"location": {"lat": 27.0222815, "lng": 80.7366859}, "viewport": {"northeast": {"lat": 27.02359798029151, "lng": 80.7379974302915}, "southwest": {"lat": 27.0209000197085, "lng": 80.7352994697085}}}, "icon": "https://maps.gstatic.com/mapfiles/place_api/icons/v1/png_71/bank-71.png", "icon_background_color": "#909CE1", "icon_mask_base_uri": "https://maps.gstatic.com/mapfiles/place_api/icons/v2/bank-intl_pinlet", "name": "Bank Of India", "place_id": "ChIJq6qq6sWtnjkRF1OzBqbWOfE", "rating": 5, "reference": "ChIJq6qq6sWtnjkRF1OzBqbWOfE", "scope": "GOOGLE", "types": ["bank", "finance", "point_of_interest", "establishment"], "user_ratings_total": 1, "vicinity": "Munispal Ward:Mall/Village&Tehsil, Mall"}, {"business_status": "OPERATIONAL", "geometry": {"location": {"lat": 27.0225574, "lng": 80.7380396}, "viewport": {"northeast": {"lat": 27.0238869302915, "lng": 80.73943708029151}, "southwest": {"lat": 27.0211889697085, "lng": 80.73673911970849}}}, "icon": "https://maps.gstatic.com/mapfiles/place_api/icons/v1/png_71/bank-71.png", "icon_background_color": "#909CE1", "icon_mask_base_uri": "https://maps.gstatic.com/mapfiles/place_api/icons/v2/bank-intl_pinlet", "name": "SBI CSP Mall (Mohd Israr)", "opening_hours": {"open_now": true}, "photos": [{"height": 2764, "html_attributions": ["<a href=\"https://maps.google.com/maps/contrib/117799798362592775438\">Sandeep Kumar</a>"], "photo_reference": "Aap_uEB0wKfalx-TlDc9uLhdX_t6Qw2PrmlMk5aJPUfSBjl4t7P5ASgHDkbtxoL9VWoD7KMcydcwpNzOqSqYuZm8k4slEgGmfbWCVXMQhAilZiufKhpLionzh7hbYA_Mxuz0alQMP6Mpkj8uUepIwWmvlovhG0W7DA-Cc8nqTd_9kLnh3xW2", "width": 2963}], "place_id": "ChIJJ4p438WtnjkRL66zzI4tFvY", "rating": 4.4, "reference": "ChIJJ4p438WtnjkRL66zzI4tFvY", "scope": "GOOGLE", "types": ["bank", "finance", "point_of_interest", "establishment"], "user_ratings_total": 5, "vicinity": "2PFQ+26F, Mall"}, {"business_status": "OPERATIONAL", "geometry": {"location": {"lat": 27.02343, "lng": 80.738655}, "viewport": {"northeast": {"lat": 27.0247785802915, "lng": 80.7400047802915}, "southwest": {"lat": 27.0220806197085, "lng": 80.7373068197085}}}, "icon": "https://maps.gstatic.com/mapfiles/place_api/icons/v1/png_71/atm-71.png", "icon_background_color": "#909CE1", "icon_mask_base_uri": "https://maps.gstatic.com/mapfiles/place_api/icons/v2/atm_pinlet", "name": "Axis Bank ATM", "opening_hours": {"open_now": true}, "photos": [{"height": 558, "html_attributions": ["<a href=\"https://maps.google.com/maps/contrib/108707288434221715379\">Axis Bank ATM</a>"], "photo_reference": "Aap_uEBA45bdHpJzK3QhTl4xBpSblVCby8x0tZ9u-yeTccJOmznla-K97cHw5nKZ8r_AJy39fLyMvhUYJ5foc3dcrFgt1nz_JjcAeRXkRPIQDOHrO21bl07TpSfnl0pEIlUSFl0c8IRAuzOq2aTNZtaY1StLMj6Dgn6uJ_imsHzCR7qLCoou", "width": 992}], "place_id": "ChIJU4Y9MkatnjkRTOv7NsrCAxM", "plus_code": {"compound_code": "2PFQ+9F Mall, Uttar Pradesh, India", "global_code": "7MV22PFQ+9F"}, "reference": "ChIJU4Y9MkatnjkRTOv7NsrCAxM", "scope": "GOOGLE", "types": ["atm", "bank", "finance", "point_of_interest", "establishment"], "vicinity": "House No 660, Main Market Mall Malihabad"}], "status": "OK"}