{"html_attributions": [], "results": [{"business_status": "OPERATIONAL", "geometry": {"location": {"lat": 23.8722438, "lng": 86.336011}, "viewport": {"northeast": {"lat": 23.8735272302915, "lng": 86.3375044302915}, "southwest": {"lat": 23.8708292697085, "lng": 86.3348064697085}}}, "icon": "https://maps.gstatic.com/mapfiles/place_api/icons/v1/png_71/generic_business-71.png", "name": "Eg Classes", "opening_hours": {"open_now": true}, "place_id": "ChIJlaw4W3im9jkRjhwMygdu7h4", "plus_code": {"compound_code": "V8CP+VC Rajganj, Jharkhand, India", "global_code": "7MM8V8CP+VC"}, "reference": "ChIJlaw4W3im9jkRjhwMygdu7h4", "scope": "GOOGLE", "types": ["doctor", "health", "point_of_interest", "establishment"], "vicinity": "Rajganj"}, {"business_status": "OPERATIONAL", "geometry": {"location": {"lat": 23.8718103, "lng": 86.3356677}, "viewport": {"northeast": {"lat": 23.87307283029151, "lng": 86.33711643029152}, "southwest": {"lat": 23.8703748697085, "lng": 86.3344184697085}}}, "icon": "https://maps.gstatic.com/mapfiles/place_api/icons/v1/png_71/generic_business-71.png", "name": "arti medical", "opening_hours": {"open_now": true}, "place_id": "ChIJ1RsRV3im9jkR-RoqZdCEDzg", "plus_code": {"compound_code": "V8CP+P7 Rajganj, Jharkhand, India", "global_code": "7MM8V8CP+P7"}, "rating": 5, "reference": "ChIJ1RsRV3im9jkR-RoqZdCEDzg", "scope": "GOOGLE", "types": ["doctor", "health", "point_of_interest", "establishment"], "user_ratings_total": 2, "vicinity": "Rajganj"}, {"business_status": "OPERATIONAL", "geometry": {"location": {"lat": 23.8728888, "lng": 86.3377986}, "viewport": {"northeast": {"lat": 23.87416318029151, "lng": 86.33912808029152}, "southwest": {"lat": 23.8714652197085, "lng": 86.3364301197085}}}, "icon": "https://maps.gstatic.com/mapfiles/place_api/icons/v1/png_71/generic_business-71.png", "name": "Dr Karamchand", "opening_hours": {"open_now": true}, "place_id": "ChIJHeIF39el9jkR7VO0HeJCmQ0", "plus_code": {"compound_code": "V8FQ+54 Dhanbad, Jharkhand, India", "global_code": "7MM8V8FQ+54"}, "reference": "ChIJHeIF39el9jkR7VO0HeJCmQ0", "scope": "GOOGLE", "types": ["doctor", "health", "point_of_interest", "establishment"], "vicinity": "Grand Trunk Road, Rajganj Market, Dhanbad"}], "status": "OK"}