{"html_attributions": [], "results": [{"business_status": "OPERATIONAL", "geometry": {"location": {"lat": 23.7343958, "lng": 86.815711}, "viewport": {"northeast": {"lat": 23.7357841302915, "lng": 86.8170557802915}, "southwest": {"lat": 23.7330861697085, "lng": 86.81435781970849}}}, "icon": "https://maps.gstatic.com/mapfiles/place_api/icons/v1/png_71/generic_business-71.png", "name": "Hindustan diagnostic", "opening_hours": {"open_now": true}, "photos": [{"height": 1280, "html_attributions": ["<a href=\"https://maps.google.com/maps/contrib/103544961469576024474\">Binod Kumar Singh</a>"], "photo_reference": "ATtYBwLlaD6UQa9I_AMKjRjEPKYw0OpYhQNJhUWxCEnYrhL3jwKaMHM9LdMkoNNw6jkxpp3YPRyUoGROGael3-BOPc2pVIpWTMRqg0edtV3a-5t6qJZyHw1XIf918RaZIRrNRY0RbAg5RwTejk5yzJ2tKqKQ9zL02RH0UV4WIPlqMGB5pQc", "width": 720}], "place_id": "ChIJrZUHEt7d9jkRqDhBe1DUCCU", "plus_code": {"compound_code": "PRM8+Q7 Barakar, West Bengal, India", "global_code": "7MM8PRM8+Q7"}, "rating": 4, "reference": "ChIJrZUHEt7d9jkRqDhBe1DUCCU", "scope": "GOOGLE", "types": ["doctor", "health", "point_of_interest", "establishment"], "user_ratings_total": 1, "vicinity": "GT Road, Barakar"}, {"business_status": "OPERATIONAL", "geometry": {"location": {"lat": 23.734429, "lng": 86.816414}, "viewport": {"northeast": {"lat": 23.7358320802915, "lng": 86.81775718029151}, "southwest": {"lat": 23.73313411970849, "lng": 86.81505921970849}}}, "icon": "https://maps.gstatic.com/mapfiles/place_api/icons/v1/png_71/generic_business-71.png", "name": "Barakatuhu Poly Clinic", "opening_hours": {"open_now": true}, "place_id": "ChIJL_yll4fd9jkRW3etx6u6c1E", "plus_code": {"compound_code": "PRM8+QH Barakar, West Bengal, India", "global_code": "7MM8PRM8+QH"}, "reference": "ChIJL_yll4fd9jkRW3etx6u6c1E", "scope": "GOOGLE", "types": ["doctor", "health", "point_of_interest", "establishment"], "vicinity": "Barakar"}, {"business_status": "OPERATIONAL", "geometry": {"location": {"lat": 23.7319603, "lng": 86.814649}, "viewport": {"northeast": {"lat": 23.7333173802915, "lng": 86.8160439802915}, "southwest": {"lat": 23.7306194197085, "lng": 86.81334601970849}}}, "icon": "https://maps.gstatic.com/mapfiles/place_api/icons/v1/png_71/generic_business-71.png", "name": "Dr TN Chatterjee MBBS MD General Medicine (GOLD MEDALIST)", "opening_hours": {"open_now": false}, "photos": [{"height": 539, "html_attributions": ["<a href=\"https://maps.google.com/maps/contrib/110106301502059459834\">Dr TN Chatterjee MBBS MD General Medicine (GOLD MEDALIST)</a>"], "photo_reference": "ATtYBwI56HIYaIQSC8Sad1235mYuwJSWI_t72fiaFOHz8NGblz2bxi5AMu1DibVe-9CRCeezlw7gsQ5heTHarE93u6TCkoFBSI2pb_rNGKFZmMCyaa_DcDXSJ1eO9sD-uOH90N7i1TdwVJr_PlWytNeim2J9xVRn0phCoGAWqrRv8TY14Liz", "width": 960}], "place_id": "ChIJl2J8EJjd9jkRivbHcocs_Q8", "plus_code": {"compound_code": "PRJ7+QV Barakar, West Bengal, India", "global_code": "7MM8PRJ7+QV"}, "rating": 4.9, "reference": "ChIJl2J8EJjd9jkRivbHcocs_Q8", "scope": "GOOGLE", "types": ["doctor", "health", "point_of_interest", "establishment"], "user_ratings_total": 14, "vicinity": "Dishergarh Road, Kumorpara, Begunia, Barakar"}, {"business_status": "OPERATIONAL", "geometry": {"location": {"lat": 23.735178, "lng": 86.81925249999999}, "viewport": {"northeast": {"lat": 23.7365269802915, "lng": 86.8206014802915}, "southwest": {"lat": 23.73382901970849, "lng": 86.81790351970848}}}, "icon": "https://maps.gstatic.com/mapfiles/place_api/icons/v1/png_71/hospital-71.png", "name": "Mihijam Clinic", "opening_hours": {"open_now": true}, "photos": [{"height": 1073, "html_attributions": ["<a href=\"https://maps.google.com/maps/contrib/104365760895423794843\">Mihijam Clinic</a>"], "photo_reference": "ATtYBwIlxPv5RYkC7i7hdBXhBXs-tW5KmxnpDnXDo6T8X2GlCqNCa6d_HhkGcjNU_4pgerWhAypN7iNpBbH9sH-EsJX4zNXvJjd9WDGNp1Rvc6dhL6xb3vft4RDZ9n-BIDVcvXp_jQ1esaeckviGBScNSEtEdCZIZ58aMRTPMhuwCTJ893OI", "width": 1280}], "place_id": "ChIJAQA88v7d9jkR7jS65I51a-c", "plus_code": {"compound_code": "PRP9+3P Barakar, West Bengal, India", "global_code": "7MM8PRP9+3P"}, "rating": 5, "reference": "ChIJAQA88v7d9jkR7jS65I51a-c", "scope": "GOOGLE", "types": ["hospital", "doctor", "health", "point_of_interest", "establishment"], "user_ratings_total": 3, "vicinity": "Near Mini Bus Stand, Barakar"}, {"business_status": "OPERATIONAL", "geometry": {"location": {"lat": 23.7346594, "lng": 86.8194122}, "viewport": {"northeast": {"lat": 23.7360803802915, "lng": 86.8207548302915}, "southwest": {"lat": 23.7333824197085, "lng": 86.8180568697085}}}, "icon": "https://maps.gstatic.com/mapfiles/place_api/icons/v1/png_71/generic_business-71.png", "name": "Dr Rahul Goel", "opening_hours": {"open_now": true}, "photos": [{"height": 9248, "html_attributions": ["<a href=\"https://maps.google.com/maps/contrib/108583212107801784934\">Avishek Acharya</a>"], "photo_reference": "ATtYBwLEK4CuVH3ffbrKUf6-fBfWFxQpQvXGnpGypXts0kD4kOXkMQjUHw8M2VeKV6A2Ck71euQLWp0X7HX46lXBkSWyh5JOaS1RJNpWErlJVUIpHiHL3NWRmcUvTHmmu9ze0-eoRzUO9mMlIaVez9bcTr-Wv0TnC1U8tAyBXeP6v3ZZ2nWl", "width": 6936}], "place_id": "ChIJPRhLnzHd9jkR5PtepSwyaZs", "plus_code": {"compound_code": "PRM9+VQ Barakar, West Bengal, India", "global_code": "7MM8PRM9+VQ"}, "rating": 2.7, "reference": "ChIJPRhLnzHd9jkR5PtepSwyaZs", "scope": "GOOGLE", "types": ["doctor", "health", "point_of_interest", "establishment"], "user_ratings_total": 3, "vicinity": "beside unitech diagnostic centre, opp. bus stand, GT Road, Barakar"}, {"business_status": "OPERATIONAL", "geometry": {"location": {"lat": 23.7346574, "lng": 86.819419}, "viewport": {"northeast": {"lat": 23.7360796302915, "lng": 86.82076148029151}, "southwest": {"lat": 23.7333816697085, "lng": 86.81806351970849}}}, "icon": "https://maps.gstatic.com/mapfiles/place_api/icons/v1/png_71/generic_business-71.png", "name": "Dr Sunil Kumar neurologist.", "opening_hours": {"open_now": true}, "photos": [{"height": 451, "html_attributions": ["<a href=\"https://maps.google.com/maps/contrib/111786353554927004825\">Dr Sunil Kumar neurologist.</a>"], "photo_reference": "ATtYBwLSCmaTxlZQJIl25zDKDWFWxnvNoLNf27LNGjB6MqjEquLU99wZOLCBzMosnLo4CO3YqFGM7C75gJXoaK-_Y3b11HgWT_qYBOfG5J5Rl4HQgdQCyvqtJPuV_aeqZugB_IC8WEjOIZ07poHUWd6jrParO3D5C_EuPggrLh5rbaTUQKWR", "width": 800}], "place_id": "ChIJucVm4qzd9jkR_zEyyPtvE5o", "plus_code": {"compound_code": "PRM9+VQ Barakar, West Bengal, India", "global_code": "7MM8PRM9+VQ"}, "rating": 3, "reference": "ChIJucVm4qzd9jkR_zEyyPtvE5o", "scope": "GOOGLE", "types": ["doctor", "health", "point_of_interest", "establishment"], "user_ratings_total": 2, "vicinity": "GT Road, Barakar"}, {"business_status": "OPERATIONAL", "geometry": {"location": {"lat": 23.7307146, "lng": 86.81514460000001}, "viewport": {"northeast": {"lat": 23.7320559802915, "lng": 86.81645668029151}, "southwest": {"lat": 23.7293580197085, "lng": 86.8137587197085}}}, "icon": "https://maps.gstatic.com/mapfiles/place_api/icons/v1/png_71/generic_business-71.png", "name": "Dr.P.K.Pati (CHILD SPECIALIST )", "opening_hours": {"open_now": false}, "place_id": "ChIJbYL99Pjd9jkR6_VSgwoeG-o", "plus_code": {"compound_code": "PRJ8+73 Barakar, West Bengal, India", "global_code": "7MM8PRJ8+73"}, "rating": 2.7, "reference": "ChIJbYL99Pjd9jkR6_VSgwoeG-o", "scope": "GOOGLE", "types": ["doctor", "health", "point_of_interest", "establishment"], "user_ratings_total": 16, "vicinity": "Dishergarh Road, Barakar"}, {"business_status": "OPERATIONAL", "geometry": {"location": {"lat": 23.7431629, "lng": 86.82155019999999}, "viewport": {"northeast": {"lat": 23.7445213802915, "lng": 86.82293273029151}, "southwest": {"lat": 23.7418234197085, "lng": 86.82023476970849}}}, "icon": "https://maps.gstatic.com/mapfiles/place_api/icons/v1/png_71/generic_business-71.png", "name": "dr.ajaytiwariclinic", "photos": [{"height": 1080, "html_attributions": ["<a href=\"https://maps.google.com/maps/contrib/114605736206427889233\">dr.ajaytiwariclinic</a>"], "photo_reference": "ATtYBwJGkzrMJJfRV-GRlb-02In3Ejsw0LYf111pkiYyxo9KKsZsY_HQBSW25wr-NuVS0vFanNZvF4OMYnWYpmmNpQ6h9iuft5lGJIwQ4Eop4KCP3b0RzW8nMWDtoZiuLs8ASdLv6d08vDvRUHHJXNB_lm4PMGe89YBvF8qwtQkscL_te437", "width": 1080}], "place_id": "ChIJ7a7T0yzd9jkRRY4rvgTXQig", "plus_code": {"compound_code": "PRVC+7J Barakar, West Bengal, India", "global_code": "7MM8PRVC+7J"}, "reference": "ChIJ7a7T0yzd9jkRRY4rvgTXQig", "scope": "GOOGLE", "types": ["doctor", "health", "point_of_interest", "establishment"], "vicinity": "Dr.ajaytiwari sukantopally road manberia post.barakar, Barakar"}, {"business_status": "OPERATIONAL", "geometry": {"location": {"lat": 23.7350033, "lng": 86.79916089999999}, "viewport": {"northeast": {"lat": 23.7364257302915, "lng": 86.80042293029149}, "southwest": {"lat": 23.7337277697085, "lng": 86.79772496970848}}}, "icon": "https://maps.gstatic.com/mapfiles/place_api/icons/v1/png_71/generic_business-71.png", "name": "Physio care physiotherapy clinic", "opening_hours": {"open_now": false}, "photos": [{"height": 1836, "html_attributions": ["<a href=\"https://maps.google.com/maps/contrib/109135253438263934418\">Rabin Mondal</a>"], "photo_reference": "ATtYBwIzfpxTBvxcKLEXUojcUH1Pp7ciPeMBJeySCoZIAyy63ZDJPe3_ak1LIg6tpyIbWYSpaxI3t-zY3W3FQZqVQ0ckGCJNwhp--ZL1Z3NQPYqaOIokpNY_SGMzukXqzBqy87Fp_jIEYLBJrbPNiZeYz-5ill_zo7ta1WlAU9QDns9Ny8qj", "width": 3264}], "place_id": "ChIJtUd64G_d9jkR_P3jGtVwojs", "plus_code": {"compound_code": "PQPX+2M Chirkunda, Jharkhand, India", "global_code": "7MM8PQPX+2M"}, "rating": 5, "reference": "ChIJtUd64G_d9jkR_P3jGtVwojs", "scope": "GOOGLE", "types": ["doctor", "health", "point_of_interest", "establishment"], "user_ratings_total": 2, "vicinity": "Puruliya - Chirkunda Road, Chirkunda"}, {"business_status": "OPERATIONAL", "geometry": {"location": {"lat": 23.734194, "lng": 86.798292}, "viewport": {"northeast": {"lat": 23.7354863302915, "lng": 86.79959458029153}, "southwest": {"lat": 23.7327883697085, "lng": 86.7968966197085}}}, "icon": "https://maps.gstatic.com/mapfiles/place_api/icons/v1/png_71/generic_business-71.png", "name": "Dr. Rajendra Prasad Gyan Deep Vidalia", "opening_hours": {"open_now": false}, "place_id": "ChIJH9z3uIvd9jkRhlj_DujHIZA", "plus_code": {"compound_code": "PQMX+M8 Chirkunda, Jharkhand, India", "global_code": "7MM8PQMX+M8"}, "reference": "ChIJH9z3uIvd9jkRhlj_DujHIZA", "scope": "GOOGLE", "types": ["doctor", "health", "point_of_interest", "establishment"], "vicinity": "Vivekanand, Dhanbad, SH-5, Barakar Road, Dhanbad, Dhanbad"}, {"business_status": "OPERATIONAL", "geometry": {"location": {"lat": 23.7348899, "lng": 86.8225962}, "viewport": {"northeast": {"lat": 23.7362700302915, "lng": 86.82395028029151}, "southwest": {"lat": 23.7335720697085, "lng": 86.8212523197085}}}, "icon": "https://maps.gstatic.com/mapfiles/place_api/icons/v1/png_71/generic_business-71.png", "name": "Shiva medical", "place_id": "ChIJuXbvthXf9jkR10wC3756i0g", "plus_code": {"compound_code": "PRMF+X2 Barakar, West Bengal, India", "global_code": "7MM8PRMF+X2"}, "reference": "ChIJuXbvthXf9jkR10wC3756i0g", "scope": "GOOGLE", "types": ["doctor", "health", "point_of_interest", "establishment"], "vicinity": "Shiv Mandir Road, Barakar"}], "status": "OK"}