{"html_attributions": [], "results": [{"business_status": "OPERATIONAL", "geometry": {"location": {"lat": 23.784996, "lng": 86.42063209999999}, "viewport": {"northeast": {"lat": 23.7864065802915, "lng": 86.4218093802915}, "southwest": {"lat": 23.7837086197085, "lng": 86.41911141970849}}}, "icon": "https://maps.gstatic.com/mapfiles/place_api/icons/v1/png_71/generic_business-71.png", "name": "Dr B.N.Hazra", "place_id": "ChIJHUxuWjOj9jkRn_1Xlb0rQJ0", "plus_code": {"compound_code": "QCMC+X7 Dhanbad, Jharkhand, India", "global_code": "7MM8QCMC+X7"}, "rating": 3.3, "reference": "ChIJHUxuWjOj9jkRn_1Xlb0rQJ0", "scope": "GOOGLE", "types": ["doctor", "health", "point_of_interest", "establishment"], "user_ratings_total": 6, "vicinity": "0148, RC Hazra Memorial Hospital, 13, Telephone Exchange Road, Bank More, Dhanbad"}, {"business_status": "OPERATIONAL", "geometry": {"location": {"lat": 23.7852725, "lng": 86.4205018}, "viewport": {"northeast": {"lat": 23.7866472802915, "lng": 86.42179208029151}, "southwest": {"lat": 23.7839493197085, "lng": 86.41909411970849}}}, "icon": "https://maps.gstatic.com/mapfiles/place_api/icons/v1/png_71/generic_business-71.png", "name": "Dr. Samir Hazra & Dr. (Mrs.) Saroja Hazra", "place_id": "ChIJ5RiaGXK99jkRfZscTeeWCB0", "plus_code": {"compound_code": "QCPC+46 Dhanbad, Jharkhand, India", "global_code": "7MM8QCPC+46"}, "reference": "ChIJ5RiaGXK99jkRfZscTeeWCB0", "scope": "GOOGLE", "types": ["doctor", "health", "point_of_interest", "establishment"], "vicinity": "Hospital for Women, First Floor, Telephone Exchange Road, Dhanbad"}, {"business_status": "OPERATIONAL", "geometry": {"location": {"lat": 23.7880936, "lng": 86.418098}, "viewport": {"northeast": {"lat": 23.7894873802915, "lng": 86.4194596302915}, "southwest": {"lat": 23.7867894197085, "lng": 86.41676166970849}}}, "icon": "https://maps.gstatic.com/mapfiles/place_api/icons/v1/png_71/generic_business-71.png", "name": "Eye Care", "opening_hours": {"open_now": false}, "photos": [{"height": 1040, "html_attributions": ["<a href=\"https://maps.google.com/maps/contrib/106457452433807246710\">Arun Sinha</a>"], "photo_reference": "ATtYBwKyklOf5j_KzEVGEnMkuPHSH9-2LODBgzdc2q25uVLE1NxYAc_7ZgSBTxtjdPC893y79OCKQZDFkDty1ktbrgXsKqGZ2ebU9M8AnMe5kc9dfR6LZvjQNm6oYfgIjOHQDscBLFhQX3HPSEc1MtVshmsAn-4COxUU_HKaPCWyxgU1pCZU", "width": 585}], "place_id": "ChIJV1VVpTSj9jkRKOj2nslSZ8k", "plus_code": {"compound_code": "QCQ9+66 Dhanbad, Jharkhand, India", "global_code": "7MM8QCQ9+66"}, "rating": 3.7, "reference": "ChIJV1VVpTSj9jkRKOj2nslSZ8k", "scope": "GOOGLE", "types": ["doctor", "health", "point_of_interest", "establishment"], "user_ratings_total": 3, "vicinity": "Verma mansion, 1st floor, Bank More, Dhanbad"}, {"business_status": "OPERATIONAL", "geometry": {"location": {"lat": 23.7837591, "lng": 86.4213268}, "viewport": {"northeast": {"lat": 23.7851984302915, "lng": 86.4225943802915}, "southwest": {"lat": 23.7825004697085, "lng": 86.4198964197085}}}, "icon": "https://maps.gstatic.com/mapfiles/place_api/icons/v1/png_71/generic_business-71.png", "name": "Rheumatologist in dhanbad Dr Abhra Chowdhury", "place_id": "ChIJvyIJaPu99jkRhBchqzvgdyU", "plus_code": {"compound_code": "QCMC+GG Dhanbad, Jharkhand, India", "global_code": "7MM8QCMC+GG"}, "reference": "ChIJvyIJaPu99jkRhBchqzvgdyU", "scope": "GOOGLE", "types": ["doctor", "health", "point_of_interest", "establishment"], "vicinity": "opposite Chota Gurudwara Patliputra nursing home, Joraphatak Road, opposite Chota Gurudwara Patliputra nursing home"}, {"business_status": "OPERATIONAL", "geometry": {"location": {"lat": 23.7856386, "lng": 86.42036689999999}, "viewport": {"northeast": {"lat": 23.7869549302915, "lng": 86.4217900802915}, "southwest": {"lat": 23.7842569697085, "lng": 86.41909211970848}}}, "icon": "https://maps.gstatic.com/mapfiles/place_api/icons/v1/png_71/generic_business-71.png", "name": "Maa Viratra Laboratory", "opening_hours": {"open_now": true}, "place_id": "ChIJQ5OchBa99jkRGh-TDxIcS7I", "plus_code": {"compound_code": "QCPC+74 Dhanbad, Jharkhand, India", "global_code": "7MM8QCPC+74"}, "rating": 5, "reference": "ChIJQ5OchBa99jkRGh-TDxIcS7I", "scope": "GOOGLE", "types": ["doctor", "health", "point_of_interest", "establishment"], "user_ratings_total": 1, "vicinity": "Opp: hazra hospital, Sneh Milan, Telephone Exchange Road, Dhanbad"}, {"business_status": "OPERATIONAL", "geometry": {"location": {"lat": 23.7841781, "lng": 86.42177799999999}, "viewport": {"northeast": {"lat": 23.7854748802915, "lng": 86.4232131302915}, "southwest": {"lat": 23.7827769197085, "lng": 86.4205151697085}}}, "icon": "https://maps.gstatic.com/mapfiles/place_api/icons/v1/png_71/generic_business-71.png", "name": "SMILE CARE DENTAL CLINIC", "opening_hours": {"open_now": true}, "photos": [{"height": 281, "html_attributions": ["<a href=\"https://maps.google.com/maps/contrib/116478322315641262322\">SMILE CARE DENTAL CLINIC</a>"], "photo_reference": "ATtYBwKJ7-1ne7TDzR2xSDkli_wU8iJJYegkoZzZAkavmoogOazfJ9e7Sx2VcERVhslltpot-PXBChxosiJGKUSbyMDs53VVNIBEnOjgfN4UN_1d5ohgiUdTTem7eSVZ_g7a-upvNLqrNMQp6hscpf96YffErUuVwCkp40BYCTn5-a11bE1A", "width": 499}], "place_id": "ChIJ_Vu0vR299jkRiTfj8e3qAnA", "plus_code": {"compound_code": "QCMC+MP Dhanbad, Jharkhand, India", "global_code": "7MM8QCMC+MP"}, "rating": 4.8, "reference": "ChIJ_Vu0vR299jkRiTfj8e3qAnA", "scope": "GOOGLE", "types": ["dentist", "doctor", "health", "point_of_interest", "establishment"], "user_ratings_total": 10, "vicinity": "Shakti Plaza, opposite shakti nursing home, Joraphatak Road, Dhanbad"}, {"business_status": "OPERATIONAL", "geometry": {"location": {"lat": 23.7880833, "lng": 86.41902329999999}, "viewport": {"northeast": {"lat": 23.7895001302915, "lng": 86.4203475802915}, "southwest": {"lat": 23.7868021697085, "lng": 86.4176496197085}}}, "icon": "https://maps.gstatic.com/mapfiles/place_api/icons/v1/png_71/shopping-71.png", "name": "Ayurved Aushdhi", "opening_hours": {"open_now": true}, "photos": [{"height": 534, "html_attributions": ["<a href=\"https://maps.google.com/maps/contrib/109132148283176024863\">Ayurved Aushdhi</a>"], "photo_reference": "ATtYBwLqp6t_oF931daI6mtY0JrhAxvQSi9Lkj85JZey1abbE77jPgZF7IvVtGpgNL4Uq5VcegO-Jv3balVyr-B7b7otRd6RhzscrdYzIFTp1UxdkoQWlWFXZAyC_whnN4p-OH240t8_APbnzmQeKwh44m4aqqaCR7uBhUsKWFX4Qpkc-Pde", "width": 745}], "place_id": "ChIJlaD5Ucu89jkRXVVSxkBBwwQ", "plus_code": {"compound_code": "QCQ9+6J Dhanbad, Jharkhand, India", "global_code": "7MM8QCQ9+6J"}, "rating": 4.6, "reference": "ChIJlaD5Ucu89jkRXVVSxkBBwwQ", "scope": "GOOGLE", "types": ["doctor", "health", "point_of_interest", "store", "establishment"], "user_ratings_total": 9, "vicinity": "police station, near Bank more, Bank More, Dhanbad"}, {"business_status": "OPERATIONAL", "geometry": {"location": {"lat": 23.7916168, "lng": 86.40987179999999}, "viewport": {"northeast": {"lat": 23.7929647802915, "lng": 86.4112114802915}, "southwest": {"lat": 23.7902668197085, "lng": 86.40851351970849}}}, "icon": "https://maps.gstatic.com/mapfiles/place_api/icons/v1/png_71/generic_business-71.png", "name": "Suyash clinic", "photos": [{"height": 1536, "html_attributions": ["<a href=\"https://maps.google.com/maps/contrib/105851283172303988079\">S. Tripathi</a>"], "photo_reference": "ATtYBwL8lxcwoGOhsSLMlUvcbHqv4XpKVvps0nz2JmBQpgzaRxYGOdgRYd5URiR0C8fmtg_KLijpu8DTXTaqUmrL4nXBTjHm8F0ONqKTvS2wbhxufVXpCG3zmnwyl_-awne4z6Q0w5jbCnVav-Um8G1ADgoXuVIsZU4lIbdeu7ygK4UuOdE", "width": 1886}], "place_id": "ChIJ_X0pTzGj9jkRWci1G83g1zM", "plus_code": {"compound_code": "QCR5+JW Matkuria, Jharkhand, India", "global_code": "7MM8QCR5+JW"}, "rating": 4, "reference": "ChIJ_X0pTzGj9jkRWci1G83g1zM", "scope": "GOOGLE", "types": ["doctor", "health", "point_of_interest", "establishment"], "user_ratings_total": 1, "vicinity": "Matkuria"}, {"business_status": "OPERATIONAL", "geometry": {"location": {"lat": 23.7848763, "lng": 86.42251999999999}, "viewport": {"northeast": {"lat": 23.7861976802915, "lng": 86.4239045802915}, "southwest": {"lat": 23.7834997197085, "lng": 86.42120661970849}}}, "icon": "https://maps.gstatic.com/mapfiles/place_api/icons/v1/png_71/generic_business-71.png", "name": "Vishwakarma Patholgy Labs", "opening_hours": {"open_now": true}, "place_id": "ChIJ_5T4LSS99jkRdctDdYBBrjo", "plus_code": {"compound_code": "QCMF+X2 Dhanbad, Jharkhand, India", "global_code": "7MM8QCMF+X2"}, "rating": 5, "reference": "ChIJ_5T4LSS99jkRdctDdYBBrjo", "scope": "GOOGLE", "types": ["doctor", "health", "point_of_interest", "establishment"], "user_ratings_total": 1, "vicinity": "Purana Bazar Main Road, Gandhi Nagar, Dhanbad"}, {"business_status": "OPERATIONAL", "geometry": {"location": {"lat": 23.7884453, "lng": 86.4203119}, "viewport": {"northeast": {"lat": 23.7898459302915, "lng": 86.42166283029151}, "southwest": {"lat": 23.78714796970849, "lng": 86.4189648697085}}}, "icon": "https://maps.gstatic.com/mapfiles/place_api/icons/v1/png_71/generic_business-71.png", "name": "Dr P K Chatterjee Eye Clinic", "photos": [{"height": 4608, "html_attributions": ["<a href=\"https://maps.google.com/maps/contrib/114549000912241195034\">Sanjeev Pandit</a>"], "photo_reference": "ATtYBwLCX4FfSnGlkNt4SRMoPLqMlN-FO6J9W9kShuZ5ExdI8dS8MBccAgGYcER-7yY9p_WfvD1gs91_wMuy9TZBMBYpQrxDqPoxj-jdBJW__8FKI8V-JwCwiOEwDppEk_zsjpdYOd89B8Q938PKB6NbFjOyhNy0GAjIhYV3udbid17mnL6D", "width": 2112}], "place_id": "ChIJP4xpacu89jkRDx5APBQfYQs", "plus_code": {"compound_code": "QCQC+94 Dhanbad, Jharkhand, India", "global_code": "7MM8QCQC+94"}, "rating": 3, "reference": "ChIJP4xpacu89jkRDx5APBQfYQs", "scope": "GOOGLE", "types": ["doctor", "health", "point_of_interest", "establishment"], "user_ratings_total": 18, "vicinity": "Bank More, Dhanbad"}], "status": "OK"}