{"html_attributions": [], "results": [{"business_status": "OPERATIONAL", "geometry": {"location": {"lat": 23.6336854, "lng": 86.1185402}, "viewport": {"northeast": {"lat": 23.6350773302915, "lng": 86.1199005802915}, "southwest": {"lat": 23.6323793697085, "lng": 86.1172026197085}}}, "icon": "https://maps.gstatic.com/mapfiles/place_api/icons/v1/png_71/bank-71.png", "icon_background_color": "#909CE1", "icon_mask_base_uri": "https://maps.gstatic.com/mapfiles/place_api/icons/v2/bank-intl_pinlet", "name": "State Bank Of India", "opening_hours": {"open_now": false}, "photos": [{"height": 3468, "html_attributions": ["<a href=\"https://maps.google.com/maps/contrib/106794078141211363953\">DULAL GORAIN</a>"], "photo_reference": "Aap_uECBl_Zkp8ZV_D9ZQLqguKcRfouxvHCw2TRwmnzoK6gm9QtUvq8FaJhohf1_dFHKNbWBpISJJLI4YHDN1EjBjggVw9lsRqA4_7EHGj_NHOA9wnWSHgjaxs_GfYarPP_OYdBaQf_AUnkG32-E_ZTsk8ljugf8ieefW5nQWDMaKl6IL0e2", "width": 4624}], "place_id": "ChIJP5N8z2gj9DkR8UED5USVtC8", "rating": 4.1, "reference": "ChIJP5N8z2gj9DkR8UED5USVtC8", "scope": "GOOGLE", "types": ["bank", "finance", "point_of_interest", "establishment"], "user_ratings_total": 19, "vicinity": "J4M9+FCF, Bari Co-operative Colony, Siwandih, Bokaro Steel City"}, {"business_status": "OPERATIONAL", "geometry": {"location": {"lat": 23.6409307, "lng": 86.1015755}, "viewport": {"northeast": {"lat": 23.6423046302915, "lng": 86.10292783029149}, "southwest": {"lat": 23.6396066697085, "lng": 86.10022986970849}}}, "icon": "https://maps.gstatic.com/mapfiles/place_api/icons/v1/png_71/bank-71.png", "icon_background_color": "#909CE1", "icon_mask_base_uri": "https://maps.gstatic.com/mapfiles/place_api/icons/v2/bank-intl_pinlet", "name": "Bank Of India", "opening_hours": {"open_now": false}, "photos": [{"height": 4192, "html_attributions": ["<a href=\"https://maps.google.com/maps/contrib/115342892610397379519\">DeeeFreak</a>"], "photo_reference": "Aap_uEDjyIUNxc_3RCqoJGfqHGNAkNN6gBJK89OmZsI8gO-zJ232_548E2NqGTv_3RugdWgbXbqIa9fBzlbHv2P7y1whY5o06W0u6bqbV7BmqglrsBbdYxpIUZYnjPM0fR3eCGD6DreKpjdXQjnopVtRDEYBJi1wRzk0sejpJZEkdwx-FKQg", "width": 3104}], "place_id": "ChIJr2aUTUgj9DkR3bQMNngD_1A", "rating": 3.2, "reference": "ChIJr2aUTUgj9DkR3bQMNngD_1A", "scope": "GOOGLE", "types": ["bank", "finance", "point_of_interest", "establishment"], "user_ratings_total": 13, "vicinity": "J4R2+9JG, Dumro, Siwandih, Bokaro Steel City"}, {"business_status": "OPERATIONAL", "geometry": {"location": {"lat": 23.6381299, "lng": 86.1068814}, "viewport": {"northeast": {"lat": 23.6395468802915, "lng": 86.10818233029151}, "southwest": {"lat": 23.63684891970849, "lng": 86.1054843697085}}}, "icon": "https://maps.gstatic.com/mapfiles/place_api/icons/v1/png_71/bank-71.png", "icon_background_color": "#909CE1", "icon_mask_base_uri": "https://maps.gstatic.com/mapfiles/place_api/icons/v2/bank-intl_pinlet", "name": "CANARA BANK - JHALDA", "photos": [{"height": 4160, "html_attributions": ["<a href=\"https://maps.google.com/maps/contrib/105494352805341215652\">CANARA BANK - GENERAL BRANCH</a>"], "photo_reference": "Aap_uEBr24EviDtLc7oFwYqPzIeP-FGDKHtGbZGRgwUGT_vZ2IlfQzILkbB1YWqewgdpthTR145jTQ1Kx2AuRA8lq-k8DnzeR1chpwtZgI-1GJERuGL_642AzxvibfnOoYxea5IvQ-GN6jeperY90u2OQ9XpOrW0PZJ4wz4jTt57wkcUQqD5", "width": 3120}], "place_id": "ChIJHQVJyzgj9DkRe2EddQmZ0LA", "plus_code": {"compound_code": "J4Q4+7Q Bokaro Steel City, Jharkhand, India", "global_code": "7MM8J4Q4+7Q"}, "reference": "ChIJHQVJyzgj9DkRe2EddQmZ0LA", "scope": "GOOGLE", "types": ["bank", "finance", "point_of_interest", "establishment"], "vicinity": "NAMOPARA JHALDA, Jhalida"}, {"business_status": "OPERATIONAL", "geometry": {"location": {"lat": 23.6410388, "lng": 86.10752579999999}, "viewport": {"northeast": {"lat": 23.6423800302915, "lng": 86.10889668029151}, "southwest": {"lat": 23.6396820697085, "lng": 86.1061987197085}}}, "icon": "https://maps.gstatic.com/mapfiles/place_api/icons/v1/png_71/bank-71.png", "icon_background_color": "#909CE1", "icon_mask_base_uri": "https://maps.gstatic.com/mapfiles/place_api/icons/v2/bank-intl_pinlet", "name": "CANARA BANK - SMALL & MEDIUM ENTERPRISE BRANCH", "photos": [{"height": 2048, "html_attributions": ["<a href=\"https://maps.google.com/maps/contrib/108184550482530745392\">CANARA BANK - SMALL &amp; MEDIUM ENTERPRISE BRANCH</a>"], "photo_reference": "Aap_uECODpZ6inHyIeAg3sQnmS8-9oJ3DUM5hH5392bj02qqn0cRaBfvQEKkUG3EeJ2ZGYnDUtuOfZpi4l1cKyXP0aA2DtvWe2fKAooX8kVqDxAn2QJiwnkOiZWCkG4b-m7jEybsSFP1k9hVmbLDOP9fLlJG5a5RxhxW-dAR7wLR2nqNVOZj", "width": 1953}], "place_id": "ChIJt3O2AEAj9DkREuHAvqAqreM", "plus_code": {"compound_code": "J4R5+C2 Bokaro Steel City, Jharkhand, India", "global_code": "7MM8J4R5+C2"}, "reference": "ChIJt3O2AEAj9DkREuHAvqAqreM", "scope": "GOOGLE", "types": ["bank", "finance", "point_of_interest", "establishment"], "vicinity": "Siwandih, Bokaro Steel City"}, {"business_status": "OPERATIONAL", "geometry": {"location": {"lat": 23.641036, "lng": 86.10771199999999}, "viewport": {"northeast": {"lat": 23.6423483302915, "lng": 86.1090594302915}, "southwest": {"lat": 23.6396503697085, "lng": 86.10636146970849}}}, "icon": "https://maps.gstatic.com/mapfiles/place_api/icons/v1/png_71/bank-71.png", "icon_background_color": "#909CE1", "icon_mask_base_uri": "https://maps.gstatic.com/mapfiles/place_api/icons/v2/bank-intl_pinlet", "name": "\u0915\u0948\u0928\u0930\u093e \u092c\u0948\u0902\u0915/Canara Bank", "opening_hours": {"open_now": true}, "photos": [{"height": 3000, "html_attributions": ["<a href=\"https://maps.google.com/maps/contrib/111184727607511146213\">saiyad dilnawaz</a>"], "photo_reference": "Aap_uEBaWipeYmpVN0UREj3H7RRdV48sFXxdoOxU20I5_-Lk91KiUYqJQNhkDZfoTvP1CL81Uxl5hsn0wvixOAYHbhccBLetyice4uub3UP4MEfWFNURwbDcO0qwgHVnSkVtcpyudaXXvAvRHG0p0r6wREc64gPPhmgdwq9NwT70w25HNETi", "width": 4000}], "place_id": "ChIJHbv7F0cj9DkRQgb_b3MIqTg", "rating": 3.3, "reference": "ChIJHbv7F0cj9DkRQgb_b3MIqTg", "scope": "GOOGLE", "types": ["bank", "finance", "point_of_interest", "establishment"], "user_ratings_total": 3, "vicinity": "J4R5+C38, Siwandih, Bokaro Steel City"}], "status": "OK"}