{"html_attributions": [], "results": [{"business_status": "OPERATIONAL", "geometry": {"location": {"lat": 23.7491375, "lng": 86.15362640000001}, "viewport": {"northeast": {"lat": 23.7504991302915, "lng": 86.15499078029151}, "southwest": {"lat": 23.7478011697085, "lng": 86.15229281970849}}}, "icon": "https://maps.gstatic.com/mapfiles/place_api/icons/v1/png_71/bank-71.png", "icon_background_color": "#909CE1", "icon_mask_base_uri": "https://maps.gstatic.com/mapfiles/place_api/icons/v2/bank-intl_pinlet", "name": "State Bank of India", "opening_hours": {"open_now": false}, "photos": [{"height": 2448, "html_attributions": ["<a href=\"https://maps.google.com/maps/contrib/100192505343742959790\">sanuj choudhary</a>"], "photo_reference": "Aap_uEBQaI8pyUnig_HcI_jUF0Q65H_tdiMFxy3udKZcW2sph3lFHlS5CJQZ98tRUVHm1r8cHpFLO-d629syZ7AN3_dD9voQt8TuKUTaSH1qYM5AfGzmlccNWmMr-c-yG-IaBuIG7_28HamG4Dtw9pUa4KUVIpm4Q9OsKBgUkrrn_aLKz6J-", "width": 3264}], "place_id": "ChIJRZgXOOgY9DkROkKiTeyFq9E", "rating": 2.8, "reference": "ChIJRZgXOOgY9DkROkKiTeyFq9E", "scope": "GOOGLE", "types": ["bank", "finance", "point_of_interest", "establishment"], "user_ratings_total": 18, "vicinity": "P5X3+MF2, Dugda"}, {"business_status": "OPERATIONAL", "geometry": {"location": {"lat": 23.7489276, "lng": 86.1562374}, "viewport": {"northeast": {"lat": 23.7503547302915, "lng": 86.1574965802915}, "southwest": {"lat": 23.7476567697085, "lng": 86.15479861970849}}}, "icon": "https://maps.gstatic.com/mapfiles/place_api/icons/v1/png_71/bank-71.png", "icon_background_color": "#909CE1", "icon_mask_base_uri": "https://maps.gstatic.com/mapfiles/place_api/icons/v2/bank-intl_pinlet", "name": "Dugda Pacs Ltd", "opening_hours": {"open_now": true}, "place_id": "ChIJb2kgXegY9DkRtJYMndcLPmw", "plus_code": {"compound_code": "P5X4+HF Dugda, Jharkhand, India", "global_code": "7MM8P5X4+HF"}, "rating": 1, "reference": "ChIJb2kgXegY9DkRtJYMndcLPmw", "scope": "GOOGLE", "types": ["bank", "finance", "point_of_interest", "establishment"], "user_ratings_total": 1, "vicinity": "F-62 Mandir Colony Dugda Market, Dugda"}, {"business_status": "OPERATIONAL", "geometry": {"location": {"lat": 23.7484182, "lng": 86.1556277}, "viewport": {"northeast": {"lat": 23.74968388029151, "lng": 86.1569785302915}, "southwest": {"lat": 23.7469859197085, "lng": 86.15428056970849}}}, "icon": "https://maps.gstatic.com/mapfiles/place_api/icons/v1/png_71/bank-71.png", "icon_background_color": "#909CE1", "icon_mask_base_uri": "https://maps.gstatic.com/mapfiles/place_api/icons/v2/bank-intl_pinlet", "name": "Gramin Bank Dugda", "place_id": "ChIJWWbTicIY9DkR_9CTLLgfThI", "rating": 1, "reference": "ChIJWWbTicIY9DkR_9CTLLgfThI", "scope": "GOOGLE", "types": ["bank", "finance", "point_of_interest", "establishment"], "user_ratings_total": 2, "vicinity": "P5X4+976, Dugda"}, {"business_status": "OPERATIONAL", "geometry": {"location": {"lat": 23.7483099, "lng": 86.1522827}, "viewport": {"northeast": {"lat": 23.7496860302915, "lng": 86.1536366302915}, "southwest": {"lat": 23.7469880697085, "lng": 86.1509386697085}}}, "icon": "https://maps.gstatic.com/mapfiles/place_api/icons/v1/png_71/bank-71.png", "icon_background_color": "#909CE1", "icon_mask_base_uri": "https://maps.gstatic.com/mapfiles/place_api/icons/v2/bank-intl_pinlet", "name": "Bank of India", "place_id": "ChIJq6qqqukY9DkRdnVq-TpCQB8", "rating": 2, "reference": "ChIJq6qqqukY9DkRdnVq-TpCQB8", "scope": "GOOGLE", "types": ["bank", "finance", "point_of_interest", "establishment"], "user_ratings_total": 1, "vicinity": "Bharat Coking Coal Ltd. Dugda Market At & Post Dugda Coal Washery DUGDA COAL WASHERY Jharkhand"}], "status": "OK"}