{"html_attributions": [], "results": [{"business_status": "OPERATIONAL", "geometry": {"location": {"lat": 23.5899258, "lng": 85.6740676}, "viewport": {"northeast": {"lat": 23.5913024302915, "lng": 85.6754511302915}, "southwest": {"lat": 23.5886044697085, "lng": 85.67275316970849}}}, "icon": "https://maps.gstatic.com/mapfiles/place_api/icons/v1/png_71/bank-71.png", "icon_background_color": "#909CE1", "icon_mask_base_uri": "https://maps.gstatic.com/mapfiles/place_api/icons/v2/bank-intl_pinlet", "name": "Punjab National Bank", "opening_hours": {"open_now": true}, "photos": [{"height": 4160, "html_attributions": ["<a href=\"https://maps.google.com/maps/contrib/112486876962431034848\">ARUN KUMAR MURMU</a>"], "photo_reference": "Aap_uEDKvahEqQRNcmhBnVh4VafK-QennfP4Nm80DKRP6hFmqt9qYq_Mqehb5IsPIdDbrIAoGpLidtOcYtzUqcysm2TXCnX9exIKzteY2xUFItevQAi3HoKUkEadqKKNC7R1FegS2L31YvR9l-V9n3EMA8o3oiQ7QxBFhadW-o0Jt7r_tco9", "width": 3120}], "place_id": "ChIJTeCoVUNZ9DkRtWu6HKuNw1o", "rating": 3.3, "reference": "ChIJTeCoVUNZ9DkRtWu6HKuNw1o", "scope": "GOOGLE", "types": ["bank", "finance", "point_of_interest", "establishment"], "user_ratings_total": 9, "vicinity": "HMQF+XJG, Rajrappa Project, Sewai"}, {"business_status": "OPERATIONAL", "geometry": {"location": {"lat": 23.5901017, "lng": 85.676513}, "viewport": {"northeast": {"lat": 23.5914354302915, "lng": 85.67785173029151}, "southwest": {"lat": 23.5887374697085, "lng": 85.67515376970849}}}, "icon": "https://maps.gstatic.com/mapfiles/place_api/icons/v1/png_71/bank-71.png", "icon_background_color": "#909CE1", "icon_mask_base_uri": "https://maps.gstatic.com/mapfiles/place_api/icons/v2/bank-intl_pinlet", "name": "Bank of India", "opening_hours": {"open_now": true}, "photos": [{"height": 4160, "html_attributions": ["<a href=\"https://maps.google.com/maps/contrib/112486876962431034848\">ARUN KUMAR MURMU</a>"], "photo_reference": "Aap_uECFv7jE3KPGk1QME8qCC7N-0_LfG6HQIQAYFEwB2a_AIMe76NyzsrTxav_bsjgcVKBXiY7kYvwqfIQsyiMoofuCIaOThuxtNge5IzeyWhIKjc7aAvDP7QrTqiZcQJJNmJy1bVuVbceqnj0GEscss8sUjoJQQviOyE_yjzJwri_Hg4uT", "width": 3120}], "place_id": "ChIJTe26hFxZ9DkRGRXU-AgRvNM", "rating": 3.8, "reference": "ChIJTe26hFxZ9DkRGRXU-AgRvNM", "scope": "GOOGLE", "types": ["bank", "finance", "point_of_interest", "establishment"], "user_ratings_total": 11, "vicinity": "HMRG+2JR, Rajrappa Project, Sewai"}, {"business_status": "OPERATIONAL", "geometry": {"location": {"lat": 23.5906037, "lng": 85.67676759999999}, "viewport": {"northeast": {"lat": 23.5919582802915, "lng": 85.6781041802915}, "southwest": {"lat": 23.58926031970849, "lng": 85.67540621970848}}}, "icon": "https://maps.gstatic.com/mapfiles/place_api/icons/v1/png_71/bank-71.png", "icon_background_color": "#909CE1", "icon_mask_base_uri": "https://maps.gstatic.com/mapfiles/place_api/icons/v2/bank-intl_pinlet", "name": "Co-operative Bank", "opening_hours": {"open_now": true}, "place_id": "ChIJA-w6f1tZ9DkRuoNvVtxV4Bc", "rating": 4.8, "reference": "ChIJA-w6f1tZ9DkRuoNvVtxV4Bc", "scope": "GOOGLE", "types": ["bank", "atm", "finance", "point_of_interest", "establishment"], "user_ratings_total": 5, "vicinity": "HMRG+6PR, Rajrappa Project, Sewai"}, {"business_status": "OPERATIONAL", "geometry": {"location": {"lat": 23.589128, "lng": 85.6761212}, "viewport": {"northeast": {"lat": 23.5904605302915, "lng": 85.67751013029151}, "southwest": {"lat": 23.5877625697085, "lng": 85.6748121697085}}}, "icon": "https://maps.gstatic.com/mapfiles/place_api/icons/v1/png_71/bank-71.png", "icon_background_color": "#909CE1", "icon_mask_base_uri": "https://maps.gstatic.com/mapfiles/place_api/icons/v2/bank-intl_pinlet", "name": "State Bank of India", "opening_hours": {"open_now": true}, "photos": [{"height": 4000, "html_attributions": ["<a href=\"https://maps.google.com/maps/contrib/103151325999438731255\">Binita S</a>"], "photo_reference": "Aap_uEA3-mYuBz29x5w-_HFwaQoCLFklYYbbZXQy4sqeZtJV8gOJS9P8-sLEffQGuW-BQwYgcBYJmfYobwrI-BzzvdvsO2NnOB3mBDb-BSxB7hTIwY41DPiYWQp5iPUoEMZqqGaEK2xowJJ6w4T4vFjVivlCfjiRSxPuynXvhWxKzQsNIKHE", "width": 1844}], "place_id": "ChIJd8glklxZ9DkRHCBN4B52JsE", "rating": 4, "reference": "ChIJd8glklxZ9DkRHCBN4B52JsE", "scope": "GOOGLE", "types": ["bank", "finance", "point_of_interest", "establishment"], "user_ratings_total": 2, "vicinity": "HMQG+MC5, Rajrappa Project, Sewai"}], "status": "OK"}