{"html_attributions": [], "results": [{"business_status": "OPERATIONAL", "geometry": {"location": {"lat": 23.7552646, "lng": 86.3086737}, "viewport": {"northeast": {"lat": 23.7568012302915, "lng": 86.31040848029151}, "southwest": {"lat": 23.7541032697085, "lng": 86.30771051970851}}}, "icon": "https://maps.gstatic.com/mapfiles/place_api/icons/v1/png_71/bank-71.png", "icon_background_color": "#909CE1", "icon_mask_base_uri": "https://maps.gstatic.com/mapfiles/place_api/icons/v2/bank-intl_pinlet", "name": "CANARA BANK - KAPURIA MORE", "photos": [{"height": 1912, "html_attributions": ["<a href=\"https://maps.google.com/maps/contrib/105905990594095400601\">CANARA BANK - GENERAL BRANCH</a>"], "photo_reference": "Aap_uEBqTUnCjBa7tvpiV_ObLWHQyD-s2r0yufk0rqvzjpKB98mgnrECEKGFgmaFt-jFKjbB_0M0EmDRI5A6hVi2sT8rvk4AaXy2IEPMTFdsawhfKOGY1XSUlwE9TlhxaQaiKAzpaItXL8Gm8Jmrxu6tG1st_s7C8dohIeFJ6FSc2BRdw9VF", "width": 2048}], "place_id": "ChIJkRt6UzOh9jkR6d300pDcp1E", "plus_code": {"compound_code": "Q845+4F Kapuria, Jharkhand, India", "global_code": "7MM8Q845+4F"}, "rating": 5, "reference": "ChIJkRt6UzOh9jkR6d300pDcp1E", "scope": "GOOGLE", "types": ["bank", "finance", "point_of_interest", "establishment"], "user_ratings_total": 1, "vicinity": "P.O. BELATAND, MORE, Kapuria"}, {"business_status": "OPERATIONAL", "geometry": {"location": {"lat": 23.7570993, "lng": 86.3120319}, "viewport": {"northeast": {"lat": 23.7585479802915, "lng": 86.3134302302915}, "southwest": {"lat": 23.7558500197085, "lng": 86.31073226970848}}}, "icon": "https://maps.gstatic.com/mapfiles/place_api/icons/v1/png_71/bank-71.png", "icon_background_color": "#909CE1", "icon_mask_base_uri": "https://maps.gstatic.com/mapfiles/place_api/icons/v2/bank-intl_pinlet", "name": "Airtel Payment Bank", "opening_hours": {"open_now": true}, "place_id": "ChIJBevoiSCh9jkRVKK6T8kKqhQ", "plus_code": {"compound_code": "Q846+RR Kapuria, Jharkhand, India", "global_code": "7MM8Q846+RR"}, "reference": "ChIJBevoiSCh9jkRVKK6T8kKqhQ", "scope": "GOOGLE", "types": ["bank", "finance", "point_of_interest", "establishment"], "vicinity": "More, Kapuria"}, {"business_status": "OPERATIONAL", "geometry": {"location": {"lat": 23.7572024, "lng": 86.312158}, "viewport": {"northeast": {"lat": 23.7585866302915, "lng": 86.31352443029151}, "southwest": {"lat": 23.7558886697085, "lng": 86.3108264697085}}}, "icon": "https://maps.gstatic.com/mapfiles/place_api/icons/v1/png_71/bank-71.png", "icon_background_color": "#909CE1", "icon_mask_base_uri": "https://maps.gstatic.com/mapfiles/place_api/icons/v2/bank-intl_pinlet", "name": "Canara Bank", "opening_hours": {"open_now": true}, "place_id": "ChIJyVtVnKSh9jkRB571VdbJiK8", "plus_code": {"compound_code": "Q846+VV Dhanbad, Jharkhand, India", "global_code": "7MM8Q846+VV"}, "rating": 3.8, "reference": "ChIJyVtVnKSh9jkRB571VdbJiK8", "scope": "GOOGLE", "types": ["bank", "finance", "point_of_interest", "establishment"], "user_ratings_total": 8, "vicinity": "Kapuria More, Dhanbad"}], "status": "OK"}