{"html_attributions": [], "results": [{"business_status": "OPERATIONAL", "geometry": {"location": {"lat": 23.8729814, "lng": 86.3354839}, "viewport": {"northeast": {"lat": 23.8744468302915, "lng": 86.3368695302915}, "southwest": {"lat": 23.8717488697085, "lng": 86.33417156970849}}}, "icon": "https://maps.gstatic.com/mapfiles/place_api/icons/v1/png_71/bank-71.png", "icon_background_color": "#909CE1", "icon_mask_base_uri": "https://maps.gstatic.com/mapfiles/place_api/icons/v2/bank-intl_pinlet", "name": "State Bank of India", "opening_hours": {"open_now": false}, "photos": [{"height": 2340, "html_attributions": ["<a href=\"https://maps.google.com/maps/contrib/103744285095445086712\">Bishwas Munshi</a>"], "photo_reference": "Aap_uEBqJCRQxRhjk-qh1QdK8_3OWnJxS3poGaEsltGaKmEa7FcMUccFKtO_bwHCl2Vq04_ItcxFjqaeZiDgHqEY80ybyVpSDbuY6nN7QOdamejzHZqYVA9J5YphVR4BfjIPDZGapOw1KOoz5fzQ1A9ZR-Eroau9EqKn46pzb0J_z07o8IJn", "width": 4160}], "place_id": "ChIJYTfSN3im9jkRU3NgQBwIQZA", "plus_code": {"compound_code": "V8FP+55 Rajganj, Jharkhand, India", "global_code": "7MM8V8FP+55"}, "rating": 3, "reference": "ChIJYTfSN3im9jkRU3NgQBwIQZA", "scope": "GOOGLE", "types": ["bank", "finance", "point_of_interest", "establishment"], "user_ratings_total": 11, "vicinity": "187, National Highway 2, Rajganj"}, {"business_status": "OPERATIONAL", "geometry": {"location": {"lat": 23.8732905, "lng": 86.33632449999999}, "viewport": {"northeast": {"lat": 23.8745503302915, "lng": 86.3376450302915}, "southwest": {"lat": 23.8718523697085, "lng": 86.33494706970849}}}, "icon": "https://maps.gstatic.com/mapfiles/place_api/icons/v1/png_71/bank-71.png", "icon_background_color": "#909CE1", "icon_mask_base_uri": "https://maps.gstatic.com/mapfiles/place_api/icons/v2/bank-intl_pinlet", "name": "Bank of India", "opening_hours": {"open_now": true}, "photos": [{"height": 2340, "html_attributions": ["<a href=\"https://maps.google.com/maps/contrib/103744285095445086712\">Bishwas Munshi</a>"], "photo_reference": "Aap_uEA0LLyx7lZ-IkEE1btG-3P9zRLApEkj9xC8Q9IpjDLVqydi-oYy_fZSCyAi1rZyhu76odmaTPNDk65m8aiuYIHFSbQuTkl-Zwsc3nH9arJFKJG_xHlHslebndGkmCE2qfP7brwdlYdDTGO8niHbXf7yhA1PpuTzx5CdsSVF5V0zgB1v", "width": 4160}], "place_id": "ChIJsTPSP3im9jkRuWxgykYmjYI", "plus_code": {"compound_code": "V8FP+8G Dhanbad, Jharkhand, India", "global_code": "7MM8V8FP+8G"}, "rating": 3.7, "reference": "ChIJsTPSP3im9jkRuWxgykYmjYI", "scope": "GOOGLE", "types": ["bank", "finance", "point_of_interest", "establishment"], "user_ratings_total": 9, "vicinity": "Grand Trunk Road, Dhanbad"}, {"business_status": "OPERATIONAL", "geometry": {"location": {"lat": 23.8660314, "lng": 86.331364}, "viewport": {"northeast": {"lat": 23.8673409802915, "lng": 86.33275173029149}, "southwest": {"lat": 23.8646430197085, "lng": 86.33005376970848}}}, "icon": "https://maps.gstatic.com/mapfiles/place_api/icons/v1/png_71/bank-71.png", "icon_background_color": "#909CE1", "icon_mask_base_uri": "https://maps.gstatic.com/mapfiles/place_api/icons/v2/bank-intl_pinlet", "name": "Bank Of India, Dhawachita", "place_id": "ChIJnWEvNnym9jkRGlsDwXs1620", "rating": 5, "reference": "ChIJnWEvNnym9jkRGlsDwXs1620", "scope": "GOOGLE", "types": ["bank", "finance", "point_of_interest", "establishment"], "user_ratings_total": 1, "vicinity": "V88J+CG9, Dhawachita"}, {"business_status": "OPERATIONAL", "geometry": {"location": {"lat": 23.8729372, "lng": 86.33549909999999}, "viewport": {"northeast": {"lat": 23.8744211802915, "lng": 86.33689058029151}, "southwest": {"lat": 23.87172321970849, "lng": 86.33419261970849}}}, "icon": "https://maps.gstatic.com/mapfiles/place_api/icons/v1/png_71/bank-71.png", "icon_background_color": "#909CE1", "icon_mask_base_uri": "https://maps.gstatic.com/mapfiles/place_api/icons/v2/bank-intl_pinlet", "name": "Sahara india Rajganj Branch", "opening_hours": {"open_now": true}, "place_id": "ChIJlXuSSXim9jkR2wbO9k9_AvU", "reference": "ChIJlXuSSXim9jkR2wbO9k9_AvU", "scope": "GOOGLE", "types": ["bank", "finance", "point_of_interest", "establishment"], "vicinity": "V8FP+55H, Rajganj"}], "status": "OK"}