{"html_attributions": [], "results": [{"business_status": "OPERATIONAL", "geometry": {"location": {"lat": 23.7596988, "lng": 86.3619054}, "viewport": {"northeast": {"lat": 23.7610801302915, "lng": 86.3632046302915}, "southwest": {"lat": 23.7583821697085, "lng": 86.3605066697085}}}, "icon": "https://maps.gstatic.com/mapfiles/place_api/icons/v1/png_71/bank-71.png", "icon_background_color": "#909CE1", "icon_mask_base_uri": "https://maps.gstatic.com/mapfiles/place_api/icons/v2/bank-intl_pinlet", "name": "State Bank of India - Balhari Branch", "opening_hours": {"open_now": true}, "place_id": "ChIJRbZmIUmi9jkRgUSIaJTjfS4", "plus_code": {"compound_code": "Q956+VQ Dhanbad, Jharkhand, India", "global_code": "7MM8Q956+VQ"}, "rating": 3.1, "reference": "ChIJRbZmIUmi9jkRgUSIaJTjfS4", "scope": "GOOGLE", "types": ["atm", "bank", "finance", "point_of_interest", "establishment"], "user_ratings_total": 14, "vicinity": "Jet Hostel, Putki Balihari Area, Aralgaria Road, Loyabad, Dhanbad"}, {"business_status": "OPERATIONAL", "geometry": {"location": {"lat": 23.7640696, "lng": 86.36180159999999}, "viewport": {"northeast": {"lat": 23.7654781802915, "lng": 86.36311363029151}, "southwest": {"lat": 23.7627802197085, "lng": 86.36041566970849}}}, "icon": "https://maps.gstatic.com/mapfiles/place_api/icons/v1/png_71/bank-71.png", "icon_background_color": "#909CE1", "icon_mask_base_uri": "https://maps.gstatic.com/mapfiles/place_api/icons/v2/bank-intl_pinlet", "name": "Sbi Csp ATM FACILITY", "opening_hours": {"open_now": true}, "photos": [{"height": 4128, "html_attributions": ["<a href=\"https://maps.google.com/maps/contrib/118437597618698480781\">Sbi Csp ATM FACILITY</a>"], "photo_reference": "Aap_uEA84EFDUrvlYd1BZkVH7LBz8dX-RkTyeEjlHxqDueiU2VndfwK0gx9ZreVLERuo3kla08zk5UNTmTQjEyZ6jSwzZL2rXWHwEA9-uznlo89xtQba5vJFJmmtz5prZQ9NKGjFaivBDEq9SwrO5NPk2zO118JffS2kNDRNAdQ2AqoBwFlW", "width": 1908}], "place_id": "ChIJ_yvD65mj9jkRVy0Ddk4GBxw", "plus_code": {"compound_code": "Q976+JP Putki, Sialgudri, Jharkhand, India", "global_code": "7MM8Q976+JP"}, "rating": 5, "reference": "ChIJ_yvD65mj9jkRVy0Ddk4GBxw", "scope": "GOOGLE", "types": ["bank", "finance", "point_of_interest", "establishment"], "user_ratings_total": 2, "vicinity": "PUTKI 2 NO PULL, Putki"}, {"business_status": "OPERATIONAL", "geometry": {"location": {"lat": 23.764145, "lng": 86.3613112}, "viewport": {"northeast": {"lat": 23.76542248029151, "lng": 86.3627626802915}, "southwest": {"lat": 23.7627245197085, "lng": 86.36006471970849}}}, "icon": "https://maps.gstatic.com/mapfiles/place_api/icons/v1/png_71/bank-71.png", "icon_background_color": "#909CE1", "icon_mask_base_uri": "https://maps.gstatic.com/mapfiles/place_api/icons/v2/bank-intl_pinlet", "name": "BANK OF INDIA MINI BRANCH", "opening_hours": {"open_now": true}, "photos": [{"height": 1932, "html_attributions": ["<a href=\"https://maps.google.com/maps/contrib/113065729051020443782\">SANJAY KUMAR</a>"], "photo_reference": "Aap_uEAAltzK7tw5-dzaHgHpKAPP8om9Hl0ea4F-MF_c1O0znn5GS6_qs0i8aWueIw-b6W6JT2yck42D0FtL07z7HUst-9EuojV-IYwU_F3kKQVtYR9YW7FmfEZdSj8XgFVHREeJL9Y0b6EbNPOW4ftr9tPTeG5i4qd3kPBy4RqrglURJohS", "width": 2576}], "place_id": "ChIJwcLRu0ui9jkRc2848IXi9jY", "rating": 4.3, "reference": "ChIJwcLRu0ui9jkRc2848IXi9jY", "scope": "GOOGLE", "types": ["bank", "finance", "point_of_interest", "establishment"], "user_ratings_total": 3, "vicinity": "Q976+MG3, Chhotaputki"}, {"business_status": "OPERATIONAL", "geometry": {"location": {"lat": 23.762772, "lng": 86.359357}, "viewport": {"northeast": {"lat": 23.7641194302915, "lng": 86.3607119802915}, "southwest": {"lat": 23.7614214697085, "lng": 86.35801401970849}}}, "icon": "https://maps.gstatic.com/mapfiles/place_api/icons/v1/png_71/atm-71.png", "icon_background_color": "#909CE1", "icon_mask_base_uri": "https://maps.gstatic.com/mapfiles/place_api/icons/v2/atm_pinlet", "name": "HDFC Bank ATM", "opening_hours": {"open_now": true}, "place_id": "ChIJ0wdWIkqi9jkRQSasp4d7OGM", "plus_code": {"compound_code": "Q975+4P Dhanbad, Jharkhand, India", "global_code": "7MM8Q975+4P"}, "rating": 4.3, "reference": "ChIJ0wdWIkqi9jkRQSasp4d7OGM", "scope": "GOOGLE", "types": ["atm", "bank", "finance", "point_of_interest", "establishment"], "user_ratings_total": 3, "vicinity": "HDFC Bank ATM, WN 9, PN 69, Putki Chowk, Dhanbad"}, {"business_status": "OPERATIONAL", "geometry": {"location": {"lat": 23.7749229, "lng": 86.3730229}, "viewport": {"northeast": {"lat": 23.7762301302915, "lng": 86.37441883029149}, "southwest": {"lat": 23.7735321697085, "lng": 86.37172086970848}}}, "icon": "https://maps.gstatic.com/mapfiles/place_api/icons/v1/png_71/bank-71.png", "icon_background_color": "#909CE1", "icon_mask_base_uri": "https://maps.gstatic.com/mapfiles/place_api/icons/v2/bank-intl_pinlet", "name": "Bank Of India", "opening_hours": {"open_now": false}, "place_id": "ChIJkyf0rK6j9jkRbaTyoU2HIAY", "plus_code": {"compound_code": "Q9FF+X6 Dhanbad, Jharkhand, India", "global_code": "7MM8Q9FF+X6"}, "rating": 3.3, "reference": "ChIJkyf0rK6j9jkRbaTyoU2HIAY", "scope": "GOOGLE", "types": ["bank", "finance", "point_of_interest", "establishment"], "user_ratings_total": 4, "vicinity": "Kirkend Branch, Katras Road, Dhanbad"}, {"business_status": "OPERATIONAL", "geometry": {"location": {"lat": 23.7747696, "lng": 86.37338849999999}, "viewport": {"northeast": {"lat": 23.7761818802915, "lng": 86.3747763802915}, "southwest": {"lat": 23.7734839197085, "lng": 86.37207841970849}}}, "icon": "https://maps.gstatic.com/mapfiles/place_api/icons/v1/png_71/bank-71.png", "icon_background_color": "#909CE1", "icon_mask_base_uri": "https://maps.gstatic.com/mapfiles/place_api/icons/v2/bank-intl_pinlet", "name": "State Bank of India", "opening_hours": {"open_now": false}, "photos": [{"height": 4160, "html_attributions": ["<a href=\"https://maps.google.com/maps/contrib/102076369658226641677\">Rahul Kumar</a>"], "photo_reference": "Aap_uEBi0qhepViSythahGkVcGdiPuBHaDh3UROk5qg_1DSyE7UbuF4fZPWQDnZZzy5fqRoLHT7YSYbFBofhYf_3La459TIjVuLm8TvYHAouf4X53MhGpbmbSN_2nzLmk7ZxUcqjrrAkCXu9Qw-15rUftqScEzOrVJnrjzlOWfFmF50Kf70x", "width": 3120}], "place_id": "ChIJczpzVKmj9jkRPOxg36n3j84", "plus_code": {"compound_code": "Q9FF+W9 Dhanbad, Jharkhand, India", "global_code": "7MM8Q9FF+W9"}, "rating": 4, "reference": "ChIJczpzVKmj9jkRPOxg36n3j84", "scope": "GOOGLE", "types": ["bank", "finance", "point_of_interest", "establishment"], "user_ratings_total": 5, "vicinity": "Karkend Chowk, Dhanbad"}, {"business_status": "OPERATIONAL", "geometry": {"location": {"lat": 23.7751482, "lng": 86.3733097}, "viewport": {"northeast": {"lat": 23.7764521802915, "lng": 86.3746083802915}, "southwest": {"lat": 23.7737542197085, "lng": 86.3719104197085}}}, "icon": "https://maps.gstatic.com/mapfiles/place_api/icons/v1/png_71/bank-71.png", "icon_background_color": "#909CE1", "icon_mask_base_uri": "https://maps.gstatic.com/mapfiles/place_api/icons/v2/bank-intl_pinlet", "name": "Punjab & Sind Bank", "opening_hours": {"open_now": false}, "place_id": "ChIJ1ysJUqmj9jkRaKjDfnGvLf0", "plus_code": {"compound_code": "Q9GF+38 Dhanbad, Jharkhand, India", "global_code": "7MM8Q9GF+38"}, "reference": "ChIJ1ysJUqmj9jkRaKjDfnGvLf0", "scope": "GOOGLE", "types": ["bank", "finance", "point_of_interest", "establishment"], "vicinity": "Karkend Branch, Dhanbad"}, {"business_status": "OPERATIONAL", "geometry": {"location": {"lat": 23.7758735, "lng": 86.3726214}, "viewport": {"northeast": {"lat": 23.7771961302915, "lng": 86.3739248302915}, "southwest": {"lat": 23.7744981697085, "lng": 86.3712268697085}}}, "icon": "https://maps.gstatic.com/mapfiles/place_api/icons/v1/png_71/bank-71.png", "icon_background_color": "#909CE1", "icon_mask_base_uri": "https://maps.gstatic.com/mapfiles/place_api/icons/v2/bank-intl_pinlet", "name": "The Koylanchal Urban Co.Operative Bank Ltd", "opening_hours": {"open_now": false}, "place_id": "ChIJ6VfZt66j9jkRphsUzwG0C9g", "plus_code": {"compound_code": "Q9GF+82 Chhatatanr, Jharkhand, India", "global_code": "7MM8Q9GF+82"}, "rating": 4, "reference": "ChIJ6VfZt66j9jkRphsUzwG0C9g", "scope": "GOOGLE", "types": ["bank", "finance", "point_of_interest", "establishment"], "user_ratings_total": 3, "vicinity": "Bazar, Karkend"}, {"business_status": "OPERATIONAL", "geometry": {"location": {"lat": 23.7622163, "lng": 86.35920399999999}, "viewport": {"northeast": {"lat": 23.76357813029151, "lng": 86.3605202802915}, "southwest": {"lat": 23.7608801697085, "lng": 86.35782231970849}}}, "icon": "https://maps.gstatic.com/mapfiles/place_api/icons/v1/png_71/atm-71.png", "icon_background_color": "#909CE1", "icon_mask_base_uri": "https://maps.gstatic.com/mapfiles/place_api/icons/v2/atm_pinlet", "name": "HDFC Bank ATM", "opening_hours": {"open_now": true}, "place_id": "ChIJ8ff7Gpmj9jkRdih_QP1LGkE", "plus_code": {"compound_code": "Q965+VM Dhanbad, Jharkhand, India", "global_code": "7MM8Q965+VM"}, "reference": "ChIJ8ff7Gpmj9jkRdih_QP1LGkE", "scope": "GOOGLE", "types": ["atm", "bank", "finance", "point_of_interest", "establishment"], "vicinity": "Bazar, Ground Floor Putki, Dhanbad"}, {"business_status": "OPERATIONAL", "geometry": {"location": {"lat": 23.7746297, "lng": 86.375145}, "viewport": {"northeast": {"lat": 23.77604348029151, "lng": 86.37649343029152}, "southwest": {"lat": 23.77334551970851, "lng": 86.3737954697085}}}, "icon": "https://maps.gstatic.com/mapfiles/place_api/icons/v1/png_71/bank-71.png", "icon_background_color": "#909CE1", "icon_mask_base_uri": "https://maps.gstatic.com/mapfiles/place_api/icons/v2/bank-intl_pinlet", "name": "Allahabad Bank", "opening_hours": {"open_now": false}, "photos": [{"height": 3264, "html_attributions": ["<a href=\"https://maps.google.com/maps/contrib/112900072681872123778\">Sooraj kr Paswan</a>"], "photo_reference": "Aap_uEAYJlhw8uOnJUd3kgczWuCrYB7FPqErvVo3HVKfWOQqWPnAAG8hY5Lvq9d5ZbLVGFqdmHAFlFowYba8EKKU1mjVNwTXMA-bgwXocwQsWiLe_fjI6MTue31CWPqkQsBxTtpkEMlIJkiY16Fez8aCFqxM9tnU57JLNq6KUUJ_aBoSfO2B", "width": 1836}], "place_id": "ChIJqzoZfamj9jkRMvWvF_fDHpg", "plus_code": {"compound_code": "Q9FG+V3 Dhanbad, Jharkhand, India", "global_code": "7MM8Q9FG+V3"}, "rating": 3.5, "reference": "ChIJqzoZfamj9jkRMvWvF_fDHpg", "scope": "GOOGLE", "types": ["bank", "finance", "point_of_interest", "establishment"], "user_ratings_total": 4, "vicinity": "Karkend Bazar, Dhanbad"}, {"business_status": "OPERATIONAL", "geometry": {"location": {"lat": 23.7608326, "lng": 86.3582863}, "viewport": {"northeast": {"lat": 23.76224508029151, "lng": 86.35956588029151}, "southwest": {"lat": 23.7595471197085, "lng": 86.3568679197085}}}, "icon": "https://maps.gstatic.com/mapfiles/place_api/icons/v1/png_71/bank-71.png", "icon_background_color": "#909CE1", "icon_mask_base_uri": "https://maps.gstatic.com/mapfiles/place_api/icons/v2/bank-intl_pinlet", "name": "Bank Of India", "opening_hours": {"open_now": true}, "photos": [{"height": 3936, "html_attributions": ["<a href=\"https://maps.google.com/maps/contrib/113978839025774842615\">Rehan Alam</a>"], "photo_reference": "Aap_uEBh_cznzyNEq-jO1BfB7UypXx-5LmVC83jhvTHjvcSxU9-g46cpaWYnfKr56ssDoWk7BoV8RyqsAPQD8PDm0bJRnlAPK3F8FAKUAufDYQWdNaoL4SIXuM5bp1vn2uO5JYiyEZqp6KCzkYvrdTrQ26TDulbBN-gzojO6eV6woXKh2ADB", "width": 1728}], "place_id": "ChIJK-Mx50mi9jkRRniZ22JmhXQ", "plus_code": {"compound_code": "Q965+88 Dhanbad, Jharkhand, India", "global_code": "7MM8Q965+88"}, "rating": 4.4, "reference": "ChIJK-Mx50mi9jkRRniZ22JmhXQ", "scope": "GOOGLE", "types": ["bank", "finance", "point_of_interest", "establishment"], "user_ratings_total": 10, "vicinity": "Putki Bazar, Dhanbad"}, {"business_status": "OPERATIONAL", "geometry": {"location": {"lat": 23.7774535, "lng": 86.3756867}, "viewport": {"northeast": {"lat": 23.7792929302915, "lng": 86.3775078302915}, "southwest": {"lat": 23.7765949697085, "lng": 86.3748098697085}}}, "icon": "https://maps.gstatic.com/mapfiles/place_api/icons/v1/png_71/bank-71.png", "icon_background_color": "#909CE1", "icon_mask_base_uri": "https://maps.gstatic.com/mapfiles/place_api/icons/v2/bank-intl_pinlet", "name": "Bank of India", "place_id": "ChIJAQAAAKmj9jkRoMwAL2-n0C0", "rating": 5, "reference": "ChIJAQAAAKmj9jkRoMwAL2-n0C0", "scope": "GOOGLE", "types": ["bank", "finance", "point_of_interest", "establishment"], "user_ratings_total": 1, "vicinity": "P.O, Putki Road, Putki, Kusunda"}], "status": "OK"}