{"html_attributions": [], "next_page_token": "Aap_uED4zP0k91-3dRU9WeUicDPUxYhfn24E0kaY-e8UmlHhky_z7nZ6_AP0BOH-ljVDPpG9_E9h_FZzB--cbRlk58tNv4dHjvgaH27Wh6VnIBXYkCtyAc7Q5hcihzsVQoP22WAf18LSbicyPVjANeOfDZbXzFALgvhCqO-hTaSLir0uI0-WjpbgUJzwRhhhsWkV9AjVcCWX201Fum-gflYrEwtj2adHjH9-gvrM6D8ZoMKFcFQ4HRu6UbLRRFT-hGWcxeK5QesgNiucMPApVRD8TfAK404sVej0psK6VB24q1fcA1obm6p2p6EHNrp3F_bJvx8W1grycTGlI75JHTn2dGSNWHRBM6KO1h8-9YjQZo9GAtjRZhKo-Od5Txw7beJz9zLKNkEBSOh_MdBgL7ZbclzLGiRATYZ3p9fzmwjFN8kfj6Zb", "results": [{"business_status": "OPERATIONAL", "geometry": {"location": {"lat": 23.79126369999999, "lng": 86.4096034}, "viewport": {"northeast": {"lat": 23.7927182302915, "lng": 86.41096503029149}, "southwest": {"lat": 23.79002026970849, "lng": 86.40826706970849}}}, "icon": "https://maps.gstatic.com/mapfiles/place_api/icons/v1/png_71/generic_business-71.png", "icon_background_color": "#7B9EB0", "icon_mask_base_uri": "https://maps.gstatic.com/mapfiles/place_api/icons/v2/generic_pinlet", "name": "State Bank of India - Customer Service Point", "opening_hours": {"open_now": true}, "place_id": "ChIJAXTM4jmj9jkRFh1YvC81ti0", "plus_code": {"compound_code": "QCR5+GR Matkuria, Jharkhand, India", "global_code": "7MM8QCR5+GR"}, "rating": 4.4, "reference": "ChIJAXTM4jmj9jkRFh1YvC81ti0", "scope": "GOOGLE", "types": ["bank", "finance", "point_of_interest", "establishment"], "user_ratings_total": 5, "vicinity": "Bank of India, Katras Road, Matkuria"}, {"business_status": "OPERATIONAL", "geometry": {"location": {"lat": 23.7887692, "lng": 86.4150968}, "viewport": {"northeast": {"lat": 23.7901862302915, "lng": 86.4164557802915}, "southwest": {"lat": 23.7874882697085, "lng": 86.4137578197085}}}, "icon": "https://maps.gstatic.com/mapfiles/place_api/icons/v1/png_71/bank-71.png", "icon_background_color": "#909CE1", "icon_mask_base_uri": "https://maps.gstatic.com/mapfiles/place_api/icons/v2/bank-intl_pinlet", "name": "Indian Overseas Bank - Dhanbad Branch", "place_id": "ChIJGb2SRjSj9jkRQPN-HFXZzMM", "plus_code": {"compound_code": "QCQ8+G2 Dhanbad, Jharkhand, India", "global_code": "7MM8QCQ8+G2"}, "rating": 3, "reference": "ChIJGb2SRjSj9jkRQPN-HFXZzMM", "scope": "GOOGLE", "types": ["atm", "bank", "finance", "point_of_interest", "establishment"], "user_ratings_total": 9, "vicinity": "Katras Road, Bank More, Dhanbad"}, {"business_status": "OPERATIONAL", "geometry": {"location": {"lat": 23.7972071, "lng": 86.41017409999999}, "viewport": {"northeast": {"lat": 23.7985560302915, "lng": 86.4115273802915}, "southwest": {"lat": 23.79585806970849, "lng": 86.4088294197085}}}, "icon": "https://maps.gstatic.com/mapfiles/place_api/icons/v1/png_71/atm-71.png", "icon_background_color": "#909CE1", "icon_mask_base_uri": "https://maps.gstatic.com/mapfiles/place_api/icons/v2/atm_pinlet", "name": "Axis Bank ATM", "opening_hours": {"open_now": true}, "photos": [{"height": 558, "html_attributions": ["<a href=\"https://maps.google.com/maps/contrib/116279644213950588533\">Axis Bank ATM</a>"], "photo_reference": "Aap_uEAL1Er_UIN_VUmJZ51A_5FMxbrtjTmAtkROGIbfIj3220_TmGS4uqvsNs-V8gaJ5cCHNwwv9atcxuOsnlIq4QwmRZjGPfkbwVaJh1rhwu3h2PjVFnjDtlSZCo4kNZpajW6uFKYRN8qG-xVv01KNkJmh6syNrsmTOE26BOironEL2fM", "width": 992}], "place_id": "ChIJs01l07q89jkR2E17NtG8SIU", "plus_code": {"compound_code": "QCW6+V3 Matkuria, Jharkhand, India", "global_code": "7MM8QCW6+V3"}, "rating": 4.3, "reference": "ChIJs01l07q89jkR2E17NtG8SIU", "scope": "GOOGLE", "types": ["atm", "bank", "finance", "point_of_interest", "establishment"], "user_ratings_total": 3, "vicinity": "Plot No 380/383, Kgn Complex, Matkuria"}, {"business_status": "OPERATIONAL", "geometry": {"location": {"lat": 23.793911, "lng": 86.4155723}, "viewport": {"northeast": {"lat": 23.7952163802915, "lng": 86.4168874802915}, "southwest": {"lat": 23.7925184197085, "lng": 86.41418951970849}}}, "icon": "https://maps.gstatic.com/mapfiles/place_api/icons/v1/png_71/bank-71.png", "icon_background_color": "#909CE1", "icon_mask_base_uri": "https://maps.gstatic.com/mapfiles/place_api/icons/v2/bank-intl_pinlet", "name": "State Bank of India", "opening_hours": {"open_now": true}, "photos": [{"height": 960, "html_attributions": ["<a href=\"https://maps.google.com/maps/contrib/102855024897279523212\">koylanchal motors, dhanbad</a>"], "photo_reference": "Aap_uECmdh3pMHH7wz-C6vyHJuXOqQU8ugwqwACFXp1UzikIgFO0dqpLdDfwXTWDgwn_1MTgPEZRbKlmAtZihJP94Ikl9yEXptKpyYkA6I-jOpM5ZfWcG-FvoubOWzRlniDuIg6VU1uWD6Wrjp97NAV_ivAZZ-5M-vyswds1NEkSBuWEBx5_", "width": 720}], "place_id": "ChIJ6zinekqj9jkRA-I2YPXvwWA", "plus_code": {"compound_code": "QCV8+H6 Dhanbad, Jharkhand, India", "global_code": "7MM8QCV8+H6"}, "rating": 3, "reference": "ChIJ6zinekqj9jkRA-I2YPXvwWA", "scope": "GOOGLE", "types": ["bank", "finance", "point_of_interest", "establishment"], "user_ratings_total": 9, "vicinity": "Bhuli Hirak Road, Wassepur, Dhanbad"}, {"business_status": "OPERATIONAL", "geometry": {"location": {"lat": 23.788694, "lng": 86.4171155}, "viewport": {"northeast": {"lat": 23.7899444802915, "lng": 86.4184382302915}, "southwest": {"lat": 23.7872465197085, "lng": 86.41574026970848}}}, "icon": "https://maps.gstatic.com/mapfiles/place_api/icons/v1/png_71/bank-71.png", "icon_background_color": "#909CE1", "icon_mask_base_uri": "https://maps.gstatic.com/mapfiles/place_api/icons/v2/bank-intl_pinlet", "name": "Customer Service Point", "opening_hours": {"open_now": false}, "place_id": "ChIJgcNlkzSj9jkRjGtu36xP_go", "plus_code": {"compound_code": "QCQ8+FR Dhanbad, Jharkhand, India", "global_code": "7MM8QCQ8+FR"}, "rating": 1.5, "reference": "ChIJgcNlkzSj9jkRjGtu36xP_go", "scope": "GOOGLE", "types": ["bank", "finance", "point_of_interest", "establishment"], "user_ratings_total": 2, "vicinity": "Goodwill Properties, Katras Road, Bank More, Dhanbad"}, {"business_status": "OPERATIONAL", "geometry": {"location": {"lat": 23.788665, "lng": 86.417245}, "viewport": {"northeast": {"lat": 23.7899155302915, "lng": 86.4185677302915}, "southwest": {"lat": 23.7872175697085, "lng": 86.4158697697085}}}, "icon": "https://maps.gstatic.com/mapfiles/place_api/icons/v1/png_71/bank-71.png", "icon_background_color": "#909CE1", "icon_mask_base_uri": "https://maps.gstatic.com/mapfiles/place_api/icons/v2/bank-intl_pinlet", "name": "Federal Bank", "opening_hours": {"open_now": true}, "photos": [{"height": 3120, "html_attributions": ["<a href=\"https://maps.google.com/maps/contrib/103465108300038911748\">Gandhi Kumar Shaw</a>"], "photo_reference": "Aap_uECixK3EHkpRMu8Y_g7SkcC3gyqz0VWhSoqmyEwjGmbCWc7sfGCIvq9gr_3K8EpIJRO5JlgYIJMKd5TQobQctiynAzZeZKw83praCdKkB2_HU-yzOzCHNE-QNsUqHvu30GuCoaiIACuz5yZLp6Z21dx9TXn2bxYRn9m63dK1yNJM-y3X", "width": 4160}], "place_id": "ChIJmX09i5Gj9jkRK6px79_GOVg", "plus_code": {"compound_code": "QCQ8+FV Dhanbad, Jharkhand, India", "global_code": "7MM8QCQ8+FV"}, "rating": 4.6, "reference": "ChIJmX09i5Gj9jkRK6px79_GOVg", "scope": "GOOGLE", "types": ["bank", "finance", "point_of_interest", "establishment"], "user_ratings_total": 27, "vicinity": "Goodwill Properties, Ist Floor, Bank More, Dhanbad"}, {"business_status": "OPERATIONAL", "geometry": {"location": {"lat": 23.7879881, "lng": 86.4175444}, "viewport": {"northeast": {"lat": 23.7894908802915, "lng": 86.4189337802915}, "southwest": {"lat": 23.7867929197085, "lng": 86.41623581970849}}}, "icon": "https://maps.gstatic.com/mapfiles/place_api/icons/v1/png_71/bank-71.png", "icon_background_color": "#909CE1", "icon_mask_base_uri": "https://maps.gstatic.com/mapfiles/place_api/icons/v2/bank-intl_pinlet", "name": "State Bank of India", "opening_hours": {"open_now": false}, "photos": [{"height": 4000, "html_attributions": ["<a href=\"https://maps.google.com/maps/contrib/115258360700886141119\">\u2c63\u01a6i\u0365\u0438c\u0363e\u036b K\u0e19m\u0e04\u044f</a>"], "photo_reference": "Aap_uECk4lKEog3JHjoF_lyBlENHDaUrWcTYtk9egyb0LFm8UCvAHK5zqe5mrqg_0QJSDkCPdiT80ygixYo5wfI1eQtBVbIOII-KrOpVmFZ7KCfHm17IcHf4dsWelv8fN8-_oQCTPX8db-x8qWGCyOTOH4u-1GqNAAkUHRph-HPF9O6A0pbr", "width": 3000}], "place_id": "ChIJfWfulDSj9jkRTbz5wtg2kHc", "plus_code": {"compound_code": "QCQ9+52 Dhanbad, Jharkhand, India", "global_code": "7MM8QCQ9+52"}, "rating": 4.3, "reference": "ChIJfWfulDSj9jkRTbz5wtg2kHc", "scope": "GOOGLE", "types": ["bank", "finance", "point_of_interest", "establishment"], "user_ratings_total": 38, "vicinity": "National Highway 32, Katras Road, Bank More, Dhanbad"}, {"business_status": "OPERATIONAL", "geometry": {"location": {"lat": 23.7858219, "lng": 86.4170271}, "viewport": {"northeast": {"lat": 23.7871004802915, "lng": 86.41830818029152}, "southwest": {"lat": 23.7844025197085, "lng": 86.41561021970851}}}, "icon": "https://maps.gstatic.com/mapfiles/place_api/icons/v1/png_71/bank-71.png", "icon_background_color": "#909CE1", "icon_mask_base_uri": "https://maps.gstatic.com/mapfiles/place_api/icons/v2/bank-intl_pinlet", "name": "Andhra Bank", "opening_hours": {"open_now": true}, "photos": [{"height": 960, "html_attributions": ["<a href=\"https://maps.google.com/maps/contrib/101306289675803432117\">Vikash Kumar</a>"], "photo_reference": "Aap_uEAgP9G3KuwOKUOd_3MsE6NANk4Pi4v-APQWAczPGYk-jBPhsaL50qUba1HWquqievegKfMDsJz3gMP0lYesL2sq5VtpsdDvSKevsM9Ck-zLKahJmEuEVGDDzVCd1ZsnswnaOT8UY8ePbfQVk8CqZZAHlkaZ5WdNWYDXY1FbMrphs-65", "width": 1280}], "place_id": "ChIJu18VPjOj9jkRYmWi0AAGnXg", "plus_code": {"compound_code": "QCP8+8R Dhanbad, Jharkhand, India", "global_code": "7MM8QCP8+8R"}, "rating": 4.7, "reference": "ChIJu18VPjOj9jkRYmWi0AAGnXg", "scope": "GOOGLE", "types": ["bank", "finance", "point_of_interest", "establishment"], "user_ratings_total": 6, "vicinity": "First Floor, Ozone Plaza, Bank More, Dhanbad"}, {"business_status": "OPERATIONAL", "geometry": {"location": {"lat": 23.7837853, "lng": 86.4160907}, "viewport": {"northeast": {"lat": 23.7851081302915, "lng": 86.41749378029151}, "southwest": {"lat": 23.7824101697085, "lng": 86.4147958197085}}}, "icon": "https://maps.gstatic.com/mapfiles/place_api/icons/v1/png_71/bank-71.png", "icon_background_color": "#909CE1", "icon_mask_base_uri": "https://maps.gstatic.com/mapfiles/place_api/icons/v2/bank-intl_pinlet", "name": "Oriental Bank Of Commerce", "opening_hours": {"open_now": true}, "place_id": "ChIJPx1NVjKj9jkRE3i9VS7P6ro", "plus_code": {"compound_code": "QCM8+GC Dhanbad, Jharkhand, India", "global_code": "7MM8QCM8+GC"}, "rating": 3, "reference": "ChIJPx1NVjKj9jkRE3i9VS7P6ro", "scope": "GOOGLE", "types": ["bank", "finance", "point_of_interest", "establishment"], "user_ratings_total": 2, "vicinity": "301, Purulia - Dhanbad Road, Ramson Arcade, Bank More, Dhanbad"}, {"business_status": "OPERATIONAL", "geometry": {"location": {"lat": 23.7849895, "lng": 86.4168199}, "viewport": {"northeast": {"lat": 23.7863871802915, "lng": 86.4181865802915}, "southwest": {"lat": 23.7836892197085, "lng": 86.41548861970848}}}, "icon": "https://maps.gstatic.com/mapfiles/place_api/icons/v1/png_71/bank-71.png", "icon_background_color": "#909CE1", "icon_mask_base_uri": "https://maps.gstatic.com/mapfiles/place_api/icons/v2/bank-intl_pinlet", "name": "IndusInd Bank", "opening_hours": {"open_now": true}, "photos": [{"height": 1932, "html_attributions": ["<a href=\"https://maps.google.com/maps/contrib/106717742389905130120\">Hirak Chatterjee</a>"], "photo_reference": "Aap_uEDVkQ6xcmI_iYnrKCU-c-csue1hvK7_ErUcWBoqT0piCBOAD-oc3mahVNg7U67DLdaWVw6UPwHmZIGxr5y8OGSYZiHtkd-hWGrB4vh8-pQXOhi-a9BAs0wWWvE7xGpHFaahBHun9YP7sVx3ayUVNr9HlBK8jSmIiDl8nVDrVNRoSoej", "width": 2576}], "place_id": "ChIJDwtQEDOj9jkRCcO2L6xfJQw", "plus_code": {"compound_code": "QCM8+XP Dhanbad, Jharkhand, India", "global_code": "7MM8QCM8+XP"}, "rating": 2.9, "reference": "ChIJDwtQEDOj9jkRCcO2L6xfJQw", "scope": "GOOGLE", "types": ["bank", "atm", "finance", "point_of_interest", "establishment"], "user_ratings_total": 10, "vicinity": "Shastri Nagar, Dhanbad"}, {"business_status": "OPERATIONAL", "geometry": {"location": {"lat": 23.7825295, "lng": 86.4153369}, "viewport": {"northeast": {"lat": 23.7838495302915, "lng": 86.4167506302915}, "southwest": {"lat": 23.7811515697085, "lng": 86.4140526697085}}}, "icon": "https://maps.gstatic.com/mapfiles/place_api/icons/v1/png_71/atm-71.png", "icon_background_color": "#909CE1", "icon_mask_base_uri": "https://maps.gstatic.com/mapfiles/place_api/icons/v2/atm_pinlet", "name": "YES Bank ATM", "opening_hours": {"open_now": true}, "photos": [{"height": 400, "html_attributions": ["<a href=\"https://maps.google.com/maps/contrib/101327570803732349352\">YES Bank ATM</a>"], "photo_reference": "Aap_uEAq6Siw_8PWu_ON0hY4FGrHrJTGz_J9iQvTP7p9wKsa2xAypE8XQLSeu11XTvTZcbL5zmUdIaG-S0UTNABPzDqWCs-vLvIFBXwES9ecL6CymhZbWVcab6ByFP-lk1nNmb4seyhRRlsLt27EK25m-NpysFJMiFf9fnH8jhfI_PAtf9HV", "width": 400}], "place_id": "ChIJsY8nUzOj9jkRspbairyUuXo", "plus_code": {"compound_code": "QCM8+24 Dhanbad, Jharkhand, India", "global_code": "7MM8QCM8+24"}, "rating": 5, "reference": "ChIJsY8nUzOj9jkRspbairyUuXo", "scope": "GOOGLE", "types": ["atm", "bank", "finance", "point_of_interest", "establishment"], "user_ratings_total": 1, "vicinity": "ISM Lower Ground, Shriram Mall, Bank More, Dhanbad"}, {"business_status": "OPERATIONAL", "geometry": {"location": {"lat": 23.782552, "lng": 86.415399}, "viewport": {"northeast": {"lat": 23.7838810802915, "lng": 86.4167925302915}, "southwest": {"lat": 23.78118311970849, "lng": 86.41409456970848}}}, "icon": "https://maps.gstatic.com/mapfiles/place_api/icons/v1/png_71/bank-71.png", "icon_background_color": "#909CE1", "icon_mask_base_uri": "https://maps.gstatic.com/mapfiles/place_api/icons/v2/bank-intl_pinlet", "name": "YES Bank", "opening_hours": {"open_now": true}, "photos": [{"height": 439, "html_attributions": ["<a href=\"https://maps.google.com/maps/contrib/114781341483612269370\">Ashmita Ray</a>"], "photo_reference": "Aap_uEBmaBjLr1W-iGAUyfIWsL4bAWdFtkpTA9UINM0GKDKsrteJETQu0AfRzptVOpph95mMmAMxju0BJS8qPc5ohPoPjGBuJvF3nWivgdLiMgOSU3B9Jf5n9seD_XGewA8AaOEqmfAg8BP95hIZrN5hia79d1--5OIRI-41U3ARRizCQofw", "width": 720}], "place_id": "ChIJPbAkaTKj9jkRM-Cp3vyAIYo", "plus_code": {"compound_code": "QCM8+25 Dhanbad, Jharkhand, India", "global_code": "7MM8QCM8+25"}, "rating": 4, "reference": "ChIJPbAkaTKj9jkRM-Cp3vyAIYo", "scope": "GOOGLE", "types": ["bank", "finance", "point_of_interest", "establishment"], "user_ratings_total": 8, "vicinity": "No 2, GF, Shri Ram Mall, Bank More, Dhanbad"}, {"business_status": "OPERATIONAL", "geometry": {"location": {"lat": 23.7856082, "lng": 86.4172167}, "viewport": {"northeast": {"lat": 23.7868024802915, "lng": 86.4185609302915}, "southwest": {"lat": 23.7841045197085, "lng": 86.4158629697085}}}, "icon": "https://maps.gstatic.com/mapfiles/place_api/icons/v1/png_71/bank-71.png", "icon_background_color": "#909CE1", "icon_mask_base_uri": "https://maps.gstatic.com/mapfiles/place_api/icons/v2/bank-intl_pinlet", "name": "IDBI Bank", "opening_hours": {"open_now": true}, "photos": [{"height": 2126, "html_attributions": ["<a href=\"https://maps.google.com/maps/contrib/105791234286610903494\">Salman Khan</a>"], "photo_reference": "Aap_uEBvbegx5BwombWt9LlJNzi9N_sxFNsHTbAGsaUojSp_nRlQCExaB5waSrhoDDG1vfOmtYq1lEI5SUTLrsPtgOsU_Bt4tOrYB5ay3g87Tky7pdZ1kj9qw5KbkITyO1J3whDS06bXbXz-lKo79beMOyWXOWv9ZXrStaubvwx1DOVXEQwc", "width": 4608}], "place_id": "ChIJI4_gFzOj9jkR3FXnrslpa5Q", "rating": 3.3, "reference": "ChIJI4_gFzOj9jkR3FXnrslpa5Q", "scope": "GOOGLE", "types": ["bank", "finance", "point_of_interest", "establishment"], "user_ratings_total": 15, "vicinity": "QCP8+6VW, Shastri Nagar, Dhanbad"}, {"business_status": "OPERATIONAL", "geometry": {"location": {"lat": 23.7845275, "lng": 86.4168775}, "viewport": {"northeast": {"lat": 23.78589443029151, "lng": 86.41818548029151}, "southwest": {"lat": 23.7831964697085, "lng": 86.41548751970849}}}, "icon": "https://maps.gstatic.com/mapfiles/place_api/icons/v1/png_71/bank-71.png", "icon_background_color": "#909CE1", "icon_mask_base_uri": "https://maps.gstatic.com/mapfiles/place_api/icons/v2/bank-intl_pinlet", "name": "BOI ZONAL OFFICE", "photos": [{"height": 4000, "html_attributions": ["<a href=\"https://maps.google.com/maps/contrib/111334191511153724758\">vicky kumar</a>"], "photo_reference": "Aap_uEBLk4PoWW1wQnWcqpOEbabXvyOdccEF2g8-1JcKwgaXvviu_VvPdrAxovenXONzrlOQiWoX-fzjrFDtF3BQllHEqSSbQlJ3NNL4O4Efv7UtdwrXAwz8NuOepOA76EuCZXCpJPDNhcmqESr2ddplGB1p2rEaVFPuCvTv761MQhJ_snYY", "width": 2000}], "place_id": "ChIJ0bUnHTOj9jkRA9KC5WUxLd0", "plus_code": {"compound_code": "QCM8+RQ Dhanbad, Jharkhand, India", "global_code": "7MM8QCM8+RQ"}, "rating": 4.3, "reference": "ChIJ0bUnHTOj9jkRA9KC5WUxLd0", "scope": "GOOGLE", "types": ["bank", "finance", "point_of_interest", "establishment"], "user_ratings_total": 7, "vicinity": "301, Purulia - Dhanbad Road, Bank More, Dhanbad"}, {"business_status": "OPERATIONAL", "geometry": {"location": {"lat": 23.78354819999999, "lng": 86.41634379999999}, "viewport": {"northeast": {"lat": 23.7848913802915, "lng": 86.41768973029151}, "southwest": {"lat": 23.7821934197085, "lng": 86.41499176970851}}}, "icon": "https://maps.gstatic.com/mapfiles/place_api/icons/v1/png_71/generic_business-71.png", "icon_background_color": "#7B9EB0", "icon_mask_base_uri": "https://maps.gstatic.com/mapfiles/place_api/icons/v2/generic_pinlet", "name": "Mahindra Finance", "opening_hours": {"open_now": true}, "photos": [{"height": 2448, "html_attributions": ["<a href=\"https://maps.google.com/maps/contrib/108083681162864046489\">Argha Bhattacharya</a>"], "photo_reference": "Aap_uECbp0waOp92Eh-H2Jg7fcTNNUASmLvdUaPsG7ko4xPUn09ItNcavHLH2u5ulvePr-41rTZIsffsM07JHyKaZfiTeoC6w1GycPERcGqbetpkZUUJ7hzWwhDmf0F5k6XYi7TjvQCBDdjPii7HORWYkWcoS-YINlkCJz0bx7FvGa7Ld57u", "width": 3264}], "place_id": "ChIJaaDt9zKj9jkRR-lOxzs-U6U", "plus_code": {"compound_code": "QCM8+CG Dhanbad, Jharkhand, India", "global_code": "7MM8QCM8+CG"}, "rating": 3, "reference": "ChIJaaDt9zKj9jkRR-lOxzs-U6U", "scope": "GOOGLE", "types": ["bank", "finance", "point_of_interest", "establishment"], "user_ratings_total": 5, "vicinity": "opp of Kotak Mahindra Bank, 2nd Floor, Poddar Tower, opp of Kotak Mahindra Bank, Shastri Nagar, Dhanbad"}, {"business_status": "OPERATIONAL", "geometry": {"location": {"lat": 23.7880912, "lng": 86.4182022}, "viewport": {"northeast": {"lat": 23.7894775302915, "lng": 86.4195592302915}, "southwest": {"lat": 23.7867795697085, "lng": 86.41686126970849}}}, "icon": "https://maps.gstatic.com/mapfiles/place_api/icons/v1/png_71/bank-71.png", "icon_background_color": "#909CE1", "icon_mask_base_uri": "https://maps.gstatic.com/mapfiles/place_api/icons/v2/bank-intl_pinlet", "name": "Allahabad Bank", "photos": [{"height": 4208, "html_attributions": ["<a href=\"https://maps.google.com/maps/contrib/107257001160830657786\">Swagata Singha</a>"], "photo_reference": "Aap_uEDxE2BWOg_Sbrdtovdx4gwJdTcRhXNJtf1jW_aajvXsuK1_oHdvYyx0laubiInLBHh3SmeiG12uEzWty2yZ8MDgdPox57KYON5lv5s1isMOVCj8OK7lPXvJTFVR--qWfn69hDSnip6uVV1iwLESWIhJpTzjqNLeJGNTi-CbQkCPn7ZL", "width": 3120}], "place_id": "ChIJTcTkrzSj9jkR3qelLbDTDe8", "plus_code": {"compound_code": "QCQ9+67 Dhanbad, Jharkhand, India", "global_code": "7MM8QCQ9+67"}, "rating": 2.7, "reference": "ChIJTcTkrzSj9jkR3qelLbDTDe8", "scope": "GOOGLE", "types": ["bank", "finance", "point_of_interest", "establishment"], "user_ratings_total": 10, "vicinity": "Chauda Mansion 69 Katras Road Bank More, Rajendra Market, Dhanbad"}, {"business_status": "OPERATIONAL", "geometry": {"location": {"lat": 23.7852234, "lng": 86.41757129999999}, "viewport": {"northeast": {"lat": 23.7865057802915, "lng": 86.4188720302915}, "southwest": {"lat": 23.7838078197085, "lng": 86.41617406970849}}}, "icon": "https://maps.gstatic.com/mapfiles/place_api/icons/v1/png_71/bank-71.png", "icon_background_color": "#909CE1", "icon_mask_base_uri": "https://maps.gstatic.com/mapfiles/place_api/icons/v2/bank-intl_pinlet", "name": "Punjab National Bank", "opening_hours": {"open_now": false}, "photos": [{"height": 1536, "html_attributions": ["<a href=\"https://maps.google.com/maps/contrib/106717742389905130120\">Hirak Chatterjee</a>"], "photo_reference": "Aap_uEAtUC9SEbOFnyRapNoOzNTgMMiDH67idLke63oUzNR-oxI2i4T8JFvr6nilkEwrfx_3zg_sohCYLdZydiiTodiA0BA0KHHxV7qeqPTKaAW_Mgi44CGP3A-zfLb1U_Z0kRi0PVaM1C7O59wPmJ5ePSrjbAtB6dt1p9SwhVxd2SrcafM_", "width": 2560}], "place_id": "ChIJwfP-lDSj9jkR4nJIq1pPLAw", "plus_code": {"compound_code": "QCP9+32 Dhanbad, Jharkhand, India", "global_code": "7MM8QCP9+32"}, "rating": 3.9, "reference": "ChIJwfP-lDSj9jkR4nJIq1pPLAw", "scope": "GOOGLE", "types": ["bank", "finance", "point_of_interest", "establishment"], "user_ratings_total": 14, "vicinity": "Black Rock Hotel, Savitri Mansion, Katras Road, Dhanbad"}, {"business_status": "OPERATIONAL", "geometry": {"location": {"lat": 23.7833, "lng": 86.4164}, "viewport": {"northeast": {"lat": 23.7847228302915, "lng": 86.41778763029151}, "southwest": {"lat": 23.7820248697085, "lng": 86.4150896697085}}}, "icon": "https://maps.gstatic.com/mapfiles/place_api/icons/v1/png_71/bank-71.png", "icon_background_color": "#909CE1", "icon_mask_base_uri": "https://maps.gstatic.com/mapfiles/place_api/icons/v2/bank-intl_pinlet", "name": "ICICI Bank Dhanbad-Branch & ATM", "opening_hours": {"open_now": true}, "photos": [{"height": 4160, "html_attributions": ["<a href=\"https://maps.google.com/maps/contrib/109522556471010537679\">Gopal prasad Agarwal</a>"], "photo_reference": "Aap_uEBXzxc_QJxcH125F0tXJCL8JH8qAARwuxLiCR_CRwGqROrqp9Mx7yEEAuzducivj2kLW6NDIbN49V8L2cYHHVK4CUykYl-fa0lfrZPCbLnVjlpkMBwDqdnb5rnfa6PPFWp7kTV_1ubVKcWXFhixe7J31G4Nw3LKAhKYFpwObZt2ze4", "width": 2352}], "place_id": "ChIJIRCS9jKj9jkRsEQ9D-3Fh58", "plus_code": {"compound_code": "QCM8+8H Dhanbad, Jharkhand, India", "global_code": "7MM8QCM8+8H"}, "rating": 3.5, "reference": "ChIJIRCS9jKj9jkRsEQ9D-3Fh58", "scope": "GOOGLE", "types": ["bank", "finance", "point_of_interest", "establishment"], "user_ratings_total": 32, "vicinity": "Municipal Holding No 576/577 Bank More, Shastri Nagar, Dhanbad"}, {"business_status": "OPERATIONAL", "geometry": {"location": {"lat": 23.7880937, "lng": 86.418098}, "viewport": {"northeast": {"lat": 23.7894874302915, "lng": 86.4194596302915}, "southwest": {"lat": 23.7867894697085, "lng": 86.41676166970849}}}, "icon": "https://maps.gstatic.com/mapfiles/place_api/icons/v1/png_71/bank-71.png", "icon_background_color": "#909CE1", "icon_mask_base_uri": "https://maps.gstatic.com/mapfiles/place_api/icons/v2/bank-intl_pinlet", "name": "United Bank Of India", "photos": [{"height": 3120, "html_attributions": ["<a href=\"https://maps.google.com/maps/contrib/107448289242664778189\">Gyan Updates</a>"], "photo_reference": "Aap_uED6upBJFbg28t0rv3dG7S2xweRpPQB-sZyDUGWHWEmE2QyiCEcshC4VSHLP4PEaJqFuRie6x_8u1QIdwQgBLmNjxDH4Gs4XXukanDZZatzLCinSpqcckJOp_6E7UAoIkqg6ez9Hsz0zikM3NQBK3dqFjiU7en9CmzUu9FN2EJnjtOjI", "width": 4160}], "place_id": "ChIJc0aVccu89jkRMgIWo4G0Aqs", "plus_code": {"compound_code": "QCQ9+66 Dhanbad, Jharkhand, India", "global_code": "7MM8QCQ9+66"}, "rating": 3.6, "reference": "ChIJc0aVccu89jkRMgIWo4G0Aqs", "scope": "GOOGLE", "types": ["bank", "finance", "point_of_interest", "establishment"], "user_ratings_total": 20, "vicinity": "Bank More, Dhanbad"}, {"business_status": "OPERATIONAL", "geometry": {"location": {"lat": 23.783023, "lng": 86.4162369}, "viewport": {"northeast": {"lat": 23.7844104302915, "lng": 86.4175999802915}, "southwest": {"lat": 23.7817124697085, "lng": 86.41490201970849}}}, "icon": "https://maps.gstatic.com/mapfiles/place_api/icons/v1/png_71/bank-71.png", "icon_background_color": "#909CE1", "icon_mask_base_uri": "https://maps.gstatic.com/mapfiles/place_api/icons/v2/bank-intl_pinlet", "name": "Karnataka Bank", "opening_hours": {"open_now": true}, "photos": [{"height": 2583, "html_attributions": ["<a href=\"https://maps.google.com/maps/contrib/101306289675803432117\">Vikash Kumar</a>"], "photo_reference": "Aap_uECbsmI60p3L6T8m4Kex2HfsE0wkPj7HNhSNiuu_ByhFy-j5CGd2QcY8jAPDwzJZL6h3HbUx9h1PddmYoJ2C01fD_o_ulDJAjIKjneg7TIJ2lIig_sdTXz44gz4KzfUSqg-da1mc99pGNicWl9G-SijddF3PLKCOKFbvlmgmvZjuswNF", "width": 2208}], "place_id": "ChIJr9INXzKj9jkRgAqajDmrMko", "plus_code": {"compound_code": "QCM8+6F Dhanbad, Jharkhand, India", "global_code": "7MM8QCM8+6F"}, "rating": 3.9, "reference": "ChIJr9INXzKj9jkRgAqajDmrMko", "scope": "GOOGLE", "types": ["bank", "finance", "point_of_interest", "establishment"], "user_ratings_total": 10, "vicinity": "Ground Commerce House II Shastri Nagar, Bank More, Dhanbad"}], "status": "OK"}