{"html_attributions": [], "results": [{"business_status": "OPERATIONAL", "geometry": {"location": {"lat": 23.7637057, "lng": 86.4336433}, "viewport": {"northeast": {"lat": 23.7649565302915, "lng": 86.4349053302915}, "southwest": {"lat": 23.7622585697085, "lng": 86.4322073697085}}}, "icon": "https://maps.gstatic.com/mapfiles/place_api/icons/v1/png_71/bank-71.png", "icon_background_color": "#909CE1", "icon_mask_base_uri": "https://maps.gstatic.com/mapfiles/place_api/icons/v2/bank-intl_pinlet", "name": "Bank of India - Bera Branch", "opening_hours": {"open_now": true}, "photos": [{"height": 4624, "html_attributions": ["<a href=\"https://maps.google.com/maps/contrib/109604425712543802484\">Raj Kumar</a>"], "photo_reference": "Aap_uEA8n85r0yhPlIiR_hLbkaYxRN7RUn1JDSHoZC-5wYot5AOfrgkm_R6Fi9PPVnq49hQsLEPOLZPBRzI5yN8Zn3LcguA0K8dDI6jyNkvTvdKa6NLIOQpBXQyOLr_tGN-K-hsf7U-S7eqtZwyn46v53Xoy1WFm4UJtbi8Tafo7vTyWwVsz", "width": 3468}], "place_id": "ChIJ0cBvASS99jkR_HfM-rDZhEs", "rating": 3.8, "reference": "ChIJ0cBvASS99jkR_HfM-rDZhEs", "scope": "GOOGLE", "types": ["bank", "finance", "point_of_interest", "establishment"], "user_ratings_total": 10, "vicinity": "QC7M+FFJ, Patraulhi"}, {"business_status": "OPERATIONAL", "geometry": {"location": {"lat": 23.7787422, "lng": 86.41755200000001}, "viewport": {"northeast": {"lat": 23.7800835802915, "lng": 86.4189386302915}, "southwest": {"lat": 23.7773856197085, "lng": 86.4162406697085}}}, "icon": "https://maps.gstatic.com/mapfiles/place_api/icons/v1/png_71/bank-71.png", "icon_background_color": "#909CE1", "icon_mask_base_uri": "https://maps.gstatic.com/mapfiles/place_api/icons/v2/bank-intl_pinlet", "name": "kachi saan shop", "opening_hours": {"open_now": true}, "place_id": "ChIJG_lshiCj9jkR9-KN9PDI7RQ", "plus_code": {"compound_code": "QCH9+F2 Dhanbad, Jharkhand, India", "global_code": "7MM8QCH9+F2"}, "rating": 1, "reference": "ChIJG_lshiCj9jkR9-KN9PDI7RQ", "scope": "GOOGLE", "types": ["bank", "finance", "point_of_interest", "establishment"], "user_ratings_total": 1, "vicinity": "Unnamed Road, Anugrah Nagar, Dhanbad"}, {"business_status": "OPERATIONAL", "geometry": {"location": {"lat": 23.7790724, "lng": 86.41785209999999}, "viewport": {"northeast": {"lat": 23.7804399302915, "lng": 86.41912573029151}, "southwest": {"lat": 23.7777419697085, "lng": 86.41642776970849}}}, "icon": "https://maps.gstatic.com/mapfiles/place_api/icons/v1/png_71/bank-71.png", "icon_background_color": "#909CE1", "icon_mask_base_uri": "https://maps.gstatic.com/mapfiles/place_api/icons/v2/bank-intl_pinlet", "name": "Bank Of India shakti mandir branch", "opening_hours": {"open_now": true}, "photos": [{"height": 2448, "html_attributions": ["<a href=\"https://maps.google.com/maps/contrib/109365824273778968765\">Brajesh Jha</a>"], "photo_reference": "Aap_uECG531jBhUJgHXvBtzTQYzAGgRyNTd3EsmNk2PU88dL7xOF-J2J9W2XRubeX5PvdLfG4BMpRTfwgL6j0_nU3300A566Mxid9jfp_5RRPPWgmC0pDY9WLqWtQYpPVqxwWBQ4b-GWcyN3fxSyHJYofWOi3_DTNuh6ecPqJBL_IORsLnZO", "width": 3264}], "place_id": "ChIJy0GRJC2j9jkRUvrPEezbA0E", "plus_code": {"compound_code": "QCH9+J4 Jorapokhar, Jharkhand, India", "global_code": "7MM8QCH9+J4"}, "rating": 3.3, "reference": "ChIJy0GRJC2j9jkRUvrPEezbA0E", "scope": "GOOGLE", "types": ["bank", "finance", "point_of_interest", "establishment"], "user_ratings_total": 6, "vicinity": "Pipradih - Chandrapura Road, Jorapokhar"}, {"business_status": "OPERATIONAL", "geometry": {"location": {"lat": 23.7791332, "lng": 86.417942}, "viewport": {"northeast": {"lat": 23.7805222802915, "lng": 86.4193271302915}, "southwest": {"lat": 23.7778243197085, "lng": 86.41662916970849}}}, "icon": "https://maps.gstatic.com/mapfiles/place_api/icons/v1/png_71/generic_business-71.png", "icon_background_color": "#7B9EB0", "icon_mask_base_uri": "https://maps.gstatic.com/mapfiles/place_api/icons/v2/generic_pinlet", "name": "State Bank of India - Customer Service Point", "opening_hours": {"open_now": true}, "place_id": "ChIJwwUoJS2j9jkRDsyMC9VQzNU", "plus_code": {"compound_code": "QCH9+M5 Dhanbad, Jharkhand, India", "global_code": "7MM8QCH9+M5"}, "rating": 1, "reference": "ChIJwwUoJS2j9jkRDsyMC9VQzNU", "scope": "GOOGLE", "types": ["bank", "finance", "point_of_interest", "establishment"], "user_ratings_total": 1, "vicinity": "Joraphatak, Chandmari Road, Dhanbad"}], "status": "OK"}