{"html_attributions": [], "results": [{"business_status": "OPERATIONAL", "geometry": {"location": {"lat": 23.8330867, "lng": 86.4364854}, "viewport": {"northeast": {"lat": 23.8344509802915, "lng": 86.4378066302915}, "southwest": {"lat": 23.8317530197085, "lng": 86.4351086697085}}}, "icon": "https://maps.gstatic.com/mapfiles/place_api/icons/v1/png_71/bank-71.png", "icon_background_color": "#909CE1", "icon_mask_base_uri": "https://maps.gstatic.com/mapfiles/place_api/icons/v2/bank-intl_pinlet", "name": "Bank Of India", "opening_hours": {"open_now": true}, "place_id": "ChIJKyxYTUK79jkR5QDrvL6_8Hg", "plus_code": {"compound_code": "RCMP+6H Dhanbad, Jharkhand, India", "global_code": "7MM8RCMP+6H"}, "rating": 3, "reference": "ChIJKyxYTUK79jkR5QDrvL6_8Hg", "scope": "GOOGLE", "types": ["bank", "finance", "point_of_interest", "establishment"], "user_ratings_total": 1, "vicinity": "Near Nalanda Cottage, Bhuli Hirak Road, Dhanbad"}, {"business_status": "OPERATIONAL", "geometry": {"location": {"lat": 23.8320346, "lng": 86.4288244}, "viewport": {"northeast": {"lat": 23.8334100302915, "lng": 86.43019203029151}, "southwest": {"lat": 23.8307120697085, "lng": 86.4274940697085}}}, "icon": "https://maps.gstatic.com/mapfiles/place_api/icons/v1/png_71/atm-71.png", "icon_background_color": "#909CE1", "icon_mask_base_uri": "https://maps.gstatic.com/mapfiles/place_api/icons/v2/atm_pinlet", "name": "Axis Bank ATM", "opening_hours": {"open_now": true}, "photos": [{"height": 558, "html_attributions": ["<a href=\"https://maps.google.com/maps/contrib/115460728485221166301\">Axis Bank ATM</a>"], "photo_reference": "Aap_uEB-sX7vrM7fkfK7pdjo6zB3nkrNt05SQbLzLF9ZwHlCWJWcLlKbWHNbz-EFvIzbWvjxxaXNK5UeT3-XmOw53-CKU0hIt2VUtlHHGRjq0W5446x5BCUZ7uLHy-Ck1qhxYblUI6qm2C_CTDr-zlUHZwJVxinaniklOYEXyEPFAW52s3Si", "width": 992}], "place_id": "ChIJo-6xhxm79jkRrr1PIlHcTso", "plus_code": {"compound_code": "RCJH+RG Dhanbad, Jharkhand, India", "global_code": "7MM8RCJH+RG"}, "reference": "ChIJo-6xhxm79jkRrr1PIlHcTso", "scope": "GOOGLE", "types": ["atm", "bank", "finance", "point_of_interest", "establishment"], "vicinity": "Ground Floor, Krishna G Complex Memco More, Hirak Point"}, {"business_status": "OPERATIONAL", "geometry": {"location": {"lat": 23.8320346, "lng": 86.4288244}, "viewport": {"northeast": {"lat": 23.8334100302915, "lng": 86.43019203029151}, "southwest": {"lat": 23.8307120697085, "lng": 86.4274940697085}}}, "icon": "https://maps.gstatic.com/mapfiles/place_api/icons/v1/png_71/bank-71.png", "icon_background_color": "#909CE1", "icon_mask_base_uri": "https://maps.gstatic.com/mapfiles/place_api/icons/v2/bank-intl_pinlet", "name": "Axis Bank", "opening_hours": {"open_now": true}, "photos": [{"height": 558, "html_attributions": ["<a href=\"https://maps.google.com/maps/contrib/109201760494571708023\">Axis Bank</a>"], "photo_reference": "Aap_uEBcmcpy_47RKBe-3p2zZ5hLkIZALFEGm818bUy07bYL7EvEwmy24xEh0kdapxsopKHp5KEzu4u7Eba3Fb8BElPAyg0PtfPqFM_k0TCxDbAyQnkik4uq6bOoHA832TGhjcrdqi-F-0SWhFJcN93nWYAl1dCu9kaK7bl62IsxNuMpxlFN", "width": 992}], "place_id": "ChIJ4T7BfmG79jkR6PcvOrYLfQo", "plus_code": {"compound_code": "RCJH+RG Dhanbad, Jharkhand, India", "global_code": "7MM8RCJH+RG"}, "rating": 5, "reference": "ChIJ4T7BfmG79jkR6PcvOrYLfQo", "scope": "GOOGLE", "types": ["bank", "atm", "finance", "point_of_interest", "establishment"], "user_ratings_total": 2, "vicinity": "Ground Floor, Krishna G Complex Memco More, Hirak Point"}, {"business_status": "OPERATIONAL", "geometry": {"location": {"lat": 23.82848899999999, "lng": 86.4338257}, "viewport": {"northeast": {"lat": 23.8298398802915, "lng": 86.43518628029152}, "southwest": {"lat": 23.8271419197085, "lng": 86.4324883197085}}}, "icon": "https://maps.gstatic.com/mapfiles/place_api/icons/v1/png_71/bank-71.png", "icon_background_color": "#909CE1", "icon_mask_base_uri": "https://maps.gstatic.com/mapfiles/place_api/icons/v2/bank-intl_pinlet", "name": "Bank of India", "place_id": "ChIJ-X4-WFu79jkRSYecL9AyGmw", "rating": 1, "reference": "ChIJ-X4-WFu79jkRSYecL9AyGmw", "scope": "GOOGLE", "types": ["bank", "finance", "point_of_interest", "establishment"], "user_ratings_total": 1, "vicinity": "DHANBAD BARWA ADDA ROAD, I.S.M"}, {"business_status": "OPERATIONAL", "geometry": {"location": {"lat": 23.8274513, "lng": 86.4338047}, "viewport": {"northeast": {"lat": 23.82881413029151, "lng": 86.43524488029149}, "southwest": {"lat": 23.8261161697085, "lng": 86.43254691970849}}}, "icon": "https://maps.gstatic.com/mapfiles/place_api/icons/v1/png_71/bank-71.png", "icon_background_color": "#909CE1", "icon_mask_base_uri": "https://maps.gstatic.com/mapfiles/place_api/icons/v2/bank-intl_pinlet", "name": "SBI Dhaiya Branch", "opening_hours": {"open_now": false}, "photos": [{"height": 3120, "html_attributions": ["<a href=\"https://maps.google.com/maps/contrib/116009144172800383125\">Sukesh Kumar</a>"], "photo_reference": "Aap_uEDKgH9wfiid7U5cdRdPTFZ8Z5PNRNt-E60nfqc8JxhRquzc1hHVLKvo8pEpqvsg3cYxKt8uT43gz_1qeV4oiIK5963kfBnfrsFQq_lJ6zPwX_VfrD2AFBU3I4wz7QefoK48Tc8ut9-Qm9EHKqoHizeXv_kaoJYbEXNV3-Vy40VQHxEG", "width": 4160}], "place_id": "ChIJ13VDNl-79jkRG1Wa-vPCkLU", "plus_code": {"compound_code": "RCGM+XG Dhanbad, Jharkhand, India", "global_code": "7MM8RCGM+XG"}, "rating": 3.9, "reference": "ChIJ13VDNl-79jkRG1Wa-vPCkLU", "scope": "GOOGLE", "types": ["bank", "finance", "point_of_interest", "establishment"], "user_ratings_total": 14, "vicinity": "Opp Rani Talaw, Dhaiya, Dhanbad"}, {"business_status": "OPERATIONAL", "geometry": {"location": {"lat": 23.8381864, "lng": 86.4280687}, "viewport": {"northeast": {"lat": 23.8395277302915, "lng": 86.42941573029151}, "southwest": {"lat": 23.8368297697085, "lng": 86.42671776970849}}}, "icon": "https://maps.gstatic.com/mapfiles/place_api/icons/v1/png_71/atm-71.png", "icon_background_color": "#909CE1", "icon_mask_base_uri": "https://maps.gstatic.com/mapfiles/place_api/icons/v2/atm_pinlet", "name": "HDFC Bank ATM", "opening_hours": {"open_now": true}, "place_id": "ChIJFQof8K-79jkRe4l_b0y7Qyg", "plus_code": {"compound_code": "RCQH+76 Dhanbad, Jharkhand, India", "global_code": "7MM8RCQH+76"}, "reference": "ChIJFQof8K-79jkRe4l_b0y7Qyg", "scope": "GOOGLE", "types": ["atm", "bank", "finance", "point_of_interest", "establishment"], "vicinity": "Bara Jamie, Barwadda, Dhanbad"}, {"business_status": "OPERATIONAL", "geometry": {"location": {"lat": 23.8237631, "lng": 86.4151116}, "viewport": {"northeast": {"lat": 23.8251259302915, "lng": 86.4164296302915}, "southwest": {"lat": 23.8224279697085, "lng": 86.4137316697085}}}, "icon": "https://maps.gstatic.com/mapfiles/place_api/icons/v1/png_71/bank-71.png", "icon_background_color": "#909CE1", "icon_mask_base_uri": "https://maps.gstatic.com/mapfiles/place_api/icons/v2/bank-intl_pinlet", "name": "Narayani Digital & Bank Mitra", "opening_hours": {"open_now": true}, "photos": [{"height": 640, "html_attributions": ["<a href=\"https://maps.google.com/maps/contrib/108307770480325819492\">Narayani Digital &amp; Bank Mitra</a>"], "photo_reference": "Aap_uEBufXEqxfPMA9EV5MYzKf9QEMGdN1LZ0mWwSigZ4ECGlSFvfWzP35Bb8QBEvTG2AYwpZV1uQUZI6HrC1Xsbb4yegSMMkbg3xIv4_wDcbi4NL66YxNex6-4e_6B7rRD1MXV2-I-hlUOjVp2gglaAVA8n-8nNMHTAljQO1xIJaisfNn7B", "width": 1280}], "place_id": "ChIJTyI1_7ml9jkR8guLEn6lRts", "plus_code": {"compound_code": "RCF8+G2 Dhanbad, Jharkhand, India", "global_code": "7MM8RCF8+G2"}, "rating": 5, "reference": "ChIJTyI1_7ml9jkR8guLEn6lRts", "scope": "GOOGLE", "types": ["bank", "finance", "point_of_interest", "establishment"], "user_ratings_total": 1, "vicinity": "Smart Mega Mart, Bhuli Hirak Road, Dhanbad"}, {"business_status": "OPERATIONAL", "geometry": {"location": {"lat": 23.8231854, "lng": 86.41434489999999}, "viewport": {"northeast": {"lat": 23.8244937302915, "lng": 86.41572953029149}, "southwest": {"lat": 23.8217957697085, "lng": 86.41303156970848}}}, "icon": "https://maps.gstatic.com/mapfiles/place_api/icons/v1/png_71/bank-71.png", "icon_background_color": "#909CE1", "icon_mask_base_uri": "https://maps.gstatic.com/mapfiles/place_api/icons/v2/bank-intl_pinlet", "name": "RADHIKA BHAWAN DHANBAD", "opening_hours": {"open_now": true}, "photos": [{"height": 1836, "html_attributions": ["<a href=\"https://maps.google.com/maps/contrib/111513100739289973787\">Anivesh Singh</a>"], "photo_reference": "Aap_uECw4iTTFAXQFnU1VEsqjt_SxAmHdpfg13mfvfCqTJ1oB-xdvttNxtKF60QC4JEjTBgLYwN5ltMkpBpwEz-fzN-12HUVoeHmmbnsxqCjsRLJf6gyjjeUlSYnxblnV7gbJVBg-RlpG5Kh19QAvtFSC9PSeZG8et6zDoHfv8eerXoMvgzy", "width": 3264}], "place_id": "ChIJ_euXCKyk9jkRRc6r-Jevz_o", "rating": 3.8, "reference": "ChIJ_euXCKyk9jkRRc6r-Jevz_o", "scope": "GOOGLE", "types": ["bank", "finance", "point_of_interest", "establishment"], "user_ratings_total": 6, "vicinity": "RCF7+7PH, Dhanbad"}, {"business_status": "OPERATIONAL", "geometry": {"location": {"lat": 23.8191217, "lng": 86.43439599999999}, "viewport": {"northeast": {"lat": 23.8204918802915, "lng": 86.4356638302915}, "southwest": {"lat": 23.8177939197085, "lng": 86.4329658697085}}}, "icon": "https://maps.gstatic.com/mapfiles/place_api/icons/v1/png_71/bank-71.png", "icon_background_color": "#909CE1", "icon_mask_base_uri": "https://maps.gstatic.com/mapfiles/place_api/icons/v2/bank-intl_pinlet", "name": "UCO Bank - Dhaiya Branch", "opening_hours": {"open_now": true}, "photos": [{"height": 1836, "html_attributions": ["<a href=\"https://maps.google.com/maps/contrib/108500819145267190906\">Vikram Kumar</a>"], "photo_reference": "Aap_uEAVtmYn-ggwp9rbJg6XylH4HZe-kBSBPjpq5hJybojVP6rToxs5dPvobrd4IlbkcM1dSk7eiwRliDtc0ifr37RFlYtvUdmAPdjKQgWrYa8zqgb6b3ppvXIY9blUqqh-6bqWcwRcJ1-WDuW-l3a4IRItxPFnYqGMRh5qAgRvZ4OVrFDk", "width": 3264}], "place_id": "ChIJVexeNl-79jkRTZhpseebP2U", "rating": 3.5, "reference": "ChIJVexeNl-79jkRTZhpseebP2U", "scope": "GOOGLE", "types": ["bank", "finance", "point_of_interest", "establishment"], "user_ratings_total": 14, "vicinity": "RC9M+JQR, Dhaiya, Dhanbad"}], "status": "OK"}