{"html_attributions": [], "results": [{"business_status": "OPERATIONAL", "geometry": {"location": {"lat": 23.613504, "lng": 86.4674234}, "viewport": {"northeast": {"lat": 23.6143074802915, "lng": 86.46945455000001}, "southwest": {"lat": 23.61160951970849, "lng": 86.46674635000002}}}, "icon": "https://maps.gstatic.com/mapfiles/place_api/icons/v1/png_71/bank-71.png", "icon_background_color": "#909CE1", "icon_mask_base_uri": "https://maps.gstatic.com/mapfiles/place_api/icons/v2/bank-intl_pinlet", "name": "SBI BCW SANTALDIH", "place_id": "ChIJhaNSAyWR9jkRxlbiG3Go36w", "rating": 2, "reference": "ChIJhaNSAyWR9jkRxlbiG3Go36w", "scope": "GOOGLE", "types": ["bank", "finance", "point_of_interest", "establishment"], "user_ratings_total": 1, "vicinity": "JF78+CX3, Nabagram"}, {"business_status": "OPERATIONAL", "geometry": {"location": {"lat": 23.6010372, "lng": 86.466651}, "viewport": {"northeast": {"lat": 23.6024354302915, "lng": 86.4679860802915}, "southwest": {"lat": 23.5997374697085, "lng": 86.46528811970848}}}, "icon": "https://maps.gstatic.com/mapfiles/place_api/icons/v1/png_71/bank-71.png", "icon_background_color": "#909CE1", "icon_mask_base_uri": "https://maps.gstatic.com/mapfiles/place_api/icons/v2/bank-intl_pinlet", "name": "Aguitard Csp Centre", "place_id": "ChIJYTfjABmR9jkRHUSXqHcjLn8", "reference": "ChIJYTfjABmR9jkRHUSXqHcjLn8", "scope": "GOOGLE", "types": ["bank", "finance", "point_of_interest", "establishment"], "vicinity": "JF28+CM6, Santaldih"}, {"business_status": "OPERATIONAL", "geometry": {"location": {"lat": 23.6148957, "lng": 86.47214609999999}, "viewport": {"northeast": {"lat": 23.6162049802915, "lng": 86.4735156302915}, "southwest": {"lat": 23.6135070197085, "lng": 86.47081766970848}}}, "icon": "https://maps.gstatic.com/mapfiles/place_api/icons/v1/png_71/bank-71.png", "icon_background_color": "#909CE1", "icon_mask_base_uri": "https://maps.gstatic.com/mapfiles/place_api/icons/v2/bank-intl_pinlet", "name": "Customer Service Point", "place_id": "ChIJz4XOYDqR9jkRS2fq8zG4e1k", "reference": "ChIJz4XOYDqR9jkRS2fq8zG4e1k", "scope": "GOOGLE", "types": ["bank", "finance", "point_of_interest", "establishment"], "vicinity": "JF7C+XV2, Nabagram"}, {"business_status": "OPERATIONAL", "geometry": {"location": {"lat": 23.6145258, "lng": 86.4762861}, "viewport": {"northeast": {"lat": 23.6158050802915, "lng": 86.4776896302915}, "southwest": {"lat": 23.61310711970849, "lng": 86.47499166970849}}}, "icon": "https://maps.gstatic.com/mapfiles/place_api/icons/v1/png_71/bank-71.png", "icon_background_color": "#909CE1", "icon_mask_base_uri": "https://maps.gstatic.com/mapfiles/place_api/icons/v2/bank-intl_pinlet", "name": "SBI B.C.W SANTALDIH", "opening_hours": {"open_now": false}, "photos": [{"height": 1836, "html_attributions": ["<a href=\"https://maps.google.com/maps/contrib/102805407235772252943\">Knowledge &amp; Entertainment Ghosh</a>"], "photo_reference": "Aap_uEAkeoNfc8RfSPHhQC_oW59TriIPOqaJ5YXiSolDKLxq0ZUKKjIm9KVNWpKh5zOHxsaQQqNOwJ9-4n9FKJyHjBPE8sS6vbL-YXokI6X4aGStaOv9w2nkyx4-guIU0hGLbDgTNrTBysPthMBWn6UjBbHQdTuOwtuPcUNeLbBi7hK1amlM", "width": 3264}], "place_id": "ChIJcf9WtzmR9jkRZjj4WiHeU8E", "plus_code": {"compound_code": "JF7G+RG Santaldih, West Bengal, India", "global_code": "7MM8JF7G+RG"}, "rating": 2.8, "reference": "ChIJcf9WtzmR9jkRZjj4WiHeU8E", "scope": "GOOGLE", "types": ["bank", "finance", "point_of_interest", "establishment"], "user_ratings_total": 12, "vicinity": "Purulia Distt., Santaldih"}, {"business_status": "OPERATIONAL", "geometry": {"location": {"lat": 23.61765400000001, "lng": 86.4743878}, "viewport": {"northeast": {"lat": 23.61902568029151, "lng": 86.47573973029152}, "southwest": {"lat": 23.6163277197085, "lng": 86.47304176970852}}}, "icon": "https://maps.gstatic.com/mapfiles/place_api/icons/v1/png_71/bank-71.png", "icon_background_color": "#909CE1", "icon_mask_base_uri": "https://maps.gstatic.com/mapfiles/place_api/icons/v2/bank-intl_pinlet", "name": "Maa Tara Csp Centre Aguitard", "opening_hours": {"open_now": true}, "photos": [{"height": 3096, "html_attributions": ["<a href=\"https://maps.google.com/maps/contrib/112579649226739790451\">RAJESH KUMBHAKAR</a>"], "photo_reference": "Aap_uEBI7aQBKdNtveM8lZ0zgKwOUb1C7uX3YtxnOWLAclcW1qczkkWGpK8ZJ9iMQBM0EEVUmyhqryXZdd3J4y8kavp7l2UMzLkKD3d7W2WiiFPr-FSkMkviqET8_weiC35jF5e9mE5Kh0UxY6yNmvkGWpixpVNdKn-SevjiUVS9JyXA-Q7T", "width": 4128}], "place_id": "ChIJk3zNSjeR9jkRKSN-bEmG-ZM", "rating": 4, "reference": "ChIJk3zNSjeR9jkRKSN-bEmG-ZM", "scope": "GOOGLE", "types": ["bank", "finance", "point_of_interest", "establishment"], "user_ratings_total": 1, "vicinity": "JF9F+3Q6, Nabagram"}, {"business_status": "OPERATIONAL", "geometry": {"location": {"lat": 23.61766690000001, "lng": 86.47438749999999}, "viewport": {"northeast": {"lat": 23.61902588029151, "lng": 86.4757378302915}, "southwest": {"lat": 23.6163279197085, "lng": 86.47303986970849}}}, "icon": "https://maps.gstatic.com/mapfiles/place_api/icons/v1/png_71/bank-71.png", "icon_background_color": "#909CE1", "icon_mask_base_uri": "https://maps.gstatic.com/mapfiles/place_api/icons/v2/bank-intl_pinlet", "name": "Maa Tara Mini Bank", "place_id": "ChIJz_rMSjeR9jkR1uO3vSyXA6U", "rating": 1, "reference": "ChIJz_rMSjeR9jkR1uO3vSyXA6U", "scope": "GOOGLE", "types": ["bank", "finance", "point_of_interest", "establishment"], "user_ratings_total": 1, "vicinity": "JF9F+3Q6, Nabagram"}, {"business_status": "OPERATIONAL", "geometry": {"location": {"lat": 23.6176678, "lng": 86.4744029}, "viewport": {"northeast": {"lat": 23.6190242802915, "lng": 86.47575283029151}, "southwest": {"lat": 23.6163263197085, "lng": 86.47305486970849}}}, "icon": "https://maps.gstatic.com/mapfiles/place_api/icons/v1/png_71/bank-71.png", "icon_background_color": "#909CE1", "icon_mask_base_uri": "https://maps.gstatic.com/mapfiles/place_api/icons/v2/bank-intl_pinlet", "name": "A.G.T CSP POINT", "opening_hours": {"open_now": true}, "place_id": "ChIJ1ZHOSjeR9jkRxsw8YAtY9tM", "reference": "ChIJ1ZHOSjeR9jkRxsw8YAtY9tM", "scope": "GOOGLE", "types": ["bank", "finance", "point_of_interest", "establishment"], "vicinity": "JF9F+3Q6, Nabagram"}], "status": "OK"}