{"html_attributions": [], "results": [{"business_status": "OPERATIONAL", "geometry": {"location": {"lat": 23.7892448, "lng": 85.8835347}, "viewport": {"northeast": {"lat": 23.7906620802915, "lng": 85.8848612302915}, "southwest": {"lat": 23.78796411970849, "lng": 85.8821632697085}}}, "icon": "https://maps.gstatic.com/mapfiles/place_api/icons/v1/png_71/bank-71.png", "icon_background_color": "#909CE1", "icon_mask_base_uri": "https://maps.gstatic.com/mapfiles/place_api/icons/v2/bank-intl_pinlet", "name": "State Bank Of India", "photos": [{"height": 3120, "html_attributions": ["<a href=\"https://maps.google.com/maps/contrib/114823126080471109535\">Kishor Kumar</a>"], "photo_reference": "Aap_uEC0yNYjZ2J74RUsbpaRjFkyVPl_BHQJsdEMkRv1R6BmgShvIGrUR2ac08OSOL_2cbk19r9Q-GvEa1T5q8J7ChHupUbDji5tpTkAZhElc1GPTdToxPWVYXRewPr-Q56uLBJWowQ7IWirQfU664qkhTZzIviiMWcmdZZg5eHYA5FpuKuU", "width": 4160}], "place_id": "ChIJNzNac5tr9DkRwhJNHAntryE", "rating": 3.4, "reference": "ChIJNzNac5tr9DkRwhJNHAntryE", "scope": "GOOGLE", "types": ["atm", "bank", "finance", "point_of_interest", "establishment"], "user_ratings_total": 17, "vicinity": "QVQM+MCV, Bokaro Thermal"}, {"business_status": "OPERATIONAL", "geometry": {"location": {"lat": 23.7911112, "lng": 85.8821559}, "viewport": {"northeast": {"lat": 23.7924235802915, "lng": 85.88359873029151}, "southwest": {"lat": 23.7897256197085, "lng": 85.8809007697085}}}, "icon": "https://maps.gstatic.com/mapfiles/place_api/icons/v1/png_71/bank-71.png", "icon_background_color": "#909CE1", "icon_mask_base_uri": "https://maps.gstatic.com/mapfiles/place_api/icons/v2/bank-intl_pinlet", "name": "Bank of India", "opening_hours": {"open_now": true}, "photos": [{"height": 3120, "html_attributions": ["<a href=\"https://maps.google.com/maps/contrib/114168518533555549005\">ANSH U MISHRA</a>"], "photo_reference": "Aap_uEBL9sQ3WHW2o-2pB9VVusvRntumw70jmg-Vi1gmnxgHbwfcSWOMLLr0-ODha1Za7oQKaE0sbSalIomzuCmN4IGL6IAlrvZWFdwqMa7UK5VbzYobK6Aqpoq6yYpTcX27tFKL4cWKZvA4Y6ai8WuPz12AP_XtmtKBsxaNu4uNMdcfEbqL", "width": 4160}], "place_id": "ChIJcZ2QKJtr9DkR4_xxwtP6vMY", "plus_code": {"compound_code": "QVRJ+CV Bokaro, Jharkhand, India", "global_code": "7MM7QVRJ+CV"}, "rating": 2.9, "reference": "ChIJcZ2QKJtr9DkR4_xxwtP6vMY", "scope": "GOOGLE", "types": ["bank", "finance", "point_of_interest", "establishment"], "user_ratings_total": 12, "vicinity": "Quarter No.E-27 A & 27 B, Near Patel Park, Dvc Colony, Bokaro Thermal Power Station, Bokaro"}, {"business_status": "OPERATIONAL", "geometry": {"location": {"lat": 23.7887708, "lng": 85.8794181}, "viewport": {"northeast": {"lat": 23.7901171802915, "lng": 85.8807712802915}, "southwest": {"lat": 23.78741921970849, "lng": 85.87807331970848}}}, "icon": "https://maps.gstatic.com/mapfiles/place_api/icons/v1/png_71/atm-71.png", "icon_background_color": "#909CE1", "icon_mask_base_uri": "https://maps.gstatic.com/mapfiles/place_api/icons/v2/atm_pinlet", "name": "Axis Bank ATM", "opening_hours": {"open_now": true}, "photos": [{"height": 558, "html_attributions": ["<a href=\"https://maps.google.com/maps/contrib/104535214061005360586\">Axis Bank ATM</a>"], "photo_reference": "Aap_uEBCzouTM2kx9fUvk5EV1NR3l58qQo1E0V7LtVTi9picu7pYJT-LCicAG9rXaZuZ5UscxNrDaqFnHk42q2NnP7azHQsu6h1aCeMr24hcORYMAm1YnST52K_Lncg5ntm8bNR3HG6x4L81tqkhXMVUUgrjd0Is6vre9k8iTHqPpSFp1NYX", "width": 992}], "place_id": "ChIJY6tevDRp9DkRxOjNXgZGTmE", "plus_code": {"compound_code": "QVQH+GQ Gumia, Jharkhand, India", "global_code": "7MM7QVQH+GQ"}, "reference": "ChIJY6tevDRp9DkRxOjNXgZGTmE", "scope": "GOOGLE", "types": ["atm", "bank", "finance", "point_of_interest", "establishment"], "vicinity": "Ground Floor, opposite Kali Mandir, Gumia"}, {"business_status": "OPERATIONAL", "geometry": {"location": {"lat": 23.7887726, "lng": 85.87941719999999}, "viewport": {"northeast": {"lat": 23.7901180802915, "lng": 85.8807718802915}, "southwest": {"lat": 23.7874201197085, "lng": 85.8780739197085}}}, "icon": "https://maps.gstatic.com/mapfiles/place_api/icons/v1/png_71/bank-71.png", "icon_background_color": "#909CE1", "icon_mask_base_uri": "https://maps.gstatic.com/mapfiles/place_api/icons/v2/bank-intl_pinlet", "name": "Axis Bank", "opening_hours": {"open_now": true}, "photos": [{"height": 3264, "html_attributions": ["<a href=\"https://maps.google.com/maps/contrib/112589826568773371757\">Dilchand Hansda</a>"], "photo_reference": "Aap_uEAHYclWIN3pO8dzYqHMlQk1qEQpv8Xv74rk22ZigUJptrm14PTTbwNY1Wl7bMsPSaOe4OAsdBdjlqMQrGh-TTjFTW9sCjL8IMrN-GdXYLcLzN8_P-qc5bMYUooqdf1fBlAejyHhIsmkab1J9--bxthXxmWYeb9Aaz-rb4eYRGp2kaj_", "width": 2448}], "place_id": "ChIJY6tevDRp9DkRMYyolVTuuUc", "plus_code": {"compound_code": "QVQH+GQ Gumia, Jharkhand, India", "global_code": "7MM7QVQH+GQ"}, "rating": 3.7, "reference": "ChIJY6tevDRp9DkRMYyolVTuuUc", "scope": "GOOGLE", "types": ["bank", "atm", "finance", "point_of_interest", "establishment"], "user_ratings_total": 7, "vicinity": "opposite Kali Mandir, Post Office More, opposite Kali Mandir, Gumia"}, {"business_status": "OPERATIONAL", "geometry": {"location": {"lat": 23.7978583, "lng": 85.8844405}, "viewport": {"northeast": {"lat": 23.7992003302915, "lng": 85.88578848029151}, "southwest": {"lat": 23.7965023697085, "lng": 85.88309051970849}}}, "icon": "https://maps.gstatic.com/mapfiles/place_api/icons/v1/png_71/bank-71.png", "icon_background_color": "#909CE1", "icon_mask_base_uri": "https://maps.gstatic.com/mapfiles/place_api/icons/v2/bank-intl_pinlet", "name": "SBI Bank", "opening_hours": {"open_now": true}, "photos": [{"height": 4128, "html_attributions": ["<a href=\"https://maps.google.com/maps/contrib/110150835313953954212\">TRV. COSMIC</a>"], "photo_reference": "Aap_uEBNq9ogeNM5nyNkK5mtx_1GZLk0BWZEErWWAloJnuJTaWjVDievEdSlFZPiggXYSHJcJQuDZAkJciXsj_MDHylW1JhD5n0nnm0AVu_SjDvf8QaSUMWJHZrlvpEcY-1etzX6Hg5zBlSfI5Fmp90RD5bomESYLRGKOjrcWunXVS3l-RKC", "width": 3096}], "place_id": "ChIJgz4nV0UU9DkRlE8eFRQy2yU", "plus_code": {"compound_code": "QVXM+4Q Bokaro, Jharkhand, India", "global_code": "7MM7QVXM+4Q"}, "rating": 3.8, "reference": "ChIJgz4nV0UU9DkRlE8eFRQy2yU", "scope": "GOOGLE", "types": ["bank", "finance", "point_of_interest", "establishment"], "user_ratings_total": 4, "vicinity": "KARGALI-BAZAR P.O-BERMO, PHUSRO BAZAR, Bokaro"}], "status": "OK"}