{"html_attributions": [], "results": [{"business_status": "OPERATIONAL", "geometry": {"location": {"lat": 23.755771, "lng": 86.06685159999999}, "viewport": {"northeast": {"lat": 23.7568827802915, "lng": 86.06810368029151}, "southwest": {"lat": 23.7541848197085, "lng": 86.0654057197085}}}, "icon": "https://maps.gstatic.com/mapfiles/place_api/icons/v1/png_71/train-71.png", "icon_background_color": "#10BDFF", "icon_mask_base_uri": "https://maps.gstatic.com/mapfiles/place_api/icons/v2/train_rail_1_pinlet", "name": "Bhandaridha Upper Band", "photos": [{"height": 3264, "html_attributions": ["<a href=\"https://maps.google.com/maps/contrib/100258852844161240576\">Muna Pankaj</a>"], "photo_reference": "Aap_uEA2apvTJ0G1EAWyhyLyL_isthI1E1y4Y5q3q_W1ZN9hRcgJaoDgfW84GiboBJTKHy1DMYIA3NUHef3ddjkzzWcsNiGl6Uk1lF5HypKhJpRRT1bWDNohqlp4lPI7xpkwsteZF4atskL7Fto9r8LCtS5ZYLLb2dUtF_pJJWpn7qs2R7bY", "width": 2448}], "place_id": "ChIJEQKgoqYX9DkRm8dRSzgwl4c", "plus_code": {"compound_code": "Q348+8P Chirudih, Jharkhand, India", "global_code": "7MM8Q348+8P"}, "rating": 3, "reference": "ChIJEQKgoqYX9DkRm8dRSzgwl4c", "scope": "GOOGLE", "types": ["train_station", "transit_station", "point_of_interest", "establishment"], "user_ratings_total": 4, "vicinity": "Bhandaridah, Chirudih"}, {"business_status": "OPERATIONAL", "geometry": {"location": {"lat": 23.7503585, "lng": 86.0803948}, "viewport": {"northeast": {"lat": 23.7514457802915, "lng": 86.0815729802915}, "southwest": {"lat": 23.74874781970849, "lng": 86.07887501970849}}}, "icon": "https://maps.gstatic.com/mapfiles/place_api/icons/v1/png_71/train-71.png", "icon_background_color": "#10BDFF", "icon_mask_base_uri": "https://maps.gstatic.com/mapfiles/place_api/icons/v2/train_rail_1_pinlet", "name": "Rajabera Block Hut", "photos": [{"height": 1920, "html_attributions": ["<a href=\"https://maps.google.com/maps/contrib/114814256670114738549\">Sameer Pandey</a>"], "photo_reference": "Aap_uEBvTF-rw534dXBrZpelf5dKn9uFk1vLV3o_MeKEL3u7AE01n7bwTHMkAfI_PzFuFnbPDaAangArUtzGPCWj4ajzrPmC1h99mQcJRolsfG2f3j5OoDnLFinEfjR_o07OSY7UnGXy931wh3kd5sRBUS0Evxpnl2gIZ9NjvjOPeOKZm6-i", "width": 2560}], "place_id": "ChIJKc_5ZJoX9DkRU4n_9ABus3s", "plus_code": {"compound_code": "Q32J+45 Raja Bera, Jharkhand, India", "global_code": "7MM8Q32J+45"}, "rating": 3.5, "reference": "ChIJKc_5ZJoX9DkRU4n_9ABus3s", "scope": "GOOGLE", "types": ["train_station", "transit_station", "point_of_interest", "establishment"], "user_ratings_total": 12, "vicinity": "Raja Bera"}, {"business_status": "OPERATIONAL", "geometry": {"location": {"lat": 23.7565606, "lng": 86.05520609999999}, "viewport": {"northeast": {"lat": 23.7577880802915, "lng": 86.0565018302915}, "southwest": {"lat": 23.7550901197085, "lng": 86.05380386970849}}}, "icon": "https://maps.gstatic.com/mapfiles/place_api/icons/v1/png_71/train-71.png", "icon_background_color": "#10BDFF", "icon_mask_base_uri": "https://maps.gstatic.com/mapfiles/place_api/icons/v2/train_rail_1_pinlet", "name": "Bhandaridah", "photos": [{"height": 2890, "html_attributions": ["<a href=\"https://maps.google.com/maps/contrib/110482021864721658199\">Nitish Kumar</a>"], "photo_reference": "Aap_uECeFilqWhB40S8EFLXQXDYTBzZ4DO5o8Rc8gJG-BHfMS_0GBoodDkcA1lqXzIEbPZXlzyiiFMNWxXs9XCrsqHUUdNmWvK6J6Ugx8eiQG1Dvio2A9RoTjDEIZt2APWVmVNGca7gUkLdnnnpjACzWxLbxjHtvaGPg9_wqx2AgFcvzsCuG", "width": 4608}], "place_id": "ChIJ4WgfDKsX9DkRja7KQcTJhHM", "plus_code": {"compound_code": "Q344+J3 Bhandaridah, Jharkhand, India", "global_code": "7MM8Q344+J3"}, "rating": 3.4, "reference": "ChIJ4WgfDKsX9DkRja7KQcTJhHM", "scope": "GOOGLE", "types": ["train_station", "transit_station", "point_of_interest", "establishment"], "user_ratings_total": 15, "vicinity": "Bhandaridah"}], "status": "OK"}