{"html_attributions": [], "results": [{"business_status": "OPERATIONAL", "geometry": {"location": {"lat": 23.7934452, "lng": 86.3200224}, "viewport": {"northeast": {"lat": 23.7947921302915, "lng": 86.3213699802915}, "southwest": {"lat": 23.79209416970849, "lng": 86.31867201970849}}}, "icon": "https://maps.gstatic.com/mapfiles/place_api/icons/v1/png_71/train-71.png", "icon_background_color": "#10BDFF", "icon_mask_base_uri": "https://maps.gstatic.com/mapfiles/place_api/icons/v2/train_rail_1_pinlet", "name": "Angarpathra Halt", "photos": [{"height": 675, "html_attributions": ["<a href=\"https://maps.google.com/maps/contrib/107942675070830116542\">Sarbani Das</a>"], "photo_reference": "Aap_uEARlbhFCTUT9wBSJJB-dz7T4vQh4Tbietan6iiEJGC-J7oJdIX7lwyRLHrYMyWQa9UOltBRAIQgVHwLHKcCC3JiRzQykhhCxc0t9dv3zFJaVFX5F993wwnK3elviR0QZvhrWWHFaRsQ-xYHdHNttGy5tN3exj5G-SJD3KhNbZoCxBs-", "width": 1200}], "place_id": "ChIJe8PhrEGh9jkR_u3_6fcXCk4", "plus_code": {"compound_code": "Q8VC+92 Angarpathar, Jharkhand, India", "global_code": "7MM8Q8VC+92"}, "rating": 2.7, "reference": "ChIJe8PhrEGh9jkR_u3_6fcXCk4", "scope": "GOOGLE", "types": ["train_station", "transit_station", "point_of_interest", "establishment"], "user_ratings_total": 9, "vicinity": "India"}, {"business_status": "OPERATIONAL", "geometry": {"location": {"lat": 23.7963547, "lng": 86.3020399}, "viewport": {"northeast": {"lat": 23.7978794302915, "lng": 86.30332773029151}, "southwest": {"lat": 23.7951814697085, "lng": 86.30062976970851}}}, "icon": "https://maps.gstatic.com/mapfiles/place_api/icons/v1/png_71/train-71.png", "icon_background_color": "#10BDFF", "icon_mask_base_uri": "https://maps.gstatic.com/mapfiles/place_api/icons/v2/train_rail_1_pinlet", "name": "Katrasgarh", "photos": [{"height": 4000, "html_attributions": ["<a href=\"https://maps.google.com/maps/contrib/111665791060845243403\">Hemlal Kewat</a>"], "photo_reference": "Aap_uECYof31qj0rOXcjh4s_mxNVEKdgptJ-TO5CWhD69YDoIy0_3x6Zk6GSmnjRLLNovxiIPbrPa5bKbsagFKra_lCLgLXzhvUj9GmCo4C0w0ogiUaK7mBbYMW3ycGAjRtlikkT67ra5LWZl18FtWxgqY6VqsscuupnNUbvCSAvTvGXyjjb", "width": 1800}], "place_id": "ChIJTbzWVCGh9jkRq7j0DDbeYVU", "plus_code": {"compound_code": "Q8W2+GR Katras, Jharkhand, India", "global_code": "7MM8Q8W2+GR"}, "rating": 3.8, "reference": "ChIJTbzWVCGh9jkRq7j0DDbeYVU", "scope": "GOOGLE", "types": ["train_station", "transit_station", "point_of_interest", "establishment"], "user_ratings_total": 111, "vicinity": "Katras"}, {"business_status": "OPERATIONAL", "geometry": {"location": {"lat": 23.7903126, "lng": 86.32982249999999}, "viewport": {"northeast": {"lat": 23.79169658029151, "lng": 86.33109978029151}, "southwest": {"lat": 23.7889986197085, "lng": 86.32840181970849}}}, "icon": "https://maps.gstatic.com/mapfiles/place_api/icons/v1/png_71/train-71.png", "icon_background_color": "#10BDFF", "icon_mask_base_uri": "https://maps.gstatic.com/mapfiles/place_api/icons/v2/train_rail_1_pinlet", "name": "Sijua", "photos": [{"height": 1836, "html_attributions": ["<a href=\"https://maps.google.com/maps/contrib/100301004558823654160\">Ashish Jha</a>"], "photo_reference": "Aap_uEBpqLLOkqGvHze71tDj-y14qoULfG3bIhibbZVtROoMavB9VS_jp36_qRp9EGneI0PS6MhFMgPiKmutGfuWktJEa6APnDFhYr5UiRUbhsuEUnX1p4YEWIHkxfRWmyBgBZfDEkXi5p2xd8Ya1s004ScJV0VIWwpbuFLp33bdO867lZg", "width": 3264}], "place_id": "ChIJHQRtdmeh9jkRIjQbr56R_L8", "plus_code": {"compound_code": "Q8RH+4W Sijua, Jharkhand, India", "global_code": "7MM8Q8RH+4W"}, "rating": 3.6, "reference": "ChIJHQRtdmeh9jkRIjQbr56R_L8", "scope": "GOOGLE", "types": ["train_station", "transit_station", "point_of_interest", "establishment"], "user_ratings_total": 15, "vicinity": "Sijua"}, {"business_status": "OPERATIONAL", "geometry": {"location": {"lat": 23.79293, "lng": 86.29221}, "viewport": {"northeast": {"lat": 23.7943466802915, "lng": 86.29360683029151}, "southwest": {"lat": 23.7916487197085, "lng": 86.2909088697085}}}, "icon": "https://maps.gstatic.com/mapfiles/place_api/icons/v1/png_71/train-71.png", "icon_background_color": "#10BDFF", "icon_mask_base_uri": "https://maps.gstatic.com/mapfiles/place_api/icons/v2/train_rail_1_pinlet", "name": "Tentulla", "photos": [{"height": 4000, "html_attributions": ["<a href=\"https://maps.google.com/maps/contrib/101685490319471188410\">shawaz hussain</a>"], "photo_reference": "Aap_uEDhXMApj1NJRD_dzoe18XzFmgEaUYrwUDQtlW-nqvmWPsLa8-V5sFsbPUHBE7_9vKlBEZ6k6DmTvR1kvz-yFxPGPw-sqGqtqCsyFhYHQVjLCtshOoQ4v38KulnI1Jw6kPEzmZUI2ilVIq2F0h7dCthvr211ykrqvzB9Lmio6naJwdAM", "width": 3000}], "place_id": "ChIJ-8ssed6g9jkRpFEePhWwLAw", "plus_code": {"compound_code": "Q7VR+5V Katras, Jharkhand, India", "global_code": "7MM8Q7VR+5V"}, "rating": 2.9, "reference": "ChIJ-8ssed6g9jkRpFEePhWwLAw", "scope": "GOOGLE", "types": ["train_station", "transit_station", "point_of_interest", "establishment"], "user_ratings_total": 8, "vicinity": "India"}], "status": "OK"}