{"html_attributions": [], "results": [{"business_status": "OPERATIONAL", "geometry": {"location": {"lat": 23.8017761, "lng": 86.3946718}, "viewport": {"northeast": {"lat": 23.8030594802915, "lng": 86.39576313029151}, "southwest": {"lat": 23.8003615197085, "lng": 86.39306516970849}}}, "icon": "https://maps.gstatic.com/mapfiles/place_api/icons/v1/png_71/train-71.png", "icon_background_color": "#10BDFF", "icon_mask_base_uri": "https://maps.gstatic.com/mapfiles/place_api/icons/v2/train_rail_1_pinlet", "name": "Bhuli", "photos": [{"height": 1836, "html_attributions": ["<a href=\"https://maps.google.com/maps/contrib/104548926811246682864\">Papai Sadhu</a>"], "photo_reference": "Aap_uEBtFRv9y5IrsRQ1T7371dN-C6B6CHFY-CnRHr35UmQzLjxARKNOic8Ad3UwfRee_3WJcbWX08zA-YzNPpFUDFtVjzWJ99ugEX4y2LEhfPQKgWHB6yZ8J05AIzDP5wp7SSE8rDRnhXPDMxsMUoWDjfxW617sB_eAaXAHqriF1KbLumbD", "width": 3264}], "place_id": "ChIJ_x_x2Gij9jkRk7oGVTPhWj4", "plus_code": {"compound_code": "R92V+PV Dhanbad, Jharkhand, India", "global_code": "7MM8R92V+PV"}, "rating": 3.9, "reference": "ChIJ_x_x2Gij9jkRk7oGVTPhWj4", "scope": "GOOGLE", "types": ["train_station", "transit_station", "point_of_interest", "establishment"], "user_ratings_total": 45, "vicinity": "Jalan Nagar, Dhanbad"}, {"business_status": "OPERATIONAL", "geometry": {"location": {"lat": 23.7899453, "lng": 86.3960554}, "viewport": {"northeast": {"lat": 23.7910978302915, "lng": 86.3974506302915}, "southwest": {"lat": 23.7883998697085, "lng": 86.3947526697085}}}, "icon": "https://maps.gstatic.com/mapfiles/place_api/icons/v1/png_71/train-71.png", "icon_background_color": "#10BDFF", "icon_mask_base_uri": "https://maps.gstatic.com/mapfiles/place_api/icons/v2/train_rail_1_pinlet", "name": "Kusunda Junction", "photos": [{"height": 3120, "html_attributions": ["<a href=\"https://maps.google.com/maps/contrib/117913329967953398462\">Chandan Kumar</a>"], "photo_reference": "Aap_uEDFA-JLkHIjpRUBTYuoClVXh_xo6r8DI7uULjLw-pXT33GCB8-fH1lE-W5ehp_7TZXmqaj5BLUOmTT89RobLrTOXqQpWMG2JTO9VduLry_6mUudVzehYBTZ6244IkTUAuwlUDnFrc5PA5jBoBxQOJFO79YeMOBCLixab3ZMs0bLHCP2", "width": 4160}], "place_id": "ChIJHbasqxWj9jkRd6Yjl0D--fs", "plus_code": {"compound_code": "Q9QW+XC Dhanbad, Jharkhand, India", "global_code": "7MM8Q9QW+XC"}, "rating": 3.5, "reference": "ChIJHbasqxWj9jkRd6Yjl0D--fs", "scope": "GOOGLE", "types": ["train_station", "transit_station", "point_of_interest", "establishment"], "user_ratings_total": 27, "vicinity": "Dhanbad"}, {"business_status": "OPERATIONAL", "geometry": {"location": {"lat": 23.7864, "lng": 86.37577999999999}, "viewport": {"northeast": {"lat": 23.7876769302915, "lng": 86.3771039802915}, "southwest": {"lat": 23.78497896970849, "lng": 86.37440601970849}}}, "icon": "https://maps.gstatic.com/mapfiles/place_api/icons/v1/png_71/train-71.png", "icon_background_color": "#10BDFF", "icon_mask_base_uri": "https://maps.gstatic.com/mapfiles/place_api/icons/v2/train_rail_1_pinlet", "name": "Baseria", "photos": [{"height": 1080, "html_attributions": ["<a href=\"https://maps.google.com/maps/contrib/116926583722261588134\">\u0f3aroy\u0365\u0e2al\u0363y\u036b\u0e2a\u1599\u03b1v\u0f3b</a>"], "photo_reference": "Aap_uEBzPOKvfERGKOXa1x4BOmSA7NgIjBRCL5sSOZ9xpspeey1FPt479fAKgNfShYM3VT_b4zxDj2KH9_xvpV8YaNjV804dg-HvjjJ9LffodPb1JhdaIo3K01eRgcMCXytXcyaHXiIhKX46VVYA91IG5IpG2gFI5YQj2oD6pgYtrbU8srlD", "width": 1920}], "place_id": "ChIJbWovK6ej9jkRW3LcMTSHFec", "plus_code": {"compound_code": "Q9PG+H8 Kusunda, Jharkhand, India", "global_code": "7MM8Q9PG+H8"}, "rating": 3.8, "reference": "ChIJbWovK6ej9jkRW3LcMTSHFec", "scope": "GOOGLE", "types": ["train_station", "transit_station", "point_of_interest", "establishment"], "user_ratings_total": 17, "vicinity": "India"}], "status": "OK"}