{"html_attributions": [], "results": [{"business_status": "OPERATIONAL", "geometry": {"location": {"lat": 23.6776449, "lng": 86.2088132}, "viewport": {"northeast": {"lat": 23.67898078029151, "lng": 86.21025918029152}, "southwest": {"lat": 23.6762828197085, "lng": 86.2075612197085}}}, "icon": "https://maps.gstatic.com/mapfiles/place_api/icons/v1/png_71/civic_building-71.png", "icon_background_color": "#7B9EB0", "icon_mask_base_uri": "https://maps.gstatic.com/mapfiles/place_api/icons/v2/civic-bldg_pinlet", "name": "Chas [Mufsil Police Station]", "opening_hours": {"open_now": true}, "photos": [{"height": 3120, "html_attributions": ["<a href=\"https://maps.google.com/maps/contrib/100766366103012520852\">Arbind Mahatha</a>"], "photo_reference": "Aap_uEAPSRXI31jYiOuFBR6WtwaVW7xbkWv4opQ_Rh-d78m7D-6MR9__tpvqtv5hNAE6N2gbvl5CZv1MNSiBfmrCn0yECGkb0Af39fRs44Slx5oP-AHmwWMiTBfJL9rrSdYqSUMHxvjXd4U_A_1IjMhZM9LfuNRIKIMTM2qxa9v8zUeklX2-", "width": 4160}], "place_id": "ChIJYX9l8Bch9DkRX6AamYAY4-o", "rating": 5, "reference": "ChIJYX9l8Bch9DkRX6AamYAY4-o", "scope": "GOOGLE", "types": ["police", "point_of_interest", "establishment"], "user_ratings_total": 1, "vicinity": "M6H5+3G4, Kalapathar"}, {"business_status": "OPERATIONAL", "geometry": {"location": {"lat": 23.6773007, "lng": 86.2083328}, "viewport": {"northeast": {"lat": 23.6787757802915, "lng": 86.2098315802915}, "southwest": {"lat": 23.6760778197085, "lng": 86.20713361970849}}}, "icon": "https://maps.gstatic.com/mapfiles/place_api/icons/v1/png_71/civic_building-71.png", "icon_background_color": "#7B9EB0", "icon_mask_base_uri": "https://maps.gstatic.com/mapfiles/place_api/icons/v2/civic-bldg_pinlet", "name": "Police Station Chas Mufassil", "opening_hours": {"open_now": true}, "photos": [{"height": 3472, "html_attributions": ["<a href=\"https://maps.google.com/maps/contrib/105326714459405073669\">Harendra Singh</a>"], "photo_reference": "Aap_uEDOjdz8pV-hbuca7_KbLUnvqqJXS2YmusQv8CBhHeKWVJPITE8_sNCc8_BhIAmZZpojxkcWZfiy5yCbWMYZp-Px7L5li0F_9H3Io9xpBFCU-AB8UKhBGKJuuWjnvcG6KE4aUC6oJSoLzU2wYE4QINYN6WOhOYgctYeyzOTZPUVWplq6", "width": 4624}], "place_id": "ChIJx48m4q4h9DkRvtujerngquM", "reference": "ChIJx48m4q4h9DkRvtujerngquM", "scope": "GOOGLE", "types": ["police", "point_of_interest", "establishment"], "vicinity": "M6G5+W8G, Bokaro Steel City"}, {"business_status": "CLOSED_TEMPORARILY", "geometry": {"location": {"lat": 23.67714010000001, "lng": 86.2083603}, "viewport": {"northeast": {"lat": 23.67864563029151, "lng": 86.2098953302915}, "southwest": {"lat": 23.6759476697085, "lng": 86.2071973697085}}}, "icon": "https://maps.gstatic.com/mapfiles/place_api/icons/v1/png_71/school-71.png", "icon_background_color": "#7B9EB0", "icon_mask_base_uri": "https://maps.gstatic.com/mapfiles/place_api/icons/v2/school_pinlet", "name": "Chas Mu Police Station", "permanently_closed": true, "place_id": "ChIJCV2v4a4h9DkRW8MM-VonAKI", "reference": "ChIJCV2v4a4h9DkRW8MM-VonAKI", "scope": "GOOGLE", "types": ["police", "point_of_interest", "establishment"], "vicinity": "M6G5+V85, Bokaro Steel City"}], "status": "OK"}