{"html_attributions": [], "results": [{"business_status": "OPERATIONAL", "geometry": {"location": {"lat": 23.7935569, "lng": 86.4252618}, "viewport": {"northeast": {"lat": 23.7949136302915, "lng": 86.4265970802915}, "southwest": {"lat": 23.7922156697085, "lng": 86.42389911970848}}}, "icon": "https://maps.gstatic.com/mapfiles/place_api/icons/v1/png_71/train-71.png", "name": "Naya Bazar Railway Crossing 3", "photos": [{"height": 581, "html_attributions": ["<a href=\"https://maps.google.com/maps/contrib/114781341483612269370\">Ashmita Ray</a>"], "photo_reference": "ATtYBwISSONBTNYbXKUQjrZWblXG9Xf2xtCeSIpsrLPjGmyeY9BTXuu_UbnoH6ROgoypVv-OBZggymyWks7iLJFC-R4m2Jpr5HrEr8nSfgjSEfyNUJ9poQTaPAVcM6aY2pl180awgUG4PydpH71nxK2dJmHh43IO-EntHhzhkB135zxCAyh1", "width": 1032}], "place_id": "ChIJaRbtILa89jkRlGIye4_w1Yc", "plus_code": {"compound_code": "QCVG+C4 Dhanbad, Jharkhand, India", "global_code": "7MM8QCVG+C4"}, "rating": 4.5, "reference": "ChIJaRbtILa89jkRlGIye4_w1Yc", "scope": "GOOGLE", "types": ["train_station", "transit_station", "point_of_interest", "establishment"], "user_ratings_total": 4, "vicinity": "National Highway 32, Pandey Muhalla, Dhanbad"}, {"business_status": "OPERATIONAL", "geometry": {"location": {"lat": 23.7925537, "lng": 86.4280411}, "viewport": {"northeast": {"lat": 23.79399615000001, "lng": 86.42963088029151}, "southwest": {"lat": 23.78940875, "lng": 86.4269329197085}}}, "icon": "https://maps.gstatic.com/mapfiles/place_api/icons/v1/png_71/train-71.png", "name": "Dhanbad Junction", "photos": [{"height": 3000, "html_attributions": ["<a href=\"https://maps.google.com/maps/contrib/114250353945955096938\">Gaurav Kumar</a>"], "photo_reference": "ATtYBwIKOXK57KJjBedhh9btKo1i5AjEnNf_vh27upytMxoNMuP0_0lhvHieVkwjmfX-LIEm6L3NgI7_OwKmFErimLRjE5rZVg-4Yc9MvW2Baods4dvYXDObaRlkEziZPmm9T5C1X-BlzSMdFhvasFRiDKn_LkAzXTq_UKKVieKc5Dg7ZfBm", "width": 4000}], "place_id": "ChIJ90QPEci89jkR56l-SYrE_ow", "plus_code": {"compound_code": "QCVH+26 Dhanbad, Jharkhand, India", "global_code": "7MM8QCVH+26"}, "rating": 4.2, "reference": "ChIJ90QPEci89jkR56l-SYrE_ow", "scope": "GOOGLE", "types": ["train_station", "transit_station", "point_of_interest", "establishment"], "user_ratings_total": 5429, "vicinity": "Pandey Muhalla, Dhanbad"}, {"business_status": "OPERATIONAL", "geometry": {"location": {"lat": 23.8017761, "lng": 86.3946718}, "viewport": {"northeast": {"lat": 23.8030594802915, "lng": 86.39576313029151}, "southwest": {"lat": 23.8003615197085, "lng": 86.39306516970849}}}, "icon": "https://maps.gstatic.com/mapfiles/place_api/icons/v1/png_71/train-71.png", "name": "Bhuli", "photos": [{"height": 1836, "html_attributions": ["<a href=\"https://maps.google.com/maps/contrib/104548926811246682864\">Papai Sadhu</a>"], "photo_reference": "ATtYBwJKSgaSuDTzTDfUQHBBs19XIQ2Zs9CVuBmO0-RHndUgyv__UnotPZVymP4qaFd1JzC8HDsBvOAgydMfBfD4PNZux3V-9l6K8quGWRXhmAPkygvou3vMdNVFy3Offmb7XWL70Ib3m8VYZa0U9urjBarUtk9nrRHVI0rwJ-cQBxwoq5hG", "width": 3264}], "place_id": "ChIJ_x_x2Gij9jkRk7oGVTPhWj4", "plus_code": {"compound_code": "R92V+PV Dhanbad, Jharkhand, India", "global_code": "7MM8R92V+PV"}, "rating": 3.9, "reference": "ChIJ_x_x2Gij9jkRk7oGVTPhWj4", "scope": "GOOGLE", "types": ["train_station", "transit_station", "point_of_interest", "establishment"], "user_ratings_total": 44, "vicinity": "Jalan Nagar, Dhanbad"}], "status": "OK"}