{"html_attributions": [], "results": [{"business_status": "OPERATIONAL", "geometry": {"location": {"lat": 23.6650106, "lng": 86.41944939999999}, "viewport": {"northeast": {"lat": 23.6663613302915, "lng": 86.4208006802915}, "southwest": {"lat": 23.6636633697085, "lng": 86.41810271970849}}}, "icon": "https://maps.gstatic.com/mapfiles/place_api/icons/v1/png_71/train-71.png", "name": "Bhowra EJA railway siding", "opening_hours": {"open_now": true}, "place_id": "ChIJA49fcH2X9jkRB5-PIosFPWA", "plus_code": {"compound_code": "MC89+2Q Pathardih, Jharkhand, India", "global_code": "7MM8MC89+2Q"}, "rating": 2.8, "reference": "ChIJA49fcH2X9jkRB5-PIosFPWA", "scope": "GOOGLE", "types": ["train_station", "transit_station", "point_of_interest", "establishment"], "user_ratings_total": 5, "vicinity": "gosai than"}, {"business_status": "OPERATIONAL", "geometry": {"location": {"lat": 23.6550742, "lng": 86.4401099}, "viewport": {"northeast": {"lat": 23.6562643802915, "lng": 86.4414531302915}, "southwest": {"lat": 23.6535664197085, "lng": 86.4387551697085}}}, "icon": "https://maps.gstatic.com/mapfiles/place_api/icons/v1/png_71/train-71.png", "name": "Sudamdih", "photos": [{"height": 2400, "html_attributions": ["<a href=\"https://maps.google.com/maps/contrib/104154723025107143462\">Sarat Chandra</a>"], "photo_reference": "ATtYBwIZ5JdOiYjdxdWBb8GYEtFJ2WIiQ_-EvwjVfaTBHz9Ni8KfxkvK_A2iOgkOWA6R702LH2-gGlxtqrydiAbYdVu7yEpbld5KPCEZUspFpib9rIcEPyH2XLBOE90Wv46p7Uo0lyo1ZqPXw52jCb4hpReyU1NuDigyWWpNvV6RXAtu6kE", "width": 3200}], "place_id": "ChIJNWyhwhSX9jkRN4gAEBnZy98", "plus_code": {"compound_code": "MC4R+22 Pathardih, Jharkhand, India", "global_code": "7MM8MC4R+22"}, "rating": 4.2, "reference": "ChIJNWyhwhSX9jkRN4gAEBnZy98", "scope": "GOOGLE", "types": ["train_station", "transit_station", "point_of_interest", "establishment"], "user_ratings_total": 60, "vicinity": "sudamdih, Pathardih"}, {"business_status": "OPERATIONAL", "geometry": {"location": {"lat": 23.6699965, "lng": 86.4166831}, "viewport": {"northeast": {"lat": 23.6712201302915, "lng": 86.41816058029151}, "southwest": {"lat": 23.6685221697085, "lng": 86.41546261970849}}}, "icon": "https://maps.gstatic.com/mapfiles/place_api/icons/v1/png_71/train-71.png", "name": "Bhowra Junction", "photos": [{"height": 2250, "html_attributions": ["<a href=\"https://maps.google.com/maps/contrib/107176595611183293216\">Zissan Alam</a>"], "photo_reference": "ATtYBwIow9QTaBr742r4Xua_o61cIZSOkSyuAW_fdIAqzx2jIzsmaAjg8C90SixoJrdxbJXnQsYaeLmnW996m6aRwCp2DTbMBpQqc4VoxOUsLaPHA0WTJLPtOnlhkjCVBfjk5B0j2bX2KaUfvizEjzu2pwhToVZLzoIiXUUr5frdy_L9f8E8", "width": 4000}], "place_id": "ChIJR_46tNWZ9jkRXjGxYilFfAE", "plus_code": {"compound_code": "MC98+XM Pathardih, Jharkhand, India", "global_code": "7MM8MC98+XM"}, "rating": 3.9, "reference": "ChIJR_46tNWZ9jkRXjGxYilFfAE", "scope": "GOOGLE", "types": ["train_station", "transit_station", "point_of_interest", "establishment"], "user_ratings_total": 44, "vicinity": "Bhowrah, Pathardih"}], "status": "OK"}