{"html_attributions": [], "results": [{"business_status": "OPERATIONAL", "geometry": {"location": {"lat": 24.8590155, "lng": 85.8261019}, "viewport": {"northeast": {"lat": 24.8602498802915, "lng": 85.82746923029151}, "southwest": {"lat": 24.8575519197085, "lng": 85.8247712697085}}}, "icon": "https://maps.gstatic.com/mapfiles/place_api/icons/v1/png_71/school-71.png", "icon_background_color": "#7B9EB0", "icon_mask_base_uri": "https://maps.gstatic.com/mapfiles/place_api/icons/v2/school_pinlet", "name": "\u0936\u094d\u0930\u0940 \u0928\u0902\u0926\u0915\u093f\u0936\u094b\u0930 \u0935\u0930\u094d\u092e\u093e", "photos": [{"height": 1080, "html_attributions": ["<a href=\"https://maps.google.com/maps/contrib/113751622320524295996\">Chandan Kumar</a>"], "photo_reference": "Aap_uEDld-Tb7dpWGEW9IQcHpKX8yuyC8Y-DJCH747-0_nzdNpmENunvdh33Cc4f8RqW_jHAX61IdYLEuI5zr_D6LkX62LHATQvSBMnhQg7OmDCYxHAHMvdHZ2C02o3xerbL4M-GSgExZUmUfTBH-ELugEIi7YIqso9GmQLmjC0mQ5BTogJL", "width": 2280}], "place_id": "ChIJMT5uDq1N8jkRcWK2vP5qJCo", "plus_code": {"compound_code": "VR5G+JC Katni, Bihar, India", "global_code": "7MP7VR5G+JC"}, "reference": "ChIJMT5uDq1N8jkRcWK2vP5qJCo", "scope": "GOOGLE", "types": ["school", "point_of_interest", "establishment"], "vicinity": "Bukar Road, Katni"}, {"business_status": "OPERATIONAL", "geometry": {"location": {"lat": 24.857714, "lng": 85.834194}, "viewport": {"northeast": {"lat": 24.8591969802915, "lng": 85.8356275302915}, "southwest": {"lat": 24.8564990197085, "lng": 85.8329295697085}}}, "icon": "https://maps.gstatic.com/mapfiles/place_api/icons/v1/png_71/school-71.png", "icon_background_color": "#7B9EB0", "icon_mask_base_uri": "https://maps.gstatic.com/mapfiles/place_api/icons/v2/school_pinlet", "name": "Aanganwadi Kendra", "place_id": "ChIJz4Ah5MtN8jkR-I2dVRiVk7w", "plus_code": {"compound_code": "VR5M+3M Salaiya, Bihar, India", "global_code": "7MP7VR5M+3M"}, "rating": 5, "reference": "ChIJz4Ah5MtN8jkR-I2dVRiVk7w", "scope": "GOOGLE", "types": ["school", "point_of_interest", "establishment"], "user_ratings_total": 1, "vicinity": "Unnamed Road, Salaiya"}, {"business_status": "OPERATIONAL", "geometry": {"location": {"lat": 24.8575106, "lng": 85.8349458}, "viewport": {"northeast": {"lat": 24.8588265302915, "lng": 85.8362636802915}, "southwest": {"lat": 24.8561285697085, "lng": 85.83356571970849}}}, "icon": "https://maps.gstatic.com/mapfiles/place_api/icons/v1/png_71/school-71.png", "icon_background_color": "#7B9EB0", "icon_mask_base_uri": "https://maps.gstatic.com/mapfiles/place_api/icons/v2/school_pinlet", "name": "Govt.Middle School Salaiya Bihar", "place_id": "ChIJ7SSCKLhN8jkRs_sOrD9mqf0", "plus_code": {"compound_code": "VR5M+2X Salaiya, Bihar, India", "global_code": "7MP7VR5M+2X"}, "rating": 5, "reference": "ChIJ7SSCKLhN8jkRs_sOrD9mqf0", "scope": "GOOGLE", "types": ["school", "point_of_interest", "establishment"], "user_ratings_total": 2, "vicinity": "Badraji Road, Salaiya"}, {"business_status": "OPERATIONAL", "geometry": {"location": {"lat": 24.85735849999999, "lng": 85.83511209999999}, "viewport": {"northeast": {"lat": 24.8586799802915, "lng": 85.83642248029149}, "southwest": {"lat": 24.8559820197085, "lng": 85.83372451970848}}}, "icon": "https://maps.gstatic.com/mapfiles/place_api/icons/v1/png_71/school-71.png", "icon_background_color": "#7B9EB0", "icon_mask_base_uri": "https://maps.gstatic.com/mapfiles/place_api/icons/v2/school_pinlet", "name": "salaiya School", "place_id": "ChIJCSnCa6NN8jkRg4Vtf0uGKt4", "plus_code": {"compound_code": "VR4P+W2 Salaiya, Bihar, India", "global_code": "7MP7VR4P+W2"}, "rating": 5, "reference": "ChIJCSnCa6NN8jkRg4Vtf0uGKt4", "scope": "GOOGLE", "types": ["school", "point_of_interest", "establishment"], "user_ratings_total": 1, "vicinity": "Pakribarawan - Kawakol Road, Salaiya"}, {"business_status": "OPERATIONAL", "geometry": {"location": {"lat": 24.8560226, "lng": 85.823397}, "viewport": {"northeast": {"lat": 24.85710343029151, "lng": 85.8245409802915}, "southwest": {"lat": 24.8544054697085, "lng": 85.82184301970848}}}, "icon": "https://maps.gstatic.com/mapfiles/place_api/icons/v1/png_71/school-71.png", "icon_background_color": "#7B9EB0", "icon_mask_base_uri": "https://maps.gstatic.com/mapfiles/place_api/icons/v2/school_pinlet", "name": "R P S bhaluahi", "opening_hours": {"open_now": false}, "place_id": "ChIJE6fGzshM8jkRo3yXcm1Z608", "plus_code": {"compound_code": "VR4F+C9 Manjhila, Bihar, India", "global_code": "7MP7VR4F+C9"}, "rating": 4, "reference": "ChIJE6fGzshM8jkRo3yXcm1Z608", "scope": "GOOGLE", "types": ["school", "point_of_interest", "establishment"], "user_ratings_total": 2, "vicinity": "State Highway 82, Manjhila"}, {"business_status": "OPERATIONAL", "geometry": {"location": {"lat": 24.8546911, "lng": 85.8228718}, "viewport": {"northeast": {"lat": 24.8560772802915, "lng": 85.82428188029151}, "southwest": {"lat": 24.85337931970849, "lng": 85.8215839197085}}}, "icon": "https://maps.gstatic.com/mapfiles/place_api/icons/v1/png_71/school-71.png", "icon_background_color": "#7B9EB0", "icon_mask_base_uri": "https://maps.gstatic.com/mapfiles/place_api/icons/v2/school_pinlet", "name": "Jeevan Deep Public School Bindichak", "photos": [{"height": 3264, "html_attributions": ["<a href=\"https://maps.google.com/maps/contrib/114313164052651466204\">suraj kumar</a>"], "photo_reference": "Aap_uEBhAQGAaM6pDbpPdwcF9I5G0VfLsFq2KhlsnT8m4MZ3qwKyouCH9Tb4eNGn3BaLrkQstxjtC79LkAdlWdlCDoyjlbdw2eCcIhM-9hgIgZxADZ-KxW28YcM2WGjdR__katSrCibySwhMYVYUaauHx2dDJGH3fhM_y4qGoycUeFWo5WiL", "width": 2448}], "place_id": "ChIJI7Fv2Q1N8jkRBkWb8gbltLI", "rating": 5, "reference": "ChIJI7Fv2Q1N8jkRBkWb8gbltLI", "scope": "GOOGLE", "types": ["school", "point_of_interest", "establishment"], "user_ratings_total": 2, "vicinity": "VR3F+V4H, Manjhila"}, {"business_status": "OPERATIONAL", "geometry": {"location": {"lat": 24.856099, "lng": 85.8213359}, "viewport": {"northeast": {"lat": 24.85742833029151, "lng": 85.8226785302915}, "southwest": {"lat": 24.85473036970851, "lng": 85.81998056970849}}}, "icon": "https://maps.gstatic.com/mapfiles/place_api/icons/v1/png_71/school-71.png", "icon_background_color": "#7B9EB0", "icon_mask_base_uri": "https://maps.gstatic.com/mapfiles/place_api/icons/v2/school_pinlet", "name": "D P S Science Coaching", "opening_hours": {"open_now": true}, "photos": [{"height": 4608, "html_attributions": ["<a href=\"https://maps.google.com/maps/contrib/107884123772382697326\">Bigboss Raj Ch</a>"], "photo_reference": "Aap_uEA_M9usBGnvHf3KyKQ_hPhCRw5XBFEd-yyYCwV1LiZrXwh4b2hoLEt9mLqOe7idHeHODfWVU6IFq0l3DFuUMu8vebnt_NZNO8k8GtuURptG-jkK_TOTGdCIBqjDo3Zsj0Axuwq83ZRZGAmtfxZoBczmV8t6xIhhGaSFnNcS9HScK_ao", "width": 3456}], "place_id": "ChIJ81nAE89M8jkRP7j6whRG2Ys", "plus_code": {"compound_code": "VR4C+CG Manjhila, Bihar, India", "global_code": "7MP7VR4C+CG"}, "rating": 2.5, "reference": "ChIJ81nAE89M8jkRP7j6whRG2Ys", "scope": "GOOGLE", "types": ["school", "point_of_interest", "establishment"], "user_ratings_total": 2, "vicinity": "Bhaluahi 805107, Manjhila"}, {"business_status": "OPERATIONAL", "geometry": {"location": {"lat": 24.8509111, "lng": 85.8371231}, "viewport": {"northeast": {"lat": 24.8522024302915, "lng": 85.8384642802915}, "southwest": {"lat": 24.8495044697085, "lng": 85.8357663197085}}}, "icon": "https://maps.gstatic.com/mapfiles/place_api/icons/v1/png_71/school-71.png", "icon_background_color": "#7B9EB0", "icon_mask_base_uri": "https://maps.gstatic.com/mapfiles/place_api/icons/v2/school_pinlet", "name": "Primary School Koluaad", "place_id": "ChIJt33wxhlN8jkRbOI-AknrZnQ", "plus_code": {"compound_code": "VR2P+9R Manjhila, Bihar, India", "global_code": "7MP7VR2P+9R"}, "reference": "ChIJt33wxhlN8jkRbOI-AknrZnQ", "scope": "GOOGLE", "types": ["school", "point_of_interest", "establishment"], "vicinity": "State Highway 82, Manjhila"}, {"business_status": "OPERATIONAL", "geometry": {"location": {"lat": 24.8652813, "lng": 85.82174479999999}, "viewport": {"northeast": {"lat": 24.8668354302915, "lng": 85.8234474302915}, "southwest": {"lat": 24.8641374697085, "lng": 85.82074946970847}}}, "icon": "https://maps.gstatic.com/mapfiles/place_api/icons/v1/png_71/school-71.png", "icon_background_color": "#7B9EB0", "icon_mask_base_uri": "https://maps.gstatic.com/mapfiles/place_api/icons/v2/school_pinlet", "name": "Anish yadav", "place_id": "ChIJp2RJxohN8jkRsCKfKfz9UYk", "plus_code": {"compound_code": "VR8C+4M Kauakole, Bihar, India", "global_code": "7MP7VR8C+4M"}, "reference": "ChIJp2RJxohN8jkRsCKfKfz9UYk", "scope": "GOOGLE", "types": ["school", "point_of_interest", "establishment"], "vicinity": "katni, Kauakole"}, {"business_status": "OPERATIONAL", "geometry": {"location": {"lat": 24.8656564, "lng": 85.83821259999999}, "viewport": {"northeast": {"lat": 24.8669845802915, "lng": 85.8396464302915}, "southwest": {"lat": 24.8642866197085, "lng": 85.83694846970849}}}, "icon": "https://maps.gstatic.com/mapfiles/place_api/icons/v1/png_71/school-71.png", "icon_background_color": "#7B9EB0", "icon_mask_base_uri": "https://maps.gstatic.com/mapfiles/place_api/icons/v2/school_pinlet", "name": "Okhariya primary school", "place_id": "ChIJ_Su9pjlN8jkRi3-zNeXQdLc", "reference": "ChIJ_Su9pjlN8jkRi3-zNeXQdLc", "scope": "GOOGLE", "types": ["school", "point_of_interest", "establishment"], "vicinity": "VR8Q+778, Okhariya"}, {"business_status": "OPERATIONAL", "geometry": {"location": {"lat": 24.8685991, "lng": 85.8345459}, "viewport": {"northeast": {"lat": 24.8697219802915, "lng": 85.8360870802915}, "southwest": {"lat": 24.8670240197085, "lng": 85.83338911970849}}}, "icon": "https://maps.gstatic.com/mapfiles/place_api/icons/v1/png_71/school-71.png", "icon_background_color": "#7B9EB0", "icon_mask_base_uri": "https://maps.gstatic.com/mapfiles/place_api/icons/v2/school_pinlet", "name": "Prashant", "opening_hours": {"open_now": true}, "place_id": "ChIJTdeXPvlN8jkRDSiDV0bILHI", "reference": "ChIJTdeXPvlN8jkRDSiDV0bILHI", "scope": "GOOGLE", "types": ["school", "point_of_interest", "establishment"], "vicinity": "VR9M+CRM, Okhariya"}], "status": "OK"}