{"html_attributions": [], "results": [{"business_status": "OPERATIONAL", "geometry": {"location": {"lat": 24.3744378, "lng": 86.5999281}, "viewport": {"northeast": {"lat": 24.3758075802915, "lng": 86.60120193029151}, "southwest": {"lat": 24.3731096197085, "lng": 86.59850396970849}}}, "icon": "https://maps.gstatic.com/mapfiles/place_api/icons/v1/png_71/school-71.png", "icon_background_color": "#7B9EB0", "icon_mask_base_uri": "https://maps.gstatic.com/mapfiles/place_api/icons/v2/school_pinlet", "name": "Mohammad Furkqn House", "place_id": "ChIJoR5TatU58TkRUYzt4_T12uQ", "reference": "ChIJoR5TatU58TkRUYzt4_T12uQ", "scope": "GOOGLE", "types": ["school", "point_of_interest", "establishment"], "vicinity": "9HFX+QXF, Hussainabad"}, {"business_status": "OPERATIONAL", "geometry": {"location": {"lat": 24.3673612, "lng": 86.5914847}, "viewport": {"northeast": {"lat": 24.3685776802915, "lng": 86.5928497302915}, "southwest": {"lat": 24.3658797197085, "lng": 86.59015176970848}}}, "icon": "https://maps.gstatic.com/mapfiles/place_api/icons/v1/png_71/school-71.png", "icon_background_color": "#7B9EB0", "icon_mask_base_uri": "https://maps.gstatic.com/mapfiles/place_api/icons/v2/school_pinlet", "name": "Zeba Telecom", "opening_hours": {"open_now": true}, "photos": [{"height": 1080, "html_attributions": ["<a href=\"https://maps.google.com/maps/contrib/118395741790524519425\">WhatsApp University</a>"], "photo_reference": "Aap_uEBZjZZpPB90TuTwwCUeUYfKdJuXzNw87AZABgyMLGgEi3mnlCYe-WnP90YEXC_2w4Rse7FFrWYnsRpoSzFuoOmXU-T7ganlns8wEcv_Gvodh2mcLCN40Ko0SWCQ2NZ81zvurWXxhVbXapnc_OzxYnBNaCbidpSBKjha6ek815y9VINu", "width": 1920}], "place_id": "ChIJNTWgBfI58TkRQwRv5_CTm2Y", "plus_code": {"compound_code": "9H8R+WH Rautdih, Jharkhand, India", "global_code": "7MP89H8R+WH"}, "rating": 4, "reference": "ChIJNTWgBfI58TkRQwRv5_CTm2Y", "scope": "GOOGLE", "types": ["school", "point_of_interest", "establishment"], "user_ratings_total": 2, "vicinity": "Tilona Road, Rautdih"}, {"business_status": "OPERATIONAL", "geometry": {"location": {"lat": 24.3670415, "lng": 86.58866619999999}, "viewport": {"northeast": {"lat": 24.3685359802915, "lng": 86.59001628029151}, "southwest": {"lat": 24.3658380197085, "lng": 86.58731831970849}}}, "icon": "https://maps.gstatic.com/mapfiles/place_api/icons/v1/png_71/school-71.png", "icon_background_color": "#7B9EB0", "icon_mask_base_uri": "https://maps.gstatic.com/mapfiles/place_api/icons/v2/school_pinlet", "name": "Anjum hause", "photos": [{"height": 3264, "html_attributions": ["<a href=\"https://maps.google.com/maps/contrib/103348015586048117786\">Umesh raj</a>"], "photo_reference": "Aap_uECHnBWQaDLHHfdFJTmjZJNkKLOKeiyH-V4O4EIkAUs8vrA770HJwkeBIJ1L6cWOKV1NomErekygCmZ_yEEB_herD4v2-cpJSbYP7W-7pZMYnVoLvYFJ7hm4pq2hdPGrmeevrxeM5UIfqqejRwpBxsbeACTBLCN3Rs7XNLCT8DERGxrv", "width": 2448}], "place_id": "ChIJH8zegsQ58TkRZjb24yxcAsU", "plus_code": {"compound_code": "9H8Q+RF Rautdih, Jharkhand, India", "global_code": "7MP89H8Q+RF"}, "reference": "ChIJH8zegsQ58TkRZjb24yxcAsU", "scope": "GOOGLE", "types": ["school", "point_of_interest", "establishment"], "vicinity": "Unnamed Road, Rautdih"}, {"business_status": "OPERATIONAL", "geometry": {"location": {"lat": 24.3674568, "lng": 86.5940686}, "viewport": {"northeast": {"lat": 24.3687623802915, "lng": 86.5954660802915}, "southwest": {"lat": 24.3660644197085, "lng": 86.5927681197085}}}, "icon": "https://maps.gstatic.com/mapfiles/place_api/icons/v1/png_71/school-71.png", "icon_background_color": "#7B9EB0", "icon_mask_base_uri": "https://maps.gstatic.com/mapfiles/place_api/icons/v2/school_pinlet", "name": "U.H.S Kathghari", "place_id": "ChIJUXTsmrE58TkRbup_JtYwQvs", "reference": "ChIJUXTsmrE58TkRbup_JtYwQvs", "scope": "GOOGLE", "types": ["school", "point_of_interest", "establishment"], "vicinity": "9H8V+XJP, Rautdih"}, {"business_status": "OPERATIONAL", "geometry": {"location": {"lat": 24.36742599999999, "lng": 86.5941551}, "viewport": {"northeast": {"lat": 24.3687647302915, "lng": 86.5955155302915}, "southwest": {"lat": 24.3660667697085, "lng": 86.59281756970849}}}, "icon": "https://maps.gstatic.com/mapfiles/place_api/icons/v1/png_71/school-71.png", "icon_background_color": "#7B9EB0", "icon_mask_base_uri": "https://maps.gstatic.com/mapfiles/place_api/icons/v2/school_pinlet", "name": "High School Husainabad", "place_id": "ChIJZTBiir048TkRHtcn_UeRTHk", "rating": 5, "reference": "ChIJZTBiir048TkRHtcn_UeRTHk", "scope": "GOOGLE", "types": ["school", "point_of_interest", "establishment"], "user_ratings_total": 1, "vicinity": "9H8V+XMC, Rautdih"}, {"business_status": "OPERATIONAL", "geometry": {"location": {"lat": 24.3667779, "lng": 86.5918997}, "viewport": {"northeast": {"lat": 24.3680230302915, "lng": 86.59317958029149}, "southwest": {"lat": 24.3653250697085, "lng": 86.59048161970848}}}, "icon": "https://maps.gstatic.com/mapfiles/place_api/icons/v1/png_71/school-71.png", "icon_background_color": "#7B9EB0", "icon_mask_base_uri": "https://maps.gstatic.com/mapfiles/place_api/icons/v2/school_pinlet", "name": "Utkarmit High School Katghari", "opening_hours": {"open_now": false}, "place_id": "ChIJexuk3Zc48TkR79xfNDTkAZo", "rating": 5, "reference": "ChIJexuk3Zc48TkR79xfNDTkAZo", "scope": "GOOGLE", "types": ["school", "point_of_interest", "establishment"], "user_ratings_total": 4, "vicinity": "9H8R+PQ6, Rautdih"}, {"business_status": "OPERATIONAL", "geometry": {"location": {"lat": 24.3674477, "lng": 86.5962127}, "viewport": {"northeast": {"lat": 24.3688173802915, "lng": 86.5975103802915}, "southwest": {"lat": 24.3661194197085, "lng": 86.59481241970849}}}, "icon": "https://maps.gstatic.com/mapfiles/place_api/icons/v1/png_71/school-71.png", "icon_background_color": "#7B9EB0", "icon_mask_base_uri": "https://maps.gstatic.com/mapfiles/place_api/icons/v2/school_pinlet", "name": "KIDS GARDEN SCHOOL", "place_id": "ChIJFbRSHb448TkRq29Nr3ZamgE", "plus_code": {"compound_code": "9H8W+XF Hussainabad, Jharkhand, India", "global_code": "7MP89H8W+XF"}, "rating": 1, "reference": "ChIJFbRSHb448TkRq29Nr3ZamgE", "scope": "GOOGLE", "types": ["school", "point_of_interest", "establishment"], "user_ratings_total": 1, "vicinity": "husainabad"}, {"business_status": "OPERATIONAL", "geometry": {"location": {"lat": 24.3900798, "lng": 86.58907839999999}, "viewport": {"northeast": {"lat": 24.3914282802915, "lng": 86.5904626302915}, "southwest": {"lat": 24.3887303197085, "lng": 86.58776466970849}}}, "icon": "https://maps.gstatic.com/mapfiles/place_api/icons/v1/png_71/school-71.png", "icon_background_color": "#7B9EB0", "icon_mask_base_uri": "https://maps.gstatic.com/mapfiles/place_api/icons/v2/school_pinlet", "name": "Devipur Public School", "opening_hours": {"open_now": true}, "photos": [{"height": 2448, "html_attributions": ["<a href=\"https://maps.google.com/maps/contrib/110934169660062071752\">Yugal Yadav</a>"], "photo_reference": "Aap_uEBfNEwp_5RzzxAAlxN1nDNNpl1OFIw2xpcym-ITJd4KpO5PFDlJxv1V1UUcSP76n3VNqGsz6MsPA6IaUnsWytuLGVxzlfsKHV5FEHbCxp7wh7QE7m3KnhfGDsLzLiflrYyr5SRVWo2H-azDQiCK5o0p8s3bLwb5F1U479CQt8LLP8fr", "width": 3264}], "place_id": "ChIJVwCmOa048TkRNirIn2IJN-c", "rating": 5, "reference": "ChIJVwCmOa048TkRNirIn2IJN-c", "scope": "GOOGLE", "types": ["school", "point_of_interest", "establishment"], "user_ratings_total": 1, "vicinity": "9HRQ+2JP, Jhuri"}], "status": "OK"}