{"html_attributions": [], "results": [{"business_status": "OPERATIONAL", "geometry": {"location": {"lat": 24.4624077, "lng": 86.59194049999999}, "viewport": {"northeast": {"lat": 24.4637521802915, "lng": 86.59330828029151}, "southwest": {"lat": 24.46105421970849, "lng": 86.59061031970849}}}, "icon": "https://maps.gstatic.com/mapfiles/place_api/icons/v1/png_71/school-71.png", "icon_background_color": "#7B9EB0", "icon_mask_base_uri": "https://maps.gstatic.com/mapfiles/place_api/icons/v2/school_pinlet", "name": "Bajrang Bali Mandir", "place_id": "ChIJy1s0qHA_8TkR7jWyR89Ulpo", "rating": 5, "reference": "ChIJy1s0qHA_8TkR7jWyR89Ulpo", "scope": "GOOGLE", "types": ["school", "point_of_interest", "establishment"], "user_ratings_total": 1, "vicinity": "FH6R+XQ8, Gadi"}, {"business_status": "OPERATIONAL", "geometry": {"location": {"lat": 24.4498754, "lng": 86.5938034}, "viewport": {"northeast": {"lat": 24.4513221302915, "lng": 86.5948154302915}, "southwest": {"lat": 24.4486241697085, "lng": 86.5921174697085}}}, "icon": "https://maps.gstatic.com/mapfiles/place_api/icons/v1/png_71/school-71.png", "icon_background_color": "#7B9EB0", "icon_mask_base_uri": "https://maps.gstatic.com/mapfiles/place_api/icons/v2/school_pinlet", "name": "Mdhya Vidyalaya Baghmari", "place_id": "ChIJufo98YI_8TkRkPNkDtwuZ18", "plus_code": {"compound_code": "CHXV+XG Baghmari, Jharkhand, India", "global_code": "7MP8CHXV+XG"}, "rating": 3, "reference": "ChIJufo98YI_8TkRkPNkDtwuZ18", "scope": "GOOGLE", "types": ["school", "point_of_interest", "establishment"], "user_ratings_total": 1, "vicinity": "near, bjaluwasar road, hatiya, Baghmari"}, {"business_status": "OPERATIONAL", "geometry": {"location": {"lat": 24.449613, "lng": 86.5938601}, "viewport": {"northeast": {"lat": 24.4511216302915, "lng": 86.59481438029151}, "southwest": {"lat": 24.4484236697085, "lng": 86.59211641970849}}}, "icon": "https://maps.gstatic.com/mapfiles/place_api/icons/v1/png_71/school-71.png", "icon_background_color": "#7B9EB0", "icon_mask_base_uri": "https://maps.gstatic.com/mapfiles/place_api/icons/v2/school_pinlet", "name": "Middle School Baghmari", "place_id": "ChIJuYdeSFc_8TkRHljFZDZ0OEg", "reference": "ChIJuYdeSFc_8TkRHljFZDZ0OEg", "scope": "GOOGLE", "types": ["school", "point_of_interest", "establishment"], "vicinity": "CHXV+RGX, Baghmari"}, {"business_status": "OPERATIONAL", "geometry": {"location": {"lat": 24.4488447, "lng": 86.589276}, "viewport": {"northeast": {"lat": 24.4502148302915, "lng": 86.59046728029149}, "southwest": {"lat": 24.4475168697085, "lng": 86.58776931970849}}}, "icon": "https://maps.gstatic.com/mapfiles/place_api/icons/v1/png_71/school-71.png", "icon_background_color": "#7B9EB0", "icon_mask_base_uri": "https://maps.gstatic.com/mapfiles/place_api/icons/v2/school_pinlet", "name": "Masjid", "photos": [{"height": 2145, "html_attributions": ["<a href=\"https://maps.google.com/maps/contrib/114325524827889563123\">Shoukat Ali</a>"], "photo_reference": "Aap_uEBvp9Qo7gAmtEpxC7Lgn2ADVnww3ecpYLxpicUIbZWKsiMNWbjBxpE6WK993PuIRIhoO_o_EtoZoAQDo53M1nxxKz09gHmXHcTObSVpXYY2hS32yU_BpJHIc-SPpsu1sVc13tsxzxMqSZASk6xECFqVj52bIaw5t2fkDGQM0dveYC1A", "width": 1280}], "place_id": "ChIJBSuiX1o_8TkR1FoJgx-4cno", "rating": 1, "reference": "ChIJBSuiX1o_8TkR1FoJgx-4cno", "scope": "GOOGLE", "types": ["school", "point_of_interest", "establishment"], "user_ratings_total": 1, "vicinity": "CHXQ+GPJ, Parandih Banusari"}], "status": "OK"}