{"html_attributions": [], "results": [{"business_status": "OPERATIONAL", "geometry": {"location": {"lat": 24.5623902, "lng": 86.62164709999999}, "viewport": {"northeast": {"lat": 24.5637384302915, "lng": 86.62299543029151}, "southwest": {"lat": 24.5610404697085, "lng": 86.6202974697085}}}, "icon": "https://maps.gstatic.com/mapfiles/place_api/icons/v1/png_71/school-71.png", "icon_background_color": "#7B9EB0", "icon_mask_base_uri": "https://maps.gstatic.com/mapfiles/place_api/icons/v2/school_pinlet", "name": "Azhar Bandhakenduwa", "opening_hours": {"open_now": false}, "place_id": "ChIJhxS_6WEU8TkR3UsHk8rQQa0", "plus_code": {"compound_code": "HJ6C+XM Bandha Kendua, Jharkhand, India", "global_code": "7MP8HJ6C+XM"}, "rating": 5, "reference": "ChIJhxS_6WEU8TkR3UsHk8rQQa0", "scope": "GOOGLE", "types": ["school", "point_of_interest", "establishment"], "user_ratings_total": 1, "vicinity": "Bandhakenduwa, Bandha Kendua"}, {"business_status": "OPERATIONAL", "geometry": {"location": {"lat": 24.5457336, "lng": 86.61071059999999}, "viewport": {"northeast": {"lat": 24.5466027802915, "lng": 86.61144689999998}, "southwest": {"lat": 24.5439048197085, "lng": 86.60850169999999}}}, "icon": "https://maps.gstatic.com/mapfiles/place_api/icons/v1/png_71/school-71.png", "icon_background_color": "#7B9EB0", "icon_mask_base_uri": "https://maps.gstatic.com/mapfiles/place_api/icons/v2/school_pinlet", "name": "High school Banka", "place_id": "ChIJI1atsnQV8TkR4Qv96TDMVuk", "plus_code": {"compound_code": "GJW6+77 Sikdardih, Jharkhand, India", "global_code": "7MP8GJW6+77"}, "rating": 5, "reference": "ChIJI1atsnQV8TkR4Qv96TDMVuk", "scope": "GOOGLE", "types": ["school", "point_of_interest", "establishment"], "user_ratings_total": 1, "vicinity": ""}, {"business_status": "OPERATIONAL", "geometry": {"location": {"lat": 24.5548695, "lng": 86.62307469999999}, "viewport": {"northeast": {"lat": 24.5562353802915, "lng": 86.6244953802915}, "southwest": {"lat": 24.5535374197085, "lng": 86.6217974197085}}}, "icon": "https://maps.gstatic.com/mapfiles/place_api/icons/v1/png_71/school-71.png", "icon_background_color": "#7B9EB0", "icon_mask_base_uri": "https://maps.gstatic.com/mapfiles/place_api/icons/v2/school_pinlet", "name": "Aanganwadi kendra Ikeriya", "place_id": "ChIJEQVd-loV8TkRztEHsJtWY3I", "reference": "ChIJEQVd-loV8TkRztEHsJtWY3I", "scope": "GOOGLE", "types": ["school", "point_of_interest", "establishment"], "vicinity": "HJ3F+W6W, Ikaria"}], "status": "OK"}