{"html_attributions": [], "results": [{"business_status": "OPERATIONAL", "geometry": {"location": {"lat": 24.9156302, "lng": 86.6072499}, "viewport": {"northeast": {"lat": 24.9169981802915, "lng": 86.6085604802915}, "southwest": {"lat": 24.91430021970849, "lng": 86.6058625197085}}}, "icon": "https://maps.gstatic.com/mapfiles/place_api/icons/v1/png_71/school-71.png", "icon_background_color": "#7B9EB0", "icon_mask_base_uri": "https://maps.gstatic.com/mapfiles/place_api/icons/v2/school_pinlet", "name": "Vande Mataram Quiz Club, Pekaha", "opening_hours": {"open_now": true}, "place_id": "ChIJrzx4DrOh8TkRtXzn6R7EDZk", "rating": 5, "reference": "ChIJrzx4DrOh8TkRtXzn6R7EDZk", "scope": "GOOGLE", "types": ["school", "point_of_interest", "establishment"], "user_ratings_total": 4, "vicinity": "WJ84+7V5, Pekaha, Belhar"}, {"business_status": "OPERATIONAL", "geometry": {"location": {"lat": 24.9181429, "lng": 86.6036663}, "viewport": {"northeast": {"lat": 24.9195700302915, "lng": 86.60498858029152}, "southwest": {"lat": 24.9168720697085, "lng": 86.6022906197085}}}, "icon": "https://maps.gstatic.com/mapfiles/place_api/icons/v1/png_71/school-71.png", "icon_background_color": "#7B9EB0", "icon_mask_base_uri": "https://maps.gstatic.com/mapfiles/place_api/icons/v2/school_pinlet", "name": "D..RAJ CLASSES", "place_id": "ChIJvaIYoeCh8TkRF2lb6IE6hT4", "plus_code": {"compound_code": "WJ93+7F Belhar, Bihar, India", "global_code": "7MP8WJ93+7F"}, "reference": "ChIJvaIYoeCh8TkRF2lb6IE6hT4", "scope": "GOOGLE", "types": ["school", "point_of_interest", "establishment"], "vicinity": "\u0921\u093e\u0915\u092c\u0902\u0917\u0932\u093e, Belhar"}, {"business_status": "OPERATIONAL", "geometry": {"location": {"lat": 24.9253306, "lng": 86.6153195}, "viewport": {"northeast": {"lat": 24.9266760802915, "lng": 86.61668258029151}, "southwest": {"lat": 24.9239781197085, "lng": 86.61398461970849}}}, "icon": "https://maps.gstatic.com/mapfiles/place_api/icons/v1/png_71/school-71.png", "icon_background_color": "#7B9EB0", "icon_mask_base_uri": "https://maps.gstatic.com/mapfiles/place_api/icons/v2/school_pinlet", "name": "Banty Kumar", "place_id": "ChIJcZuTjVah8TkRZHgFNbJxV10", "rating": 5, "reference": "ChIJcZuTjVah8TkRZHgFNbJxV10", "scope": "GOOGLE", "types": ["school", "point_of_interest", "establishment"], "user_ratings_total": 1, "vicinity": "WJG8+44P, Pachrukhi"}, {"business_status": "OPERATIONAL", "geometry": {"location": {"lat": 24.9187433, "lng": 86.62016410000001}, "viewport": {"northeast": {"lat": 24.92000788029151, "lng": 86.62168623029152}, "southwest": {"lat": 24.9173099197085, "lng": 86.61898826970851}}}, "icon": "https://maps.gstatic.com/mapfiles/place_api/icons/v1/png_71/school-71.png", "icon_background_color": "#7B9EB0", "icon_mask_base_uri": "https://maps.gstatic.com/mapfiles/place_api/icons/v2/school_pinlet", "name": "Mathura Durgamandir", "photos": [{"height": 2736, "html_attributions": ["<a href=\"https://maps.google.com/maps/contrib/110251152608649326413\">abhishek kumar</a>"], "photo_reference": "Aap_uEBCfFABMFVPP7uAVtnp30gfHg9KGTQmYCqsIb-mwhcmYC_gNIA8pgdv2Mponfycy4n_OkYHeNHEuspge6fXx7nk_kiaF8qOMOHbsaPY1uytv97V-bkYfezgIBPH4_JBpXDByskaXrCAj1IJxdi7smm2S1qscINTcYtfTidqHonEEBjx", "width": 2736}], "place_id": "ChIJXZxu4rGh8TkRlKG3R58rp1I", "rating": 1, "reference": "ChIJXZxu4rGh8TkRlKG3R58rp1I", "scope": "GOOGLE", "types": ["school", "point_of_interest", "establishment"], "user_ratings_total": 1, "vicinity": "WJ9C+F3V, Mathura"}, {"business_status": "OPERATIONAL", "geometry": {"location": {"lat": 24.9185265, "lng": 86.5997029}, "viewport": {"northeast": {"lat": 24.9198373302915, "lng": 86.6010378802915}, "southwest": {"lat": 24.9171393697085, "lng": 86.59833991970848}}}, "icon": "https://maps.gstatic.com/mapfiles/place_api/icons/v1/png_71/school-71.png", "icon_background_color": "#7B9EB0", "icon_mask_base_uri": "https://maps.gstatic.com/mapfiles/place_api/icons/v2/school_pinlet", "name": "SNJN High School, Belhar", "place_id": "ChIJFcbbG8qh8TkRD0b8P0CISi8", "plus_code": {"compound_code": "WH9X+CV Mathura, Bihar, India", "global_code": "7MP8WH9X+CV"}, "rating": 5, "reference": "ChIJFcbbG8qh8TkRD0b8P0CISi8", "scope": "GOOGLE", "types": ["secondary_school", "school", "point_of_interest", "establishment"], "user_ratings_total": 1, "vicinity": "Deoghar Road, Tola Pandna, Mathura"}, {"business_status": "OPERATIONAL", "geometry": {"location": {"lat": 24.9191063, "lng": 86.5997522}, "viewport": {"northeast": {"lat": 24.92014943029151, "lng": 86.60098888029151}, "southwest": {"lat": 24.9174514697085, "lng": 86.59829091970849}}}, "icon": "https://maps.gstatic.com/mapfiles/place_api/icons/v1/png_71/school-71.png", "icon_background_color": "#7B9EB0", "icon_mask_base_uri": "https://maps.gstatic.com/mapfiles/place_api/icons/v2/school_pinlet", "name": "+2 school balher", "photos": [{"height": 1080, "html_attributions": ["<a href=\"https://maps.google.com/maps/contrib/107262874853903287055\">u\u0250pu\u0250\u0265\u0254 \u0250\u0265\u027e</a>"], "photo_reference": "Aap_uEDUpG_D89EelwxQ6kt8ZfUHKZ-727qAt77PoIP33U6M-_uEd1qR4DXlxHi0E35dzqKU8eLLJm2U6J9EHPZz_1fF3du_hAtM3_VVgXbQYYZdXNiKiP-FfsJy9Rvcs4TozyIhdmyQ1Gu89dd0frPuXGyICuLSXqRTwPFvjLcRdM70RThC", "width": 1920}], "place_id": "ChIJK-k5T_2h8TkRiUVEpYXVWRU", "plus_code": {"compound_code": "WH9X+JW Mathura, Bihar, India", "global_code": "7MP8WH9X+JW"}, "reference": "ChIJK-k5T_2h8TkRiUVEpYXVWRU", "scope": "GOOGLE", "types": ["school", "point_of_interest", "establishment"], "vicinity": "Deoghar Road, Mathura"}, {"business_status": "OPERATIONAL", "geometry": {"location": {"lat": 24.9180847, "lng": 86.6202899}, "viewport": {"northeast": {"lat": 24.9194000302915, "lng": 86.62163623029151}, "southwest": {"lat": 24.9167020697085, "lng": 86.6189382697085}}}, "icon": "https://maps.gstatic.com/mapfiles/place_api/icons/v1/png_71/school-71.png", "icon_background_color": "#7B9EB0", "icon_mask_base_uri": "https://maps.gstatic.com/mapfiles/place_api/icons/v2/school_pinlet", "name": "\u0938\u092c\u094d\u091c\u0940 \u092e\u093e\u0930\u094d\u0915\u0947\u091f", "place_id": "ChIJ6Yxbfgah8TkRpUDBxtVlsdY", "plus_code": {"compound_code": "WJ9C+64 Mathura, Bihar, India", "global_code": "7MP8WJ9C+64"}, "reference": "ChIJ6Yxbfgah8TkRpUDBxtVlsdY", "scope": "GOOGLE", "types": ["school", "point_of_interest", "establishment"], "vicinity": "Deoghar Road, Mathura"}, {"business_status": "OPERATIONAL", "geometry": {"location": {"lat": 24.918211, "lng": 86.62046339999999}, "viewport": {"northeast": {"lat": 24.9194553802915, "lng": 86.6217982302915}, "southwest": {"lat": 24.9167574197085, "lng": 86.61910026970848}}}, "icon": "https://maps.gstatic.com/mapfiles/place_api/icons/v1/png_71/school-71.png", "icon_background_color": "#7B9EB0", "icon_mask_base_uri": "https://maps.gstatic.com/mapfiles/place_api/icons/v2/school_pinlet", "name": "\u0932\u091b\u094d\u092f \u0915\u094d\u0935\u093f\u091c \u0915\u094d\u0932\u092c \u092e\u0925\u0941\u0930\u093e", "opening_hours": {"open_now": true}, "place_id": "ChIJzWmGDKqh8TkR9AIY3CmXw08", "plus_code": {"compound_code": "WJ9C+75 Mathura, Bihar, India", "global_code": "7MP8WJ9C+75"}, "rating": 5, "reference": "ChIJzWmGDKqh8TkR9AIY3CmXw08", "scope": "GOOGLE", "types": ["school", "point_of_interest", "establishment"], "user_ratings_total": 1, "vicinity": "Sultanganj - Deoghar Road, Mathura"}, {"business_status": "OPERATIONAL", "geometry": {"location": {"lat": 24.9180397, "lng": 86.6204716}, "viewport": {"northeast": {"lat": 24.9193786302915, "lng": 86.62181923029149}, "southwest": {"lat": 24.9166806697085, "lng": 86.61912126970849}}}, "icon": "https://maps.gstatic.com/mapfiles/place_api/icons/v1/png_71/school-71.png", "icon_background_color": "#7B9EB0", "icon_mask_base_uri": "https://maps.gstatic.com/mapfiles/place_api/icons/v2/school_pinlet", "name": "\u092a\u094d\u0930\u093e\u0925\u092e\u093f\u0915 \u0935\u093f\u0926\u094d\u092f\u093e\u0932\u092f \u092e\u0925\u0941\u0930\u093e", "place_id": "ChIJLwYyLE6h8TkRQMoL7mtjl7U", "plus_code": {"compound_code": "WJ9C+65 Sahebganj, Bihar, India", "global_code": "7MP8WJ9C+65"}, "reference": "ChIJLwYyLE6h8TkRQMoL7mtjl7U", "scope": "GOOGLE", "types": ["school", "point_of_interest", "establishment"], "vicinity": "mathura, Banka - Belhar Road, Sahebganj"}, {"business_status": "OPERATIONAL", "geometry": {"location": {"lat": 24.9181722, "lng": 86.6206996}, "viewport": {"northeast": {"lat": 24.91942278029151, "lng": 86.62203528029151}, "southwest": {"lat": 24.9167248197085, "lng": 86.61933731970849}}}, "icon": "https://maps.gstatic.com/mapfiles/place_api/icons/v1/png_71/school-71.png", "icon_background_color": "#7B9EB0", "icon_mask_base_uri": "https://maps.gstatic.com/mapfiles/place_api/icons/v2/school_pinlet", "name": "\u0932\u091b\u094d\u092f \u0915\u094d\u0935\u093f\u091c \u0915\u094d\u0932\u092c \u092e\u0925\u0941\u0930\u093e", "place_id": "ChIJO6eNCqqh8TkRiax76agTTEo", "reference": "ChIJO6eNCqqh8TkRiax76agTTEo", "scope": "GOOGLE", "types": ["school", "point_of_interest", "establishment"], "vicinity": "WJ9C+778, Mathura"}, {"business_status": "OPERATIONAL", "geometry": {"location": {"lat": 24.917977, "lng": 86.621578}, "viewport": {"northeast": {"lat": 24.91926563029151, "lng": 86.6229167802915}, "southwest": {"lat": 24.9165676697085, "lng": 86.6202188197085}}}, "icon": "https://maps.gstatic.com/mapfiles/place_api/icons/v1/png_71/school-71.png", "icon_background_color": "#7B9EB0", "icon_mask_base_uri": "https://maps.gstatic.com/mapfiles/place_api/icons/v2/school_pinlet", "name": "middle school Sahabganj Mathura", "place_id": "ChIJ83Tdb72h8TkRKABYRCm2iZ8", "plus_code": {"compound_code": "WJ9C+5J Mathura, Bihar, India", "global_code": "7MP8WJ9C+5J"}, "reference": "ChIJ83Tdb72h8TkRKABYRCm2iZ8", "scope": "GOOGLE", "types": ["school", "point_of_interest", "establishment"], "vicinity": "State Highway 22, Mathura"}, {"business_status": "OPERATIONAL", "geometry": {"location": {"lat": 24.9164, "lng": 86.62176199999999}, "viewport": {"northeast": {"lat": 24.9177198802915, "lng": 86.6231857302915}, "southwest": {"lat": 24.9150219197085, "lng": 86.62048776970848}}}, "icon": "https://maps.gstatic.com/mapfiles/place_api/icons/v1/png_71/school-71.png", "icon_background_color": "#7B9EB0", "icon_mask_base_uri": "https://maps.gstatic.com/mapfiles/place_api/icons/v2/school_pinlet", "name": "hari kirana store mathura more", "place_id": "ChIJjyRJsS6h8TkRJ--miKiIs-Q", "plus_code": {"compound_code": "WJ8C+HP Mathura, Bihar, India", "global_code": "7MP8WJ8C+HP"}, "reference": "ChIJjyRJsS6h8TkRJ--miKiIs-Q", "scope": "GOOGLE", "types": ["school", "point_of_interest", "establishment"], "vicinity": "Mathura"}, {"business_status": "OPERATIONAL", "geometry": {"location": {"lat": 24.9144617, "lng": 86.6213142}, "viewport": {"northeast": {"lat": 24.9158807802915, "lng": 86.6226771802915}, "southwest": {"lat": 24.9131828197085, "lng": 86.6199792197085}}}, "icon": "https://maps.gstatic.com/mapfiles/place_api/icons/v1/png_71/school-71.png", "icon_background_color": "#7B9EB0", "icon_mask_base_uri": "https://maps.gstatic.com/mapfiles/place_api/icons/v2/school_pinlet", "name": "High School Sahebganj", "photos": [{"height": 960, "html_attributions": ["<a href=\"https://maps.google.com/maps/contrib/117730793151982011261\">Sanjay Yadav</a>"], "photo_reference": "Aap_uEAYsN-yM4lwIbiFBXUR2B6xD8IK8XrYjGLT8G-nyNs-tQV77p-7yehz7-cLC216xeoTYrqMMu9JIlOYfyYlDSzFbsCJVGekcUzs53HMl6E0q5nwAfCGPtM4D2GmyaOVbhOQABwqFZmDMA4NLFYn21pqLtTWC-8b33NaAvBsISU7MvkU", "width": 1280}], "place_id": "ChIJ84S6DwCh8TkR2y0WFcxGFtg", "plus_code": {"compound_code": "WJ7C+QG Sahebganj, Bihar, India", "global_code": "7MP8WJ7C+QG"}, "rating": 4.1, "reference": "ChIJ84S6DwCh8TkR2y0WFcxGFtg", "scope": "GOOGLE", "types": ["school", "point_of_interest", "establishment"], "user_ratings_total": 9, "vicinity": "Banka - Belhar Road, Sahebganj"}, {"business_status": "OPERATIONAL", "geometry": {"location": {"lat": 24.9172, "lng": 86.62345330000001}, "viewport": {"northeast": {"lat": 24.91847438029151, "lng": 86.6247596302915}, "southwest": {"lat": 24.9157764197085, "lng": 86.6220616697085}}}, "icon": "https://maps.gstatic.com/mapfiles/place_api/icons/v1/png_71/school-71.png", "icon_background_color": "#7B9EB0", "icon_mask_base_uri": "https://maps.gstatic.com/mapfiles/place_api/icons/v2/school_pinlet", "name": "\u0905\u092a\u094b\u0932\u094b \u092a\u092c\u094d\u0932\u093f\u0915 \u0938\u094d\u0915\u0942\u0932", "photos": [{"height": 4160, "html_attributions": ["<a href=\"https://maps.google.com/maps/contrib/117183793449997753576\">Rajan Kumar</a>"], "photo_reference": "Aap_uEBrq-vXvj5rluaY_lta3d9ICP5-t1QY23kiWLCNdMRxhNbfcYJxP5XnJLhQPIN0F6LI1eV-aKOtZGgYZbWbrMi1jXb1S35BlncN2hi_6uEkhra2MEJrcmBinBn_OWYunSJa2TBvrXn1JVENpBuu8u17agtQKfUoSf8EDSHZnHNSZN56", "width": 3120}], "place_id": "ChIJK1jjAgGh8TkRTf46oNyJQ1Y", "rating": 3.5, "reference": "ChIJK1jjAgGh8TkRTf46oNyJQ1Y", "scope": "GOOGLE", "types": ["school", "point_of_interest", "establishment"], "user_ratings_total": 2, "vicinity": "WJ8F+V9G, Mathura"}, {"business_status": "OPERATIONAL", "geometry": {"location": {"lat": 24.9172695, "lng": 86.6235136}, "viewport": {"northeast": {"lat": 24.9185091302915, "lng": 86.6247897802915}, "southwest": {"lat": 24.9158111697085, "lng": 86.62209181970849}}}, "icon": "https://maps.gstatic.com/mapfiles/place_api/icons/v1/png_71/school-71.png", "icon_background_color": "#7B9EB0", "icon_mask_base_uri": "https://maps.gstatic.com/mapfiles/place_api/icons/v2/school_pinlet", "name": "Appolo public school", "photos": [{"height": 539, "html_attributions": ["<a href=\"https://maps.google.com/maps/contrib/109253047854959297550\">Math study center</a>"], "photo_reference": "Aap_uEC9aweY9dgUCwhFRSvqJ2plCBS9XfGg_8n61LJBCuZ9fAbLjDcUvBfi0f6GXyWbAm5oqvJisq3VIlVRaeIw__jjcmZapwaBd3SN-v1tEfiCVVgappwFxv6AYugVVAvx7E3qzlbI6qqlKG8clUujqgka1uNekkF5hiQDBcmuJr0XyYwy", "width": 720}], "place_id": "ChIJP9CTni2h8TkR0z4AkkGXqM8", "rating": 3, "reference": "ChIJP9CTni2h8TkR0z4AkkGXqM8", "scope": "GOOGLE", "types": ["school", "point_of_interest", "establishment"], "user_ratings_total": 2, "vicinity": "WJ8F+WC2, Mathura"}], "status": "OK"}