{"html_attributions": [], "results": [{"business_status": "OPERATIONAL", "geometry": {"location": {"lat": 24.9378084, "lng": 85.8921526}, "viewport": {"northeast": {"lat": 24.9391080802915, "lng": 85.8934857302915}, "southwest": {"lat": 24.9364101197085, "lng": 85.8907877697085}}}, "icon": "https://maps.gstatic.com/mapfiles/place_api/icons/v1/png_71/school-71.png", "icon_background_color": "#7B9EB0", "icon_mask_base_uri": "https://maps.gstatic.com/mapfiles/place_api/icons/v2/school_pinlet", "name": "utkarmit Madhya School Jhanjhari", "photos": [{"height": 1080, "html_attributions": ["<a href=\"https://maps.google.com/maps/contrib/114871090131521184834\">Mantu Kumar</a>"], "photo_reference": "Aap_uECiezZ6H5YeK-lXCDdtNLvLNdKYy7VHLX-ZREQSZyCA9iR8c7DGugeS58fnmKA2qz-wLJJFC5To1kGNnYCWAvVwMSm-RDUqKFifOkPZWMiQcSvJwM1iR0Urtix9ncBjU-KBm_mKq-8xKZpXiCiKwLcBfLMY2w8XjzJxfI2u9wzPU_qm", "width": 1920}], "place_id": "ChIJHdXuOehL8jkRTI7Bwk8-FRY", "plus_code": {"compound_code": "WVQR+4V Jhanjhri, Bihar, India", "global_code": "7MP7WVQR+4V"}, "reference": "ChIJHdXuOehL8jkRTI7Bwk8-FRY", "scope": "GOOGLE", "types": ["school", "point_of_interest", "establishment"], "vicinity": "Unnamed Road"}, {"business_status": "OPERATIONAL", "geometry": {"location": {"lat": 24.9378303, "lng": 85.8921915}, "viewport": {"northeast": {"lat": 24.9391595302915, "lng": 85.8935972802915}, "southwest": {"lat": 24.9364615697085, "lng": 85.8908993197085}}}, "icon": "https://maps.gstatic.com/mapfiles/place_api/icons/v1/png_71/school-71.png", "icon_background_color": "#7B9EB0", "icon_mask_base_uri": "https://maps.gstatic.com/mapfiles/place_api/icons/v2/school_pinlet", "name": "Utakarmit Madhya School Jhanjhari Aliganj Jamui", "place_id": "ChIJSwfzgelL8jkRDWJpkiNyRAA", "reference": "ChIJSwfzgelL8jkRDWJpkiNyRAA", "scope": "GOOGLE", "types": ["school", "point_of_interest", "establishment"], "vicinity": "WVQR+4VP, Jhanjhri"}, {"business_status": "OPERATIONAL", "geometry": {"location": {"lat": 24.9430362, "lng": 85.8857438}, "viewport": {"northeast": {"lat": 24.9443859802915, "lng": 85.88708453029152}, "southwest": {"lat": 24.9416880197085, "lng": 85.8843865697085}}}, "icon": "https://maps.gstatic.com/mapfiles/place_api/icons/v1/png_71/school-71.png", "icon_background_color": "#7B9EB0", "icon_mask_base_uri": "https://maps.gstatic.com/mapfiles/place_api/icons/v2/school_pinlet", "name": "Utkramit Madhya Vidhyalya , Amba", "photos": [{"height": 3096, "html_attributions": ["<a href=\"https://maps.google.com/maps/contrib/105020367800807718049\">Neeraj Kumar</a>"], "photo_reference": "Aap_uEDHPSVWjUuaeiGcEcDWwdvW_9NyqxvMiJT3jO0UfpUZNWMMvxBsusrZ7hPIIvwCIoqVgoKK8FeVe0Rth6-AeLAaZCtjTfoZgojDab7M9CvfupOUvDcGZc9Z8Iov5l4NgXyrBcEgn4VRlVvaQ2Zs4wsE14kMMH7xOSXGhqsXNLs9W0Ui", "width": 4128}], "place_id": "ChIJv4noWkdJ8jkRMhZhcc63U9c", "rating": 4, "reference": "ChIJv4noWkdJ8jkRMhZhcc63U9c", "scope": "GOOGLE", "types": ["school", "point_of_interest", "establishment"], "user_ratings_total": 2, "vicinity": "WVVP+679, Khutaul"}, {"business_status": "OPERATIONAL", "geometry": {"location": {"lat": 24.9434532, "lng": 85.8857022}, "viewport": {"northeast": {"lat": 24.9446845802915, "lng": 85.8870658802915}, "southwest": {"lat": 24.9419866197085, "lng": 85.8843679197085}}}, "icon": "https://maps.gstatic.com/mapfiles/place_api/icons/v1/png_71/school-71.png", "icon_background_color": "#7B9EB0", "icon_mask_base_uri": "https://maps.gstatic.com/mapfiles/place_api/icons/v2/school_pinlet", "name": "Naya Savera Vidya Mandir", "photos": [{"height": 934, "html_attributions": ["<a href=\"https://maps.google.com/maps/contrib/114754356933361284032\">SUBHAM ELECTRONIC ALIGANJ JAMUI BIHAR</a>"], "photo_reference": "Aap_uEDpW15mH6IkQ8ndyzHjkDPpLVOmDNilRXOvYbip5zBEz19KD1M_dYWe21huNkG4Id6Nv3pcplUWDLO2cUnyH898lQS31e0qUpQO2CIVFRCOiws7BzSLsxcCSUqi71cFT0nVPoJb5zhzccGZ76rRHHwJ9Xt7fgOGCKNl1vRIlUIW-VRn", "width": 720}], "place_id": "ChIJTeLmF35J8jkRuxXJWUbQQyY", "rating": 3.8, "reference": "ChIJTeLmF35J8jkRuxXJWUbQQyY", "scope": "GOOGLE", "types": ["school", "point_of_interest", "establishment"], "user_ratings_total": 10, "vicinity": "WVVP+97P, Amba"}, {"business_status": "OPERATIONAL", "geometry": {"location": {"lat": 24.9308925, "lng": 85.88838609999999}, "viewport": {"northeast": {"lat": 24.9319906302915, "lng": 85.88957328029149}, "southwest": {"lat": 24.9292926697085, "lng": 85.88687531970848}}}, "icon": "https://maps.gstatic.com/mapfiles/place_api/icons/v1/png_71/school-71.png", "icon_background_color": "#7B9EB0", "icon_mask_base_uri": "https://maps.gstatic.com/mapfiles/place_api/icons/v2/school_pinlet", "name": "Shiv Temple", "place_id": "ChIJyxZXVAtL8jkRzgLcfeVqj6M", "reference": "ChIJyxZXVAtL8jkRzgLcfeVqj6M", "scope": "GOOGLE", "types": ["school", "point_of_interest", "establishment"], "vicinity": "WVJQ+992, Amba"}, {"business_status": "OPERATIONAL", "geometry": {"location": {"lat": 24.9298633, "lng": 85.8890567}, "viewport": {"northeast": {"lat": 24.9312408802915, "lng": 85.8904167802915}, "southwest": {"lat": 24.9285429197085, "lng": 85.8877188197085}}}, "icon": "https://maps.gstatic.com/mapfiles/place_api/icons/v1/png_71/school-71.png", "icon_background_color": "#7B9EB0", "icon_mask_base_uri": "https://maps.gstatic.com/mapfiles/place_api/icons/v2/school_pinlet", "name": "Gopi chauk TETARIYA", "place_id": "ChIJ29mebbxL8jkRCuFA871j-Hc", "reference": "ChIJ29mebbxL8jkRCuFA871j-Hc", "scope": "GOOGLE", "types": ["school", "point_of_interest", "establishment"], "vicinity": "WVHQ+WJV, Amba"}, {"business_status": "OPERATIONAL", "geometry": {"location": {"lat": 24.9427933, "lng": 85.8825215}, "viewport": {"northeast": {"lat": 24.9441770302915, "lng": 85.8838648302915}, "southwest": {"lat": 24.94147906970849, "lng": 85.88116686970848}}}, "icon": "https://maps.gstatic.com/mapfiles/place_api/icons/v1/png_71/school-71.png", "icon_background_color": "#7B9EB0", "icon_mask_base_uri": "https://maps.gstatic.com/mapfiles/place_api/icons/v2/school_pinlet", "name": "Devansh public school (DPS)", "photos": [{"height": 1269, "html_attributions": ["<a href=\"https://maps.google.com/maps/contrib/100108718491681954862\">SONAM LOVER FREE FIRE</a>"], "photo_reference": "Aap_uEBVKWboCniZg9v3__3b-KQKZy7mAjPm5waf2qzNXkdEJWzonXEesVFX4x6lRc7rVIAigwBabnhyGOUHlwDwVga-63p9hT6CrsYlbYJKZtsKEjzJe7KCeh0gyUjanIc9Y5wdYAli15hyxmlO_YkNcmDAJdFpI4ve09I729uEDok6Zv8g", "width": 714}], "place_id": "ChIJLVrYaqlJ8jkRZFhqhSFTPIs", "plus_code": {"compound_code": "WVVM+42 Abgilla Chaurasa, Bihar, India", "global_code": "7MP7WVVM+42"}, "reference": "ChIJLVrYaqlJ8jkRZFhqhSFTPIs", "scope": "GOOGLE", "types": ["school", "point_of_interest", "establishment"], "vicinity": "State Highway 8, parsama"}, {"business_status": "OPERATIONAL", "geometry": {"location": {"lat": 24.9340449, "lng": 85.8997839}, "viewport": {"northeast": {"lat": 24.9358445802915, "lng": 85.90118343029151}, "southwest": {"lat": 24.93314661970849, "lng": 85.8984854697085}}}, "icon": "https://maps.gstatic.com/mapfiles/place_api/icons/v1/png_71/school-71.png", "icon_background_color": "#7B9EB0", "icon_mask_base_uri": "https://maps.gstatic.com/mapfiles/place_api/icons/v2/school_pinlet", "name": "N.S.V.M SCHOOL AMBA", "place_id": "ChIJLdSTg8pL8jkRWUKd8NlEzy8", "reference": "ChIJLdSTg8pL8jkRWUKd8NlEzy8", "scope": "GOOGLE", "types": ["school", "point_of_interest", "establishment"], "vicinity": "WVMX+JW7, Amba"}, {"business_status": "OPERATIONAL", "geometry": {"location": {"lat": 24.9282188, "lng": 85.88791540000001}, "viewport": {"northeast": {"lat": 24.9295852302915, "lng": 85.88934138029151}, "southwest": {"lat": 24.92688726970849, "lng": 85.8866434197085}}}, "icon": "https://maps.gstatic.com/mapfiles/place_api/icons/v1/png_71/school-71.png", "icon_background_color": "#7B9EB0", "icon_mask_base_uri": "https://maps.gstatic.com/mapfiles/place_api/icons/v2/school_pinlet", "name": "TETARIYA M school", "place_id": "ChIJ9dMyumtL8jkRQu-m6AyBhak", "reference": "ChIJ9dMyumtL8jkRQu-m6AyBhak", "scope": "GOOGLE", "types": ["school", "point_of_interest", "establishment"], "vicinity": "WVHQ+75M, Amba"}, {"business_status": "OPERATIONAL", "geometry": {"location": {"lat": 24.928126, "lng": 85.8915083}, "viewport": {"northeast": {"lat": 24.9295080302915, "lng": 85.8928637802915}, "southwest": {"lat": 24.9268100697085, "lng": 85.8901658197085}}}, "icon": "https://maps.gstatic.com/mapfiles/place_api/icons/v1/png_71/school-71.png", "icon_background_color": "#7B9EB0", "icon_mask_base_uri": "https://maps.gstatic.com/mapfiles/place_api/icons/v2/school_pinlet", "name": "KHANKAH DHARAMPUR", "photos": [{"height": 3456, "html_attributions": ["<a href=\"https://maps.google.com/maps/contrib/116404453033056755321\">Shahid Khan</a>"], "photo_reference": "Aap_uEDHDLuJ5xcqM32T1J4IK3iSHGpWHegDf78qsQ5Tjg7Wmh76HTOD46JlIdRvYWbgd-fpSgwrPD5xu1KB05koieQye6yEhVh5Kt6q0LywiYAXx4jR9Jk2YPB6gWCosuW92paneZfJS0HASBwKBVCDscAayO8NosjErQ5gNYZt3YJOFjg_", "width": 4608}], "place_id": "ChIJH1Xa8IpL8jkRSbrksqPLHHE", "rating": 5, "reference": "ChIJH1Xa8IpL8jkRSbrksqPLHHE", "scope": "GOOGLE", "types": ["school", "point_of_interest", "establishment"], "user_ratings_total": 1, "vicinity": "WVHR+7J2, Amba"}, {"business_status": "OPERATIONAL", "geometry": {"location": {"lat": 24.9429909, "lng": 85.87989019999999}, "viewport": {"northeast": {"lat": 24.9441185302915, "lng": 85.8812727802915}, "southwest": {"lat": 24.9414205697085, "lng": 85.87857481970849}}}, "icon": "https://maps.gstatic.com/mapfiles/place_api/icons/v1/png_71/school-71.png", "icon_background_color": "#7B9EB0", "icon_mask_base_uri": "https://maps.gstatic.com/mapfiles/place_api/icons/v2/school_pinlet", "name": "D. P. S. English School", "place_id": "ChIJhdc3kxNJ8jkRKLIIKDVT6tU", "reference": "ChIJhdc3kxNJ8jkRKLIIKDVT6tU", "scope": "GOOGLE", "types": ["school", "point_of_interest", "establishment"], "vicinity": "WVVH+5XR, Abgilla Chaurasa"}, {"business_status": "OPERATIONAL", "geometry": {"location": {"lat": 24.9443346, "lng": 85.8807559}, "viewport": {"northeast": {"lat": 24.9456484802915, "lng": 85.8821045802915}, "southwest": {"lat": 24.9429505197085, "lng": 85.87940661970849}}}, "icon": "https://maps.gstatic.com/mapfiles/place_api/icons/v1/png_71/school-71.png", "icon_background_color": "#7B9EB0", "icon_mask_base_uri": "https://maps.gstatic.com/mapfiles/place_api/icons/v2/school_pinlet", "name": "Nav utkramit madhyamik vidyalaya abgilla chaurasa", "place_id": "ChIJiV8vey1J8jkRno5gvvUQ-Mo", "plus_code": {"compound_code": "WVVJ+P8 Abgilla Chaurasa, Bihar, India", "global_code": "7MP7WVVJ+P8"}, "rating": 5, "reference": "ChIJiV8vey1J8jkRno5gvvUQ-Mo", "scope": "GOOGLE", "types": ["secondary_school", "school", "point_of_interest", "establishment"], "user_ratings_total": 2, "vicinity": "+2 SCHOOL, Abgilla Chaurasa"}, {"business_status": "OPERATIONAL", "geometry": {"location": {"lat": 24.92752239999999, "lng": 85.8927897}, "viewport": {"northeast": {"lat": 24.9288560802915, "lng": 85.8942184302915}, "southwest": {"lat": 24.9261581197085, "lng": 85.8915204697085}}}, "icon": "https://maps.gstatic.com/mapfiles/place_api/icons/v1/png_71/school-71.png", "icon_background_color": "#7B9EB0", "icon_mask_base_uri": "https://maps.gstatic.com/mapfiles/place_api/icons/v2/school_pinlet", "name": "Government Middle School", "photos": [{"height": 4160, "html_attributions": ["<a href=\"https://maps.google.com/maps/contrib/115224912587364071835\">Sunny Kumar</a>"], "photo_reference": "Aap_uECgyyHiTVEZrPCNsc0WCT1ua0dz-3iFS96u8i9kJNS2t3JjbJJz7lctXB8xT8uP8ArFdQVp5rO13YXV-KfNmt3GkXM-WQanItSCt34ATSxCZs7kOElwR16GqhOm00n0TNVWzkRCw-RsD8gAnP2tyXh-TVPnP9qJWESockC1DwDlp256", "width": 3120}], "place_id": "ChIJLQJgJ-RL8jkR2eHLJMxRJn8", "reference": "ChIJLQJgJ-RL8jkR2eHLJMxRJn8", "scope": "GOOGLE", "types": ["school", "point_of_interest", "establishment"], "vicinity": "WVHV+243, Jhanjhri"}, {"business_status": "OPERATIONAL", "geometry": {"location": {"lat": 24.9273182, "lng": 85.89279599999999}, "viewport": {"northeast": {"lat": 24.9286364802915, "lng": 85.89414123029151}, "southwest": {"lat": 24.9259385197085, "lng": 85.8914432697085}}}, "icon": "https://maps.gstatic.com/mapfiles/place_api/icons/v1/png_71/school-71.png", "icon_background_color": "#7B9EB0", "icon_mask_base_uri": "https://maps.gstatic.com/mapfiles/place_api/icons/v2/school_pinlet", "name": "Dharampur Middle School", "photos": [{"height": 4160, "html_attributions": ["<a href=\"https://maps.google.com/maps/contrib/115224912587364071835\">Sunny Kumar</a>"], "photo_reference": "Aap_uEDHcZt9TjYwBV5sOiNhyQj4BtsQcu2CtS-1k40ox_jR2yMpdTTDY5LmKEVrqqNxsOi_Ou467nB5URn8Zos2Q1AHRZ0Zc7JdPRfeS8w27PCAK2iTNshfCasiI49eUxJwoYtZqD6W-_lobdqDqo3beEBZcF3dwJDB8ayj1I1H_VfOGgbk", "width": 3120}], "place_id": "ChIJO4YlmgtL8jkR8rs0nAl66r8", "plus_code": {"compound_code": "WVGV+W4 Jhanjhri, Bihar, India", "global_code": "7MP7WVGV+W4"}, "rating": 3.5, "reference": "ChIJO4YlmgtL8jkR8rs0nAl66r8", "scope": "GOOGLE", "types": ["school", "point_of_interest", "establishment"], "user_ratings_total": 2, "vicinity": "Unnamed Road"}, {"business_status": "OPERATIONAL", "geometry": {"location": {"lat": 24.9337351, "lng": 85.9013982}, "viewport": {"northeast": {"lat": 24.9350811802915, "lng": 85.90281843029152}, "southwest": {"lat": 24.9323832197085, "lng": 85.90012046970851}}}, "icon": "https://maps.gstatic.com/mapfiles/place_api/icons/v1/png_71/school-71.png", "icon_background_color": "#7B9EB0", "icon_mask_base_uri": "https://maps.gstatic.com/mapfiles/place_api/icons/v2/school_pinlet", "name": "Manikpur School", "place_id": "ChIJE79EYvxL8jkRC4ZnhpiVjbA", "reference": "ChIJE79EYvxL8jkRC4ZnhpiVjbA", "scope": "GOOGLE", "types": ["school", "point_of_interest", "establishment"], "vicinity": "WWM2+FHR, Manikpur"}, {"business_status": "OPERATIONAL", "geometry": {"location": {"lat": 24.9419226, "lng": 85.87677889999999}, "viewport": {"northeast": {"lat": 24.9432762302915, "lng": 85.8780933302915}, "southwest": {"lat": 24.9405782697085, "lng": 85.87539536970849}}}, "icon": "https://maps.gstatic.com/mapfiles/place_api/icons/v1/png_71/school-71.png", "icon_background_color": "#7B9EB0", "icon_mask_base_uri": "https://maps.gstatic.com/mapfiles/place_api/icons/v2/school_pinlet", "name": "Target coaching centre", "place_id": "ChIJ8-qa57hL8jkRXgU9VwRFDd8", "plus_code": {"compound_code": "WVRG+QP Abgilla Chaurasa, Bihar, India", "global_code": "7MP7WVRG+QP"}, "reference": "ChIJ8-qa57hL8jkRXgU9VwRFDd8", "scope": "GOOGLE", "types": ["school", "point_of_interest", "establishment"], "vicinity": "Nawada-Sikandara-Lakhisarai Road, Abgilla Chaurasa"}], "status": "OK"}