{"html_attributions": [], "results": [{"business_status": "OPERATIONAL", "geometry": {"location": {"lat": 24.9755084, "lng": 85.8972981}, "viewport": {"northeast": {"lat": 24.9767814302915, "lng": 85.89862938029151}, "southwest": {"lat": 24.9740834697085, "lng": 85.89593141970849}}}, "icon": "https://maps.gstatic.com/mapfiles/place_api/icons/v1/png_71/school-71.png", "icon_background_color": "#7B9EB0", "icon_mask_base_uri": "https://maps.gstatic.com/mapfiles/place_api/icons/v2/school_pinlet", "name": "Kundan classes", "photos": [{"height": 3456, "html_attributions": ["<a href=\"https://maps.google.com/maps/contrib/108253356045857716555\">Kundan Singh</a>"], "photo_reference": "Aap_uEBK4m766ORr1yly3ynOe8zou4WmwpbpfsICOjlNSoZDwJ_Gu0BiOKvF78o9peinALHbO8MwUMhdnYf7FYiA-MzRVaktxkFRi3frGt6KQAvdvRM9sZUK0q3dsih6r2U_43u4P8I1NmCAKiQ_uJgUXGVyaxaIwtRPSE59arQui2c4k2Fj", "width": 4608}], "place_id": "ChIJ0dkzjQNJ8jkRGk06YcYwzU8", "rating": 5, "reference": "ChIJ0dkzjQNJ8jkRGk06YcYwzU8", "scope": "GOOGLE", "types": ["school", "point_of_interest", "establishment"], "user_ratings_total": 13, "vicinity": "XVGW+6W3, Kolhna"}, {"business_status": "OPERATIONAL", "geometry": {"location": {"lat": 24.9715417, "lng": 85.88685330000001}, "viewport": {"northeast": {"lat": 24.9728819802915, "lng": 85.88817513029151}, "southwest": {"lat": 24.97018401970849, "lng": 85.8854771697085}}}, "icon": "https://maps.gstatic.com/mapfiles/place_api/icons/v1/png_71/school-71.png", "icon_background_color": "#7B9EB0", "icon_mask_base_uri": "https://maps.gstatic.com/mapfiles/place_api/icons/v2/school_pinlet", "name": "Dasrath Paswan Kolhana", "place_id": "ChIJwXnVdSpJ8jkR91UAooQHW74", "reference": "ChIJwXnVdSpJ8jkR91UAooQHW74", "scope": "GOOGLE", "types": ["school", "point_of_interest", "establishment"], "vicinity": "XVFP+48H, Kolhna"}, {"business_status": "OPERATIONAL", "geometry": {"location": {"lat": 24.9750488, "lng": 85.89774640000002}, "viewport": {"northeast": {"lat": 24.9764338802915, "lng": 85.89900278029151}, "southwest": {"lat": 24.9737359197085, "lng": 85.8963048197085}}}, "icon": "https://maps.gstatic.com/mapfiles/place_api/icons/v1/png_71/school-71.png", "icon_background_color": "#7B9EB0", "icon_mask_base_uri": "https://maps.gstatic.com/mapfiles/place_api/icons/v2/school_pinlet", "name": "Mahakal bhakt", "place_id": "ChIJnU2e_9JJ8jkR17npySZ3-ZM", "reference": "ChIJnU2e_9JJ8jkR17npySZ3-ZM", "scope": "GOOGLE", "types": ["school", "point_of_interest", "establishment"], "vicinity": "XVGX+239, Kolhna"}, {"business_status": "OPERATIONAL", "geometry": {"location": {"lat": 24.9717299, "lng": 85.895274}, "viewport": {"northeast": {"lat": 24.97309143029151, "lng": 85.89652798029151}, "southwest": {"lat": 24.9703934697085, "lng": 85.8938300197085}}}, "icon": "https://maps.gstatic.com/mapfiles/place_api/icons/v1/png_71/school-71.png", "icon_background_color": "#7B9EB0", "icon_mask_base_uri": "https://maps.gstatic.com/mapfiles/place_api/icons/v2/school_pinlet", "name": "Maina chater", "photos": [{"height": 1080, "html_attributions": ["<a href=\"https://maps.google.com/maps/contrib/111550224268370079113\">Amit Raj Ankit</a>"], "photo_reference": "Aap_uEB-StgU6y21K5AeLo8qmtb0CUdot3nXSp_eb-hj4MtFBMxRFLG1Dtgzw8ye1WjAIVv0Ecqeb3lz-nK0XThlLV8BI78toYNZFv7UgItb55ppJ6wEjbZgUun2uiXIUxJUYgOpI1WIxtoE2bfldiszjZLwdB45ClrG6b1bb4mjWfNDWew7", "width": 1920}], "place_id": "ChIJoQjcAF1J8jkRVOnmMhUM378", "rating": 4, "reference": "ChIJoQjcAF1J8jkRVOnmMhUM378", "scope": "GOOGLE", "types": ["secondary_school", "school", "point_of_interest", "establishment"], "user_ratings_total": 1, "vicinity": "XVCW+M4H, Kolhna"}, {"business_status": "OPERATIONAL", "geometry": {"location": {"lat": 24.9784842, "lng": 85.899783}, "viewport": {"northeast": {"lat": 24.97945368029151, "lng": 85.90217115}, "southwest": {"lat": 24.9767557197085, "lng": 85.89898695}}}, "icon": "https://maps.gstatic.com/mapfiles/place_api/icons/v1/png_71/school-71.png", "icon_background_color": "#7B9EB0", "icon_mask_base_uri": "https://maps.gstatic.com/mapfiles/place_api/icons/v2/school_pinlet", "name": "\u092a\u0941\u0930\u093e\u0928\u093e \u092a\u0940\u092a\u0932 \u092a\u0947\u095c \u0964Near .Chaurasa Middle School", "place_id": "ChIJGUZcWApJ8jkR7Np2cyOiIHo", "reference": "ChIJGUZcWApJ8jkR7Np2cyOiIHo", "scope": "GOOGLE", "types": ["secondary_school", "school", "point_of_interest", "establishment"], "vicinity": "XVHX+9WV, Abgilla Chaurasa"}], "status": "OK"}