{"html_attributions": [], "results": [{"business_status": "OPERATIONAL", "geometry": {"location": {"lat": 24.4007201, "lng": 85.9167847}, "viewport": {"northeast": {"lat": 24.4021766302915, "lng": 85.9183176302915}, "southwest": {"lat": 24.3994786697085, "lng": 85.91561966970849}}}, "icon": "https://maps.gstatic.com/mapfiles/place_api/icons/v1/png_71/school-71.png", "icon_background_color": "#7B9EB0", "icon_mask_base_uri": "https://maps.gstatic.com/mapfiles/place_api/icons/v2/school_pinlet", "name": "Utkarmit Madhya Vidyalaya Bhaluwai", "place_id": "ChIJ6xSi4fKV8zkRj2_UmTXur3c", "plus_code": {"compound_code": "CW28+7P Bhaluwai, Jharkhand, India", "global_code": "7MP7CW28+7P"}, "reference": "ChIJ6xSi4fKV8zkRj2_UmTXur3c", "scope": "GOOGLE", "types": ["school", "point_of_interest", "establishment"], "vicinity": "Ghodthamba, dhanwar Road, Bhaluwai"}, {"business_status": "OPERATIONAL", "geometry": {"location": {"lat": 24.4044579, "lng": 85.91312529999999}, "viewport": {"northeast": {"lat": 24.4058484302915, "lng": 85.9145976302915}, "southwest": {"lat": 24.4031504697085, "lng": 85.91189966970849}}}, "icon": "https://maps.gstatic.com/mapfiles/place_api/icons/v1/png_71/school-71.png", "icon_background_color": "#7B9EB0", "icon_mask_base_uri": "https://maps.gstatic.com/mapfiles/place_api/icons/v2/school_pinlet", "name": "Mustak General Store", "place_id": "ChIJI7HB0MOU8zkRh_Pc6Tm-zMk", "reference": "ChIJI7HB0MOU8zkRh_Pc6Tm-zMk", "scope": "GOOGLE", "types": ["school", "point_of_interest", "establishment"], "vicinity": "CW37+Q7J, Telodih"}, {"business_status": "OPERATIONAL", "geometry": {"location": {"lat": 24.4044994, "lng": 85.91319659999999}, "viewport": {"northeast": {"lat": 24.4058768802915, "lng": 85.9146301802915}, "southwest": {"lat": 24.4031789197085, "lng": 85.91193221970849}}}, "icon": "https://maps.gstatic.com/mapfiles/place_api/icons/v1/png_71/school-71.png", "icon_background_color": "#7B9EB0", "icon_mask_base_uri": "https://maps.gstatic.com/mapfiles/place_api/icons/v2/school_pinlet", "name": "Mustak General Store M. A", "place_id": "ChIJi8Z42sOU8zkRdBeuQzCgAzE", "reference": "ChIJi8Z42sOU8zkRdBeuQzCgAzE", "scope": "GOOGLE", "types": ["school", "point_of_interest", "establishment"], "vicinity": "CW37+Q7W, Telodih"}, {"business_status": "OPERATIONAL", "geometry": {"location": {"lat": 24.4045112, "lng": 85.9131774}, "viewport": {"northeast": {"lat": 24.4058907802915, "lng": 85.9146173302915}, "southwest": {"lat": 24.4031928197085, "lng": 85.9119193697085}}}, "icon": "https://maps.gstatic.com/mapfiles/place_api/icons/v1/png_71/school-71.png", "icon_background_color": "#7B9EB0", "icon_mask_base_uri": "https://maps.gstatic.com/mapfiles/place_api/icons/v2/school_pinlet", "name": "Salma General Store", "place_id": "ChIJI0SB0MOU8zkRbWDWSnh1ND0", "reference": "ChIJI0SB0MOU8zkRbWDWSnh1ND0", "scope": "GOOGLE", "types": ["school", "point_of_interest", "establishment"], "vicinity": "CW37+R73, Telodih"}, {"business_status": "OPERATIONAL", "geometry": {"location": {"lat": 24.3999161, "lng": 85.917756}, "viewport": {"northeast": {"lat": 24.40128968029151, "lng": 85.9191559302915}, "southwest": {"lat": 24.3985917197085, "lng": 85.91645796970849}}}, "icon": "https://maps.gstatic.com/mapfiles/place_api/icons/v1/png_71/school-71.png", "icon_background_color": "#7B9EB0", "icon_mask_base_uri": "https://maps.gstatic.com/mapfiles/place_api/icons/v2/school_pinlet", "name": "Aanganvaadi kendra", "place_id": "ChIJqWv5PuGV8zkRc6wQc1r46uE", "plus_code": {"compound_code": "9WX9+X4 Bhaluwai, Jharkhand, India", "global_code": "7MP79WX9+X4"}, "reference": "ChIJqWv5PuGV8zkRc6wQc1r46uE", "scope": "GOOGLE", "types": ["primary_school", "school", "point_of_interest", "establishment"], "vicinity": "Unnamed Road, Bhaluwai"}, {"business_status": "OPERATIONAL", "geometry": {"location": {"lat": 24.4060406, "lng": 85.9130373}, "viewport": {"northeast": {"lat": 24.4073829302915, "lng": 85.9143251802915}, "southwest": {"lat": 24.40468496970849, "lng": 85.91162721970849}}}, "icon": "https://maps.gstatic.com/mapfiles/place_api/icons/v1/png_71/school-71.png", "icon_background_color": "#7B9EB0", "icon_mask_base_uri": "https://maps.gstatic.com/mapfiles/place_api/icons/v2/school_pinlet", "name": "Sera General Store", "place_id": "ChIJsW2rscOU8zkR_3DTji1qEEQ", "reference": "ChIJsW2rscOU8zkR_3DTji1qEEQ", "scope": "GOOGLE", "types": ["school", "point_of_interest", "establishment"], "vicinity": "CW47+C67, Bhaluwai"}, {"business_status": "OPERATIONAL", "geometry": {"location": {"lat": 24.4072227, "lng": 85.91038259999999}, "viewport": {"northeast": {"lat": 24.4085569302915, "lng": 85.9117852302915}, "southwest": {"lat": 24.40585896970849, "lng": 85.9090872697085}}}, "icon": "https://maps.gstatic.com/mapfiles/place_api/icons/v1/png_71/school-71.png", "icon_background_color": "#7B9EB0", "icon_mask_base_uri": "https://maps.gstatic.com/mapfiles/place_api/icons/v2/school_pinlet", "name": "Ravani brand", "photos": [{"height": 540, "html_attributions": ["<a href=\"https://maps.google.com/maps/contrib/104786666361555047727\">Binod Yadav</a>"], "photo_reference": "Aap_uECSytYUtmW9O6HwZryHk0KrobbRLMDNDNKcg4VVQF3wNc9w_2DZFWsWGn-XWxpWwq8jFn3M7scgmYkBd4J5ReKmFanJYagYUDSbJ3voGsPv0sHlINC-fEop0ZEsRBc4yxpV0E5Vn5LSci43JP_39g81xp0ebLHO7pzzO-u_B7LoJkJ8", "width": 720}], "place_id": "ChIJG2R8812V8zkRJe6AHSU2YBY", "plus_code": {"compound_code": "CW46+V5 Mahthasar, Jharkhand, India", "global_code": "7MP7CW46+V5"}, "rating": 5, "reference": "ChIJG2R8812V8zkRJe6AHSU2YBY", "scope": "GOOGLE", "types": ["school", "point_of_interest", "establishment"], "user_ratings_total": 1, "vicinity": "Unnamed Road"}, {"business_status": "OPERATIONAL", "geometry": {"location": {"lat": 24.4072289, "lng": 85.90295909999999}, "viewport": {"northeast": {"lat": 24.4086351302915, "lng": 85.9040490802915}, "southwest": {"lat": 24.4059371697085, "lng": 85.9013511197085}}}, "icon": "https://maps.gstatic.com/mapfiles/place_api/icons/v1/png_71/school-71.png", "icon_background_color": "#7B9EB0", "icon_mask_base_uri": "https://maps.gstatic.com/mapfiles/place_api/icons/v2/school_pinlet", "name": "Gram Partay Hanuman Temple", "place_id": "ChIJqWMrBe-U8zkRIMNd-N5tAIo", "rating": 5, "reference": "ChIJqWMrBe-U8zkRIMNd-N5tAIo", "scope": "GOOGLE", "types": ["school", "point_of_interest", "establishment"], "user_ratings_total": 1, "vicinity": "CW43+V5W, Chandarkho"}, {"business_status": "OPERATIONAL", "geometry": {"location": {"lat": 24.40050579999999, "lng": 85.92234599999999}, "viewport": {"northeast": {"lat": 24.4018546802915, "lng": 85.9236954302915}, "southwest": {"lat": 24.39915671970849, "lng": 85.9209974697085}}}, "icon": "https://maps.gstatic.com/mapfiles/place_api/icons/v1/png_71/school-71.png", "icon_background_color": "#7B9EB0", "icon_mask_base_uri": "https://maps.gstatic.com/mapfiles/place_api/icons/v2/school_pinlet", "name": "Alpha public school", "place_id": "ChIJWflhhLWV8zkRrw91_WW_7MA", "rating": 5, "reference": "ChIJWflhhLWV8zkRrw91_WW_7MA", "scope": "GOOGLE", "types": ["school", "point_of_interest", "establishment"], "user_ratings_total": 2, "vicinity": "CW2C+6W5, Bhaluwai"}, {"business_status": "OPERATIONAL", "geometry": {"location": {"lat": 24.398082, "lng": 85.896991}, "viewport": {"northeast": {"lat": 24.3993605302915, "lng": 85.89826168029151}, "southwest": {"lat": 24.3966625697085, "lng": 85.89556371970849}}}, "icon": "https://maps.gstatic.com/mapfiles/place_api/icons/v1/png_71/school-71.png", "icon_background_color": "#7B9EB0", "icon_mask_base_uri": "https://maps.gstatic.com/mapfiles/place_api/icons/v2/school_pinlet", "name": "Utkarmit Middle School Chandrakho", "place_id": "ChIJhbOHrEaV8zkRFiCANcm6qe0", "reference": "ChIJhbOHrEaV8zkRFiCANcm6qe0", "scope": "GOOGLE", "types": ["school", "point_of_interest", "establishment"], "vicinity": "9VXW+6QQ, Chandarkho"}, {"business_status": "OPERATIONAL", "geometry": {"location": {"lat": 24.408604, "lng": 85.91650980000001}, "viewport": {"northeast": {"lat": 24.4099898802915, "lng": 85.9179693302915}, "southwest": {"lat": 24.4072919197085, "lng": 85.91527136970849}}}, "icon": "https://maps.gstatic.com/mapfiles/place_api/icons/v1/png_71/school-71.png", "icon_background_color": "#7B9EB0", "icon_mask_base_uri": "https://maps.gstatic.com/mapfiles/place_api/icons/v2/school_pinlet", "name": "Jama Masjid Bona Kodadih", "photos": [{"height": 1280, "html_attributions": ["<a href=\"https://maps.google.com/maps/contrib/109716458356829039594\">Fujel Ahmad Faizi</a>"], "photo_reference": "Aap_uEDUNcbvrJgj-3IAsoGCcsemzWGZ3AJpSGeqTqJ5eSVYX-UuoWHWDKj7UYnYvIqHl9E5WLTpB58zXWdS8kUipn7LmMcYi7Id8XmfCMqlJ8VLrJaQ2X8EggGNFHBAiSupzhl-ePwTlc87ALQerlfWLWTxN7E-4IMQtKsvk_7ETZ-uCW4O", "width": 647}], "place_id": "ChIJ8Rmy95eV8zkRM_JuoeeDcDM", "reference": "ChIJ8Rmy95eV8zkRM_JuoeeDcDM", "scope": "GOOGLE", "types": ["school", "point_of_interest", "establishment"], "vicinity": "CW58+CJR, Koradih"}, {"business_status": "OPERATIONAL", "geometry": {"location": {"lat": 24.39930399999999, "lng": 85.9233637}, "viewport": {"northeast": {"lat": 24.40082123029149, "lng": 85.92499918029151}, "southwest": {"lat": 24.39812326970849, "lng": 85.9223012197085}}}, "icon": "https://maps.gstatic.com/mapfiles/place_api/icons/v1/png_71/school-71.png", "icon_background_color": "#7B9EB0", "icon_mask_base_uri": "https://maps.gstatic.com/mapfiles/place_api/icons/v2/school_pinlet", "name": "Jio Tower", "place_id": "ChIJHaE_JVmV8zkRVZ1kCwMlW6k", "plus_code": {"compound_code": "9WXF+P8 Girhidih, Jharkhand, India", "global_code": "7MP79WXF+P8"}, "rating": 4, "reference": "ChIJHaE_JVmV8zkRVZ1kCwMlW6k", "scope": "GOOGLE", "types": ["school", "point_of_interest", "establishment"], "user_ratings_total": 1, "vicinity": "Girhidih"}], "status": "OK"}