{"html_attributions": [], "results": [{"business_status": "OPERATIONAL", "geometry": {"location": {"lat": 24.9613275, "lng": 85.9153898}, "viewport": {"northeast": {"lat": 24.9626889802915, "lng": 85.91670673029151}, "southwest": {"lat": 24.9599910197085, "lng": 85.9140087697085}}}, "icon": "https://maps.gstatic.com/mapfiles/place_api/icons/v1/png_71/school-71.png", "icon_background_color": "#7B9EB0", "icon_mask_base_uri": "https://maps.gstatic.com/mapfiles/place_api/icons/v2/school_pinlet", "name": "Gov. Pre-Middle school mohanpur", "photos": [{"height": 4128, "html_attributions": ["<a href=\"https://maps.google.com/maps/contrib/108822762020149414392\">Gov. Pre-Middle school mohanpur</a>"], "photo_reference": "Aap_uEAeWkB42gR6wVkVrOVeIyYX_6AVNvAskcSmZ29A9F0jgaMcLiOhRXBgCWk2mLQ9KG7OpCGoBfoTk9DCXw3bF34sdtbBBNkkxu46pr_bPSY6T-Bg6_xx8Y04DLL3oS9mCj3288ZOszycRl7xfqATrLuVn9W55ghttgT5A7j1sB2Uiuyb", "width": 3096}], "place_id": "ChIJDRDt4wlJ8jkR-seuE85LrHo", "plus_code": {"compound_code": "XW68+G5 Mohanpur, Bihar, India", "global_code": "7MP7XW68+G5"}, "rating": 5, "reference": "ChIJDRDt4wlJ8jkR-seuE85LrHo", "scope": "GOOGLE", "types": ["secondary_school", "school", "point_of_interest", "establishment"], "user_ratings_total": 1, "vicinity": "Unnamed Road, Mohanpur"}, {"business_status": "OPERATIONAL", "geometry": {"location": {"lat": 24.96218179999999, "lng": 85.9159291}, "viewport": {"northeast": {"lat": 24.96356473029149, "lng": 85.9171797802915}, "southwest": {"lat": 24.96086676970849, "lng": 85.91448181970848}}}, "icon": "https://maps.gstatic.com/mapfiles/place_api/icons/v1/png_71/school-71.png", "icon_background_color": "#7B9EB0", "icon_mask_base_uri": "https://maps.gstatic.com/mapfiles/place_api/icons/v2/school_pinlet", "name": "REVERSED MIDDLE SCHOOL MOHANPUR", "place_id": "ChIJozmPIGpJ8jkR3I3oqW1P4p8", "reference": "ChIJozmPIGpJ8jkR3I3oqW1P4p8", "scope": "GOOGLE", "types": ["school", "point_of_interest", "establishment"], "vicinity": "XW68+V9F, Mohanpur"}, {"business_status": "OPERATIONAL", "geometry": {"location": {"lat": 24.9580661, "lng": 85.9020728}, "viewport": {"northeast": {"lat": 24.9594428302915, "lng": 85.90331773029149}, "southwest": {"lat": 24.9567448697085, "lng": 85.90061976970848}}}, "icon": "https://maps.gstatic.com/mapfiles/place_api/icons/v1/png_71/school-71.png", "icon_background_color": "#7B9EB0", "icon_mask_base_uri": "https://maps.gstatic.com/mapfiles/place_api/icons/v2/school_pinlet", "name": "Madarsa Danrh", "photos": [{"height": 1440, "html_attributions": ["<a href=\"https://maps.google.com/maps/contrib/101072479151009541366\">Md Nawaz</a>"], "photo_reference": "Aap_uEDdu03jcEsKCM_U9OoGEI0A_YQQ0MRkKRzjE-ZAAlkQajD9pfiZPBgniM0ywDYb0uOZHUShuIy1sF6pQ46J6VFccDhuMaFP7xqHLz6po8fmokWg7o_LH9WpFyFz5UbazPxLuf0AP7kHHsqrYXkq3sS_kodaaUKrl3M0dwzdfcYUTu4D", "width": 720}], "place_id": "ChIJ8ynrLV9J8jkRC3xpm4X42YM", "rating": 5, "reference": "ChIJ8ynrLV9J8jkRC3xpm4X42YM", "scope": "GOOGLE", "types": ["school", "point_of_interest", "establishment"], "user_ratings_total": 3, "vicinity": "XW52+6RG, Sagawan"}, {"business_status": "OPERATIONAL", "geometry": {"location": {"lat": 24.9577804, "lng": 85.9017844}, "viewport": {"northeast": {"lat": 24.9591601302915, "lng": 85.90309418029149}, "southwest": {"lat": 24.95646216970849, "lng": 85.90039621970848}}}, "icon": "https://maps.gstatic.com/mapfiles/place_api/icons/v1/png_71/school-71.png", "icon_background_color": "#7B9EB0", "icon_mask_base_uri": "https://maps.gstatic.com/mapfiles/place_api/icons/v2/school_pinlet", "name": "Sajid mallick home", "place_id": "ChIJNVwe4NZJ8jkRR-Fyho6AzvI", "plus_code": {"compound_code": "XW52+4P Bahchha, Bihar, India", "global_code": "7MP7XW52+4P"}, "reference": "ChIJNVwe4NZJ8jkRR-Fyho6AzvI", "scope": "GOOGLE", "types": ["school", "point_of_interest", "establishment"], "vicinity": "Unnamed Road, Bahchha"}, {"business_status": "OPERATIONAL", "geometry": {"location": {"lat": 24.9560788, "lng": 85.90141969999999}, "viewport": {"northeast": {"lat": 24.95740703029151, "lng": 85.9027345802915}, "southwest": {"lat": 24.9547090697085, "lng": 85.90003661970849}}}, "icon": "https://maps.gstatic.com/mapfiles/place_api/icons/v1/png_71/school-71.png", "icon_background_color": "#7B9EB0", "icon_mask_base_uri": "https://maps.gstatic.com/mapfiles/place_api/icons/v2/school_pinlet", "name": "Primary Gov school", "place_id": "ChIJpyqSQcJJ8jkRH5X152UlxU8", "plus_code": {"compound_code": "XW42+CH Bahchha, Bihar, India", "global_code": "7MP7XW42+CH"}, "reference": "ChIJpyqSQcJJ8jkRH5X152UlxU8", "scope": "GOOGLE", "types": ["school", "point_of_interest", "establishment"], "vicinity": "Unnamed Road"}, {"business_status": "OPERATIONAL", "geometry": {"location": {"lat": 24.9560729, "lng": 85.90138809999999}, "viewport": {"northeast": {"lat": 24.95741303029151, "lng": 85.9027225302915}, "southwest": {"lat": 24.9547150697085, "lng": 85.90002456970849}}}, "icon": "https://maps.gstatic.com/mapfiles/place_api/icons/v1/png_71/school-71.png", "icon_background_color": "#7B9EB0", "icon_mask_base_uri": "https://maps.gstatic.com/mapfiles/place_api/icons/v2/school_pinlet", "name": "middle School Danrh Bihar", "opening_hours": {"open_now": false}, "photos": [{"height": 1080, "html_attributions": ["<a href=\"https://maps.google.com/maps/contrib/112571457485052617642\">ganesh kumar</a>"], "photo_reference": "Aap_uEBgP7ywtMRezZLB_a53DVsXupglxPRLTy8cDshv4kU6s96w8DdvPCjQqyGtmegj-egBrRzBfShJDrraU_-0l6HIHajmeEK3QgEioxZEx6Kl7Rvc-luKjP2Asrg6368KoQ-KGumds-UuOex5W8fQ-MxDvOy_5cYvqa3H89j5-xs1FaFz", "width": 1920}], "place_id": "ChIJL1NITItJ8jkRbh8HxmUhXgg", "plus_code": {"compound_code": "XW42+CH Bahchha, Bihar, India", "global_code": "7MP7XW42+CH"}, "rating": 5, "reference": "ChIJL1NITItJ8jkRbh8HxmUhXgg", "scope": "GOOGLE", "types": ["school", "point_of_interest", "establishment"], "user_ratings_total": 3, "vicinity": "Danrh Road Danrh road Danrh"}, {"business_status": "OPERATIONAL", "geometry": {"location": {"lat": 24.9560536, "lng": 85.9013871}, "viewport": {"northeast": {"lat": 24.9574001302915, "lng": 85.9027321302915}, "southwest": {"lat": 24.9547021697085, "lng": 85.90003416970849}}}, "icon": "https://maps.gstatic.com/mapfiles/place_api/icons/v1/png_71/school-71.png", "icon_background_color": "#7B9EB0", "icon_mask_base_uri": "https://maps.gstatic.com/mapfiles/place_api/icons/v2/school_pinlet", "name": "Danrh primary school", "opening_hours": {"open_now": false}, "place_id": "ChIJp0L9VnJJ8jkRWVd9xtOrbC8", "plus_code": {"compound_code": "XW42+CH Bahchha, Bihar, India", "global_code": "7MP7XW42+CH"}, "reference": "ChIJp0L9VnJJ8jkRWVd9xtOrbC8", "scope": "GOOGLE", "types": ["primary_school", "school", "point_of_interest", "establishment"], "vicinity": "Danrh Road Danrh road Danrh, Bahchha"}, {"business_status": "OPERATIONAL", "geometry": {"location": {"lat": 24.9656414, "lng": 85.9184812}, "viewport": {"northeast": {"lat": 24.9669672302915, "lng": 85.9198126802915}, "southwest": {"lat": 24.9642692697085, "lng": 85.9171147197085}}}, "icon": "https://maps.gstatic.com/mapfiles/place_api/icons/v1/png_71/school-71.png", "icon_background_color": "#7B9EB0", "icon_mask_base_uri": "https://maps.gstatic.com/mapfiles/place_api/icons/v2/school_pinlet", "name": "Niraj Nirala", "place_id": "ChIJQeaNyA1J8jkRaY9bXDdD98c", "plus_code": {"compound_code": "XW89+79 Mohanpur, Bihar, India", "global_code": "7MP7XW89+79"}, "reference": "ChIJQeaNyA1J8jkRaY9bXDdD98c", "scope": "GOOGLE", "types": ["secondary_school", "school", "point_of_interest", "establishment"], "vicinity": "Unnamed Road, Mohanpur"}, {"business_status": "OPERATIONAL", "geometry": {"location": {"lat": 24.9508394, "lng": 85.9009744}, "viewport": {"northeast": {"lat": 24.9521870802915, "lng": 85.90238628029151}, "southwest": {"lat": 24.9494891197085, "lng": 85.8996883197085}}}, "icon": "https://maps.gstatic.com/mapfiles/place_api/icons/v1/png_71/school-71.png", "icon_background_color": "#7B9EB0", "icon_mask_base_uri": "https://maps.gstatic.com/mapfiles/place_api/icons/v2/school_pinlet", "name": "Primary school mominpur", "place_id": "ChIJaWgJg5hJ8jkRn2s7cZ1mv3Y", "plus_code": {"compound_code": "XW22+89 Danr, Bihar, India", "global_code": "7MP7XW22+89"}, "rating": 5, "reference": "ChIJaWgJg5hJ8jkRn2s7cZ1mv3Y", "scope": "GOOGLE", "types": ["school", "point_of_interest", "establishment"], "user_ratings_total": 1, "vicinity": "Unnamed Road, Danr"}], "status": "OK"}