{"html_attributions": [], "results": [{"business_status": "OPERATIONAL", "geometry": {"location": {"lat": 24.9765514, "lng": 85.944046}, "viewport": {"northeast": {"lat": 24.97776198029151, "lng": 85.9452886302915}, "southwest": {"lat": 24.9750640197085, "lng": 85.9425906697085}}}, "icon": "https://maps.gstatic.com/mapfiles/place_api/icons/v1/png_71/school-71.png", "icon_background_color": "#7B9EB0", "icon_mask_base_uri": "https://maps.gstatic.com/mapfiles/place_api/icons/v2/school_pinlet", "name": "Middle School And Panchayat Bhawan Raj Kaiyar", "photos": [{"height": 3120, "html_attributions": ["<a href=\"https://maps.google.com/maps/contrib/115951734320370943126\">Prem Singh</a>"], "photo_reference": "Aap_uECxmMdRG5MifBwuGnhThr5RfkZNw0sfBri84ImgGrz0_CAvR-KxkwbgMib1b74Xg5MmgXlAcr4lNrqRYntVyf71KabK6TJ19DwgNKVPNMnD3qYvaGQNtGFDNVFAs91kmZw1vWa83cyqRomobwcY7P5nwnwwZ4VKBmCilg20fAouTmMm", "width": 4160}], "place_id": "ChIJfbYAszs28jkRVsl8lsbHlc4", "rating": 4.5, "reference": "ChIJfbYAszs28jkRVsl8lsbHlc4", "scope": "GOOGLE", "types": ["school", "point_of_interest", "establishment"], "user_ratings_total": 2, "vicinity": "XWGV+JJF, Kaiyar"}, {"business_status": "OPERATIONAL", "geometry": {"location": {"lat": 24.9765335, "lng": 85.9438301}, "viewport": {"northeast": {"lat": 24.9777560802915, "lng": 85.9451924302915}, "southwest": {"lat": 24.9750581197085, "lng": 85.94249446970849}}}, "icon": "https://maps.gstatic.com/mapfiles/place_api/icons/v1/png_71/school-71.png", "icon_background_color": "#7B9EB0", "icon_mask_base_uri": "https://maps.gstatic.com/mapfiles/place_api/icons/v2/school_pinlet", "name": "HIGH SCHOOL KAIAR", "place_id": "ChIJv8iCrTs28jkR9YgF-4ffmBo", "rating": 5, "reference": "ChIJv8iCrTs28jkR9YgF-4ffmBo", "scope": "GOOGLE", "types": ["school", "point_of_interest", "establishment"], "user_ratings_total": 2, "vicinity": "XWGV+JG8, Kaiyar"}, {"business_status": "OPERATIONAL", "geometry": {"location": {"lat": 24.9764825, "lng": 85.9438345}, "viewport": {"northeast": {"lat": 24.9777305802915, "lng": 85.9451924302915}, "southwest": {"lat": 24.9750326197085, "lng": 85.94249446970849}}}, "icon": "https://maps.gstatic.com/mapfiles/place_api/icons/v1/png_71/school-71.png", "icon_background_color": "#7B9EB0", "icon_mask_base_uri": "https://maps.gstatic.com/mapfiles/place_api/icons/v2/school_pinlet", "name": "+2 Ramdeo Nunubati High School Kaiar", "place_id": "ChIJkYOLrTs28jkRgcAIcUe_fxc", "reference": "ChIJkYOLrTs28jkRgcAIcUe_fxc", "scope": "GOOGLE", "types": ["school", "point_of_interest", "establishment"], "vicinity": "XWGV+HGW, Kaiyar"}, {"business_status": "OPERATIONAL", "geometry": {"location": {"lat": 24.967555, "lng": 85.95189309999999}, "viewport": {"northeast": {"lat": 24.9689039802915, "lng": 85.9532420802915}, "southwest": {"lat": 24.9662060197085, "lng": 85.9505441197085}}}, "icon": "https://maps.gstatic.com/mapfiles/place_api/icons/v1/png_71/school-71.png", "icon_background_color": "#7B9EB0", "icon_mask_base_uri": "https://maps.gstatic.com/mapfiles/place_api/icons/v2/school_pinlet", "name": "+ 2 sri Ramdeo Nunuwati High School Kaiyar (Jamui) 811301", "opening_hours": {"open_now": false}, "place_id": "ChIJ3SUv9f038jkRXegeOUV5UkQ", "reference": "ChIJ3SUv9f038jkRXegeOUV5UkQ", "scope": "GOOGLE", "types": ["school", "point_of_interest", "establishment"], "vicinity": "XX92+2QC, Kaiyar"}], "status": "OK"}