{"html_attributions": [], "results": [{"business_status": "OPERATIONAL", "geometry": {"location": {"lat": 24.418176, "lng": 85.83754019999999}, "viewport": {"northeast": {"lat": 24.4195005802915, "lng": 85.8388239302915}, "southwest": {"lat": 24.4168026197085, "lng": 85.83612596970849}}}, "icon": "https://maps.gstatic.com/mapfiles/place_api/icons/v1/png_71/school-71.png", "icon_background_color": "#7B9EB0", "icon_mask_base_uri": "https://maps.gstatic.com/mapfiles/place_api/icons/v2/school_pinlet", "name": "Fk Raja", "photos": [{"height": 4224, "html_attributions": ["<a href=\"https://maps.google.com/maps/contrib/117673987436246162200\">Fk Raja</a>"], "photo_reference": "Aap_uEAPF9RzF1Idnaj_FDk_2QdlooBcNcv9S9UNTTQLo2qz4nlqTWdZwROCqcNA-SeWzIZnGpSHjz2uUxNvjGeluX0GnRCE7UBH6geMgn6JL7AFAg5so8dXHM0sSySJyTAxOHn_7TiaJqds-c8qGZZ5HeDqsWioSvp2oBWDa0OEvu7274wq", "width": 3136}], "place_id": "ChIJ8WyjzJOX8zkR11_8jihACDs", "plus_code": {"compound_code": "CR9Q+72 Labania alias Bela, Jharkhand, India", "global_code": "7MP7CR9Q+72"}, "rating": 5, "reference": "ChIJ8WyjzJOX8zkR11_8jihACDs", "scope": "GOOGLE", "types": ["school", "point_of_interest", "establishment"], "user_ratings_total": 4, "vicinity": "Labniya alias bela, Labania alias Bela"}, {"business_status": "OPERATIONAL", "geometry": {"location": {"lat": 24.4234839, "lng": 85.8371375}, "viewport": {"northeast": {"lat": 24.4251918802915, "lng": 85.83866863029151}, "southwest": {"lat": 24.4224939197085, "lng": 85.83597066970849}}}, "icon": "https://maps.gstatic.com/mapfiles/place_api/icons/v1/png_71/school-71.png", "icon_background_color": "#7B9EB0", "icon_mask_base_uri": "https://maps.gstatic.com/mapfiles/place_api/icons/v2/school_pinlet", "name": "S.B.V.M. school karma chowk", "photos": [{"height": 2604, "html_attributions": ["<a href=\"https://maps.google.com/maps/contrib/106710695235070483306\">pankaj kumar pandit pkp</a>"], "photo_reference": "Aap_uEBCSke6wzFMSX2B_lWWJBACeHACtq4NI-ik-94cOHpCQW3d2YQo9oOe4HPuPloVjMPMWLV1U5VGRWK2yIpw1JySWUJXXXPHFESwG-leJmqq8U7YkpatXRLDDvM7THEKT_rbAqlfnX-0ux1pA3iQBWVfnLvaOt3Ki14woU9HOzRJy1SV", "width": 4624}], "place_id": "ChIJxfKCPSCX8zkRRVKItPYz9ag", "plus_code": {"compound_code": "CRFP+9V Murukmanai, Jharkhand, India", "global_code": "7MP7CRFP+9V"}, "rating": 5, "reference": "ChIJxfKCPSCX8zkRRVKItPYz9ag", "scope": "GOOGLE", "types": ["school", "point_of_interest", "establishment"], "user_ratings_total": 5, "vicinity": "Unnamed Road, Murukmanai"}, {"business_status": "OPERATIONAL", "geometry": {"location": {"lat": 24.4268312, "lng": 85.8257478}, "viewport": {"northeast": {"lat": 24.4281790302915, "lng": 85.82709978029149}, "southwest": {"lat": 24.4254810697085, "lng": 85.82440181970848}}}, "icon": "https://maps.gstatic.com/mapfiles/place_api/icons/v1/png_71/school-71.png", "icon_background_color": "#7B9EB0", "icon_mask_base_uri": "https://maps.gstatic.com/mapfiles/place_api/icons/v2/school_pinlet", "name": "Balidih School", "place_id": "ChIJsSWaqECX8zkRImYzBQ6z58U", "reference": "ChIJsSWaqECX8zkRImYzBQ6z58U", "scope": "GOOGLE", "types": ["school", "point_of_interest", "establishment"], "vicinity": "CRGG+P7Q, Murukmanai"}, {"business_status": "OPERATIONAL", "geometry": {"location": {"lat": 24.4231289, "lng": 85.83923159999999}, "viewport": {"northeast": {"lat": 24.4245655802915, "lng": 85.8405787302915}, "southwest": {"lat": 24.4218676197085, "lng": 85.83788076970849}}}, "icon": "https://maps.gstatic.com/mapfiles/place_api/icons/v1/png_71/school-71.png", "icon_background_color": "#7B9EB0", "icon_mask_base_uri": "https://maps.gstatic.com/mapfiles/place_api/icons/v2/school_pinlet", "name": "Noble public shool", "place_id": "ChIJ1_YQf7CX8zkRnOA0tr8cYwg", "plus_code": {"compound_code": "CRFQ+7M Murukmanai, Jharkhand, India", "global_code": "7MP7CRFQ+7M"}, "reference": "ChIJ1_YQf7CX8zkRnOA0tr8cYwg", "scope": "GOOGLE", "types": ["school", "point_of_interest", "establishment"], "vicinity": "Unnamed Road, Murukmanai"}, {"business_status": "OPERATIONAL", "geometry": {"location": {"lat": 24.4259798, "lng": 85.8224108}, "viewport": {"northeast": {"lat": 24.4274523302915, "lng": 85.8234338802915}, "southwest": {"lat": 24.4247543697085, "lng": 85.82073591970848}}}, "icon": "https://maps.gstatic.com/mapfiles/place_api/icons/v1/png_71/school-71.png", "icon_background_color": "#7B9EB0", "icon_mask_base_uri": "https://maps.gstatic.com/mapfiles/place_api/icons/v2/school_pinlet", "name": "Md mahtab Salman", "photos": [{"height": 468, "html_attributions": ["<a href=\"https://maps.google.com/maps/contrib/115031752445897801696\">mahtab Ansari</a>"], "photo_reference": "Aap_uEBHT4cBCx8HzlraI44Ak3Fs9tCShYkc_ZfWntCb98t6COMI5hvc-M6QQmQ99HQO-khaRv6HcLTCwUWX951GmzdzcriRlazV4P4dmbjJGi9Ea5gdpg2mTCDb7yMZpVzrWWUGiiyxfE1kt3QtuWTx041rdCsWALyYX2UC2GnW0YQ3MF-Z", "width": 1040}], "place_id": "ChIJo-8PqOiX8zkRAlaeoEf60XU", "plus_code": {"compound_code": "CRGC+9X Kumardih, Jharkhand, India", "global_code": "7MP7CRGC+9X"}, "reference": "ChIJo-8PqOiX8zkRAlaeoEf60XU", "scope": "GOOGLE", "types": ["secondary_school", "school", "point_of_interest", "establishment"], "vicinity": "Kumardih"}, {"business_status": "OPERATIONAL", "geometry": {"location": {"lat": 24.4173383, "lng": 85.81699449999999}, "viewport": {"northeast": {"lat": 24.4180831302915, "lng": 85.8182563802915}, "southwest": {"lat": 24.4153851697085, "lng": 85.81555841970848}}}, "icon": "https://maps.gstatic.com/mapfiles/place_api/icons/v1/png_71/school-71.png", "icon_background_color": "#7B9EB0", "icon_mask_base_uri": "https://maps.gstatic.com/mapfiles/place_api/icons/v2/school_pinlet", "name": "Utkarmit Prathmik Vidyalaya Gurha", "place_id": "ChIJ6e9dvvCX8zkR9h6NvYaqihE", "reference": "ChIJ6e9dvvCX8zkR9h6NvYaqihE", "scope": "GOOGLE", "types": ["school", "point_of_interest", "establishment"], "vicinity": "CR88+WQQ, Gurha"}, {"business_status": "OPERATIONAL", "geometry": {"location": {"lat": 24.4176693, "lng": 85.81662349999999}, "viewport": {"northeast": {"lat": 24.4184343, "lng": 85.8180320802915}, "southwest": {"lat": 24.4153743, "lng": 85.81533411970848}}}, "icon": "https://maps.gstatic.com/mapfiles/place_api/icons/v1/png_71/school-71.png", "icon_background_color": "#7B9EB0", "icon_mask_base_uri": "https://maps.gstatic.com/mapfiles/place_api/icons/v2/school_pinlet", "name": "Rohit shop", "place_id": "ChIJP2JLI7qX8zkRwXq9E6_9VSE", "reference": "ChIJP2JLI7qX8zkRwXq9E6_9VSE", "scope": "GOOGLE", "types": ["school", "point_of_interest", "establishment"], "vicinity": "CR98+3J9, Gurha"}, {"business_status": "OPERATIONAL", "geometry": {"location": {"lat": 24.4176693, "lng": 85.81662349999999}, "viewport": {"northeast": {"lat": 24.4184343, "lng": 85.8180320802915}, "southwest": {"lat": 24.4153743, "lng": 85.81533411970848}}}, "icon": "https://maps.gstatic.com/mapfiles/place_api/icons/v1/png_71/school-71.png", "icon_background_color": "#7B9EB0", "icon_mask_base_uri": "https://maps.gstatic.com/mapfiles/place_api/icons/v2/school_pinlet", "name": "Govt. Middle School Gurha Talab", "photos": [{"height": 540, "html_attributions": ["<a href=\"https://maps.google.com/maps/contrib/104166395119254855536\">Babulal yadav</a>"], "photo_reference": "Aap_uEAzEzsa7QRWs8EXClfNoMxVO7Sjv_DnMFZwFsRSBXFnsyJtta2Knzmj3vEpclNfOgFxJXFM8s6UsieR5EQQYB1qYUTn_Kv2prGsFlUZboDdfdePNu6zKLE1T1yiPYVoc2sSV1i_GGYY6nUUylCTe4B30KJNimiEppHBHc42cKJjhsg3", "width": 720}], "place_id": "ChIJz0ooRKiX8zkRfCg3Du1UIsA", "rating": 5, "reference": "ChIJz0ooRKiX8zkRfCg3Du1UIsA", "scope": "GOOGLE", "types": ["school", "point_of_interest", "establishment"], "user_ratings_total": 1, "vicinity": "CR98+3J9, Ambaran, Gurha"}, {"business_status": "OPERATIONAL", "geometry": {"location": {"lat": 24.4109241, "lng": 85.8409453}, "viewport": {"northeast": {"lat": 24.4123984302915, "lng": 85.84183158029153}, "southwest": {"lat": 24.4097004697085, "lng": 85.8391336197085}}}, "icon": "https://maps.gstatic.com/mapfiles/place_api/icons/v1/png_71/school-71.png", "icon_background_color": "#7B9EB0", "icon_mask_base_uri": "https://maps.gstatic.com/mapfiles/place_api/icons/v2/school_pinlet", "name": "bela school", "photos": [{"height": 780, "html_attributions": ["<a href=\"https://maps.google.com/maps/contrib/112875118840196999856\">Vikash Kumar</a>"], "photo_reference": "Aap_uECbgI_xwvh4AlbuDI3mUzso9GDwXnMQh2NPe7OSZDakVCELyk8q_89wOJUPJtCLr_u0TPYR4UfybQAdTCPknx6mFxP0XnoQeqzXbmTGk3SZj4gQH-U8oteQDEi-g8mH4Xpkq0Dlf40QcLXnEClJfJrc_gsB-p2Dt92sNe5ttQyNcm01", "width": 1040}], "place_id": "ChIJHx2HNemX8zkRodnXVkwdtYw", "rating": 5, "reference": "ChIJHx2HNemX8zkRodnXVkwdtYw", "scope": "GOOGLE", "types": ["school", "point_of_interest", "establishment"], "user_ratings_total": 4, "vicinity": "CR6R+998, Labania alias Bela"}], "status": "OK"}