{"html_attributions": [], "results": [{"business_status": "OPERATIONAL", "geometry": {"location": {"lat": 24.8128016, "lng": 85.9654414}, "viewport": {"northeast": {"lat": 24.8141041302915, "lng": 85.9668067802915}, "southwest": {"lat": 24.8114061697085, "lng": 85.9641088197085}}}, "icon": "https://maps.gstatic.com/mapfiles/place_api/icons/v1/png_71/school-71.png", "icon_background_color": "#7B9EB0", "icon_mask_base_uri": "https://maps.gstatic.com/mapfiles/place_api/icons/v2/school_pinlet", "name": "Sannu rahi mobile centar mahudar", "photos": [{"height": 1280, "html_attributions": ["<a href=\"https://maps.google.com/maps/contrib/114261493363653779905\">Rawat Bipin</a>"], "photo_reference": "Aap_uEArxObENje5-vKw_0-uvndpQC_kWEmwPiknGkKwgIB8241Kfcr8gBHJdx7mseot_5jvACHs3tRgdD4ZdQxMEexEdCJEPcDPD-v4S6gprbDTXVXQ5Q5bw87XRwG8zKWBMNexCdmyn-osdw-QY9bm1XD0LG2t1CvyWPeL-2ONFIILuZAx", "width": 640}], "place_id": "ChIJRYTjSvnL8zkR4V9NklLYwXI", "plus_code": {"compound_code": "RX78+45 Mahurar, Bihar, India", "global_code": "7MP7RX78+45"}, "reference": "ChIJRYTjSvnL8zkR4V9NklLYwXI", "scope": "GOOGLE", "types": ["school", "point_of_interest", "establishment"], "vicinity": "State Highway 82, Mahurar"}, {"business_status": "OPERATIONAL", "geometry": {"location": {"lat": 24.8131374, "lng": 85.964347}, "viewport": {"northeast": {"lat": 24.8141390802915, "lng": 85.96583008029151}, "southwest": {"lat": 24.8114411197085, "lng": 85.9631321197085}}}, "icon": "https://maps.gstatic.com/mapfiles/place_api/icons/v1/png_71/school-71.png", "icon_background_color": "#7B9EB0", "icon_mask_base_uri": "https://maps.gstatic.com/mapfiles/place_api/icons/v2/school_pinlet", "name": "\u0909\u0924\u094d\u0915\u094d\u0930\u092e\u093f\u0924 \u092e\u0927\u094d\u092f \u0935\u093f\u0926\u094d\u092f\u093e\u0932\u092f Mahudar\u0915\u0947 \u092a\u0940\u091b\u0947", "place_id": "ChIJrc3aPPvK8zkR3S3ArbPOOxw", "rating": 5, "reference": "ChIJrc3aPPvK8zkR3S3ArbPOOxw", "scope": "GOOGLE", "types": ["school", "point_of_interest", "establishment"], "user_ratings_total": 1, "vicinity": "RX77+7P5, Mahurar"}, {"geometry": {"location": {"lat": 24.8125784, "lng": 85.9641805}, "viewport": {"northeast": {"lat": 24.81388807221307, "lng": 85.96551089143463}, "southwest": {"lat": 24.81119011163006, "lng": 85.96281293085163}}}, "icon": "https://maps.gstatic.com/mapfiles/place_api/icons/v1/png_71/school-71.png", "icon_background_color": "#7B9EB0", "icon_mask_base_uri": "https://maps.gstatic.com/mapfiles/place_api/icons/v2/school_pinlet", "name": "\u092e\u0939\u0941\u0921\u093c\u0930 \u0909\u0924\u094d\u0915\u094d\u0930\u092e\u093f\u0924 \u092e\u0927\u094d\u092f \u0935\u093f\u0926\u094d\u092f\u093e\u0932\u092f", "place_id": "ChIJU759GfvK8zkRypFIc-2wP6g", "reference": "ChIJU759GfvK8zkRypFIc-2wP6g", "scope": "GOOGLE", "types": ["secondary_school", "premise", "school", "establishment"], "vicinity": "Mahurar"}], "status": "OK"}