{"html_attributions": [], "results": [{"business_status": "OPERATIONAL", "geometry": {"location": {"lat": 24.9957348, "lng": 85.9757656}, "viewport": {"northeast": {"lat": 24.9970234802915, "lng": 85.9771061802915}, "southwest": {"lat": 24.9943255197085, "lng": 85.9744082197085}}}, "icon": "https://maps.gstatic.com/mapfiles/place_api/icons/v1/png_71/school-71.png", "icon_background_color": "#7B9EB0", "icon_mask_base_uri": "https://maps.gstatic.com/mapfiles/place_api/icons/v2/school_pinlet", "name": "Middle School Ballopur", "place_id": "ChIJn0i0cAE38jkRdcuT6sOm5ts", "reference": "ChIJn0i0cAE38jkRdcuT6sOm5ts", "scope": "GOOGLE", "types": ["school", "point_of_interest", "establishment"], "vicinity": "XXWG+78R, Ballopur"}, {"business_status": "OPERATIONAL", "geometry": {"location": {"lat": 24.9956567, "lng": 85.9758307}, "viewport": {"northeast": {"lat": 24.9969843802915, "lng": 85.9771769802915}, "southwest": {"lat": 24.99428641970849, "lng": 85.9744790197085}}}, "icon": "https://maps.gstatic.com/mapfiles/place_api/icons/v1/png_71/school-71.png", "icon_background_color": "#7B9EB0", "icon_mask_base_uri": "https://maps.gstatic.com/mapfiles/place_api/icons/v2/school_pinlet", "name": "Ballopur Primary School", "place_id": "ChIJO_vneQE38jkR_nCWCwCP0-c", "rating": 5, "reference": "ChIJO_vneQE38jkR_nCWCwCP0-c", "scope": "GOOGLE", "types": ["primary_school", "school", "point_of_interest", "establishment"], "user_ratings_total": 3, "vicinity": "XXWG+788, Ballopur"}, {"business_status": "OPERATIONAL", "geometry": {"location": {"lat": 24.99661469999999, "lng": 85.9775757}, "viewport": {"northeast": {"lat": 24.9979746802915, "lng": 85.9788845302915}, "southwest": {"lat": 24.99527671970849, "lng": 85.97618656970849}}}, "icon": "https://maps.gstatic.com/mapfiles/place_api/icons/v1/png_71/school-71.png", "icon_background_color": "#7B9EB0", "icon_mask_base_uri": "https://maps.gstatic.com/mapfiles/place_api/icons/v2/school_pinlet", "name": "Aaganwadi School", "place_id": "ChIJM-4dwQM38jkR6KOOUPO6l0g", "reference": "ChIJM-4dwQM38jkR6KOOUPO6l0g", "scope": "GOOGLE", "types": ["school", "point_of_interest", "establishment"], "vicinity": "XXWH+J2W, Ballopur"}, {"business_status": "OPERATIONAL", "geometry": {"location": {"lat": 25.0043167, "lng": 85.97488}, "viewport": {"northeast": {"lat": 25.0056819802915, "lng": 85.9761184302915}, "southwest": {"lat": 25.0029840197085, "lng": 85.9734204697085}}}, "icon": "https://maps.gstatic.com/mapfiles/place_api/icons/v1/png_71/school-71.png", "icon_background_color": "#7B9EB0", "icon_mask_base_uri": "https://maps.gstatic.com/mapfiles/place_api/icons/v2/school_pinlet", "name": "U.M.S. SIYANI", "photos": [{"height": 1080, "html_attributions": ["<a href=\"https://maps.google.com/maps/contrib/114632807298479754444\">Mohd Naim</a>"], "photo_reference": "Aap_uEBO-oO1j-jIc3HxId9wT_7P6T3jCUrYY38aYHQxnyndnD8KlzE55IZTvTf-DAgSGKPL1EP66FKoLSNQ7IBTiwO6bJdkUWXmG2WR6m_U5azu6mDd-zExjpCIHPWUHt1_Z6Kud-nPPP_WOx4O4B4dE5SXF0xXXzHize7VsptesnNsO5or", "width": 1920}], "place_id": "ChIJR7CPhrU38jkRNRTvA5m_Rwc", "rating": 3, "reference": "ChIJR7CPhrU38jkRNRTvA5m_Rwc", "scope": "GOOGLE", "types": ["school", "point_of_interest", "establishment"], "user_ratings_total": 1, "vicinity": "2X3F+PXC, Seani"}, {"business_status": "OPERATIONAL", "geometry": {"location": {"lat": 24.9939785, "lng": 85.977958}, "viewport": {"northeast": {"lat": 24.9953967302915, "lng": 85.97937568029151}, "southwest": {"lat": 24.9926987697085, "lng": 85.97667771970849}}}, "icon": "https://maps.gstatic.com/mapfiles/place_api/icons/v1/png_71/school-71.png", "icon_background_color": "#7B9EB0", "icon_mask_base_uri": "https://maps.gstatic.com/mapfiles/place_api/icons/v2/school_pinlet", "name": "R.k Boss", "place_id": "ChIJRaleK3A38jkR9pNKmJlpnBI", "plus_code": {"compound_code": "XXVH+H5 Ballopur, Bihar, India", "global_code": "7MP7XXVH+H5"}, "reference": "ChIJRaleK3A38jkR9pNKmJlpnBI", "scope": "GOOGLE", "types": ["school", "point_of_interest", "establishment"], "vicinity": "Ballopur - Matasi Road, Ballopur"}, {"business_status": "OPERATIONAL", "geometry": {"location": {"lat": 25.0082385, "lng": 85.9754016}, "viewport": {"northeast": {"lat": 25.0095794302915, "lng": 85.97678698029152}, "southwest": {"lat": 25.0068814697085, "lng": 85.9740890197085}}}, "icon": "https://maps.gstatic.com/mapfiles/place_api/icons/v1/png_71/school-71.png", "icon_background_color": "#7B9EB0", "icon_mask_base_uri": "https://maps.gstatic.com/mapfiles/place_api/icons/v2/school_pinlet", "name": "G.S.S. Public School", "photos": [{"height": 3000, "html_attributions": ["<a href=\"https://maps.google.com/maps/contrib/113308587527547191044\">KUMAR SHUBHAM</a>"], "photo_reference": "Aap_uEBARcDT_Hu7aUlcblG4K38Ukl2YNUP8SqH1MH8LPlgzbcbYVgoGXI9xvxdJloPDZW-fdL0j47G2olmb8_OyYYNc9_fwe47WKebO75WQlr9EARxzhOcHjYaE_OZIK_atqOoF3TE_Q-9Okcw5WUaKfXcO08auZWxYf3t5v-fWZ7ceEP8s", "width": 4000}], "place_id": "ChIJewvYYqk38jkRvvAijNcDWdM", "plus_code": {"compound_code": "2X5G+75 Seani, Bihar, India", "global_code": "7MQ72X5G+75"}, "rating": 5, "reference": "ChIJewvYYqk38jkRvvAijNcDWdM", "scope": "GOOGLE", "types": ["school", "point_of_interest", "establishment"], "user_ratings_total": 1, "vicinity": "Ballopur Tarhari Road, Seani"}], "status": "OK"}