{"html_attributions": [], "results": [{"business_status": "OPERATIONAL", "geometry": {"location": {"lat": 25.10877409999999, "lng": 85.82427729999999}, "viewport": {"northeast": {"lat": 25.1101352802915, "lng": 85.8255532802915}, "southwest": {"lat": 25.1074373197085, "lng": 85.8228553197085}}}, "icon": "https://maps.gstatic.com/mapfiles/place_api/icons/v1/png_71/school-71.png", "icon_background_color": "#7B9EB0", "icon_mask_base_uri": "https://maps.gstatic.com/mapfiles/place_api/icons/v2/school_pinlet", "name": "Middle School Mankaul", "photos": [{"height": 2448, "html_attributions": ["<a href=\"https://maps.google.com/maps/contrib/114632807298479754444\">Mohd Naim</a>"], "photo_reference": "Aap_uECQKOi3bWFRMJsJ0uXQ0bm66H8gO_FPvi0ow2qnkcdDIBj3Ysh7VFW_7BHgOoS8GwNEdoMWxKqfZmRBrCvCbwTch4Q8wB20-WMtorI7xYfaKdkd2vrQxGRTTrh3Ox8zqNtVFnuakTV_Ok2Yz2taafREfV5n2mJniQkQ7-b3wXDKXxii", "width": 3264}], "place_id": "ChIJKXA8ZGVF8jkRJxnIlAMfMP0", "rating": 3, "reference": "ChIJKXA8ZGVF8jkRJxnIlAMfMP0", "scope": "GOOGLE", "types": ["school", "point_of_interest", "establishment"], "user_ratings_total": 1, "vicinity": "4R5F+GP2, Jakhaur"}, {"business_status": "OPERATIONAL", "geometry": {"location": {"lat": 25.1171649, "lng": 85.8162849}, "viewport": {"northeast": {"lat": 25.1185398302915, "lng": 85.8176143802915}, "southwest": {"lat": 25.1158418697085, "lng": 85.8149164197085}}}, "icon": "https://maps.gstatic.com/mapfiles/place_api/icons/v1/png_71/school-71.png", "icon_background_color": "#7B9EB0", "icon_mask_base_uri": "https://maps.gstatic.com/mapfiles/place_api/icons/v2/school_pinlet", "name": "Spark Chemistry Classes", "place_id": "ChIJ8QX8O2VE8jkR28Sl9fk0REU", "plus_code": {"compound_code": "4R88+VG Rasulpur, Bihar, India", "global_code": "7MQ74R88+VG"}, "reference": "ChIJ8QX8O2VE8jkR28Sl9fk0REU", "scope": "GOOGLE", "types": ["school", "point_of_interest", "establishment"], "vicinity": "Sheikhpura - Kusmaha Road"}, {"geometry": {"location": {"lat": 25.1085763, "lng": 85.8242253}, "viewport": {"northeast": {"lat": 25.10994184748385, "lng": 85.82559896389037}, "southwest": {"lat": 25.10724388690085, "lng": 85.82290100330735}}}, "icon": "https://maps.gstatic.com/mapfiles/place_api/icons/v1/png_71/school-71.png", "icon_background_color": "#7B9EB0", "icon_mask_base_uri": "https://maps.gstatic.com/mapfiles/place_api/icons/v2/school_pinlet", "name": "Mankaul Vidyalay", "place_id": "ChIJy9eYOGpE8jkRsSNUgbGtkSg", "reference": "ChIJy9eYOGpE8jkRsSNUgbGtkSg", "scope": "GOOGLE", "types": ["premise", "school", "establishment"], "vicinity": "Mankaul"}], "status": "OK"}