{"html_attributions": [], "results": [{"business_status": "OPERATIONAL", "geometry": {"location": {"lat": 25.1419375, "lng": 85.9944363}, "viewport": {"northeast": {"lat": 25.1432702302915, "lng": 85.99577948029152}, "southwest": {"lat": 25.14057226970849, "lng": 85.9930815197085}}}, "icon": "https://maps.gstatic.com/mapfiles/place_api/icons/v1/png_71/school-71.png", "icon_background_color": "#7B9EB0", "icon_mask_base_uri": "https://maps.gstatic.com/mapfiles/place_api/icons/v2/school_pinlet", "name": "Shiv Temple Dogay", "photos": [{"height": 1686, "html_attributions": ["<a href=\"https://maps.google.com/maps/contrib/103253063830821717500\">GuRu</a>"], "photo_reference": "Aap_uECSg7chTq2Ah4g4-LOP4aqKlgtS45mDPhN06tn1L4G0P-V6RxpA3ZVgdBqHghBhsLUj0pRNpMn2PKOZxXvD8L_-UjVg796jwTj-IDl_PWCbyY-BCIMxIOznrIw8W_KVy_aL0qHIQtuoiOZPE8x7iCZgHYavfjf-AuBlgRy09cjgU7pO", "width": 1544}], "place_id": "ChIJayqfibY-8jkRxeEEtjk9MdI", "plus_code": {"compound_code": "4XRV+QQ Dugai, Bihar, India", "global_code": "7MQ74XRV+QQ"}, "rating": 4, "reference": "ChIJayqfibY-8jkRxeEEtjk9MdI", "scope": "GOOGLE", "types": ["school", "point_of_interest", "establishment"], "user_ratings_total": 2, "vicinity": "vill_Dogay po kachhiyana dist lakhisarai state bihar"}, {"business_status": "OPERATIONAL", "geometry": {"location": {"lat": 25.1412914, "lng": 85.9982065}, "viewport": {"northeast": {"lat": 25.1426183802915, "lng": 85.99966663029151}, "southwest": {"lat": 25.1399204197085, "lng": 85.9969686697085}}}, "icon": "https://maps.gstatic.com/mapfiles/place_api/icons/v1/png_71/school-71.png", "icon_background_color": "#7B9EB0", "icon_mask_base_uri": "https://maps.gstatic.com/mapfiles/place_api/icons/v2/school_pinlet", "name": "Utkramit Madhya Vidyalaya Kachhiyana", "place_id": "ChIJVXmi6qM_8jkRJ7uk1zvd2As", "plus_code": {"compound_code": "4XRX+G7 Dugai, Bihar, India", "global_code": "7MQ74XRX+G7"}, "reference": "ChIJVXmi6qM_8jkRJ7uk1zvd2As", "scope": "GOOGLE", "types": ["school", "point_of_interest", "establishment"], "vicinity": "Dugai"}, {"business_status": "OPERATIONAL", "geometry": {"location": {"lat": 25.1412987, "lng": 85.9983403}, "viewport": {"northeast": {"lat": 25.1426381302915, "lng": 85.9997374302915}, "southwest": {"lat": 25.1399401697085, "lng": 85.9970394697085}}}, "icon": "https://maps.gstatic.com/mapfiles/place_api/icons/v1/png_71/school-71.png", "icon_background_color": "#7B9EB0", "icon_mask_base_uri": "https://maps.gstatic.com/mapfiles/place_api/icons/v2/school_pinlet", "name": "kachhiana high school", "photos": [{"height": 2322, "html_attributions": ["<a href=\"https://maps.google.com/maps/contrib/105366717693082321885\">amarjeet kumar amar</a>"], "photo_reference": "Aap_uEDTX521IwnyxKFQ1TU2zQDIA3r8e6Yzk3F34wQUfyZoQ3Wm9W6fU64CJlVU-UeUf1djhC_ovI1Y7N8A1hcxYHoEcANIRUkLKJAouZsRhu0yoLQimT9j0Dc3t6PU5V6Xf8buKYGGPFTWKNhCafO_PsKOxm8UZRxq2LYRzLWLKSfJ0igw", "width": 4128}], "place_id": "ChIJlTx0YLs_8jkRZ18CYxd3S4k", "rating": 5, "reference": "ChIJlTx0YLs_8jkRZ18CYxd3S4k", "scope": "GOOGLE", "types": ["school", "point_of_interest", "establishment"], "user_ratings_total": 1, "vicinity": "4XRX+G88, Dugai"}, {"business_status": "OPERATIONAL", "geometry": {"location": {"lat": 25.1291352, "lng": 85.99684789999999}, "viewport": {"northeast": {"lat": 25.1304841802915, "lng": 85.99819688029149}, "southwest": {"lat": 25.12778621970849, "lng": 85.99549891970848}}}, "icon": "https://maps.gstatic.com/mapfiles/place_api/icons/v1/png_71/school-71.png", "icon_background_color": "#7B9EB0", "icon_mask_base_uri": "https://maps.gstatic.com/mapfiles/place_api/icons/v2/school_pinlet", "name": "School", "photos": [{"height": 1080, "html_attributions": ["<a href=\"https://maps.google.com/maps/contrib/117389324095986967811\">singh sonu</a>"], "photo_reference": "Aap_uEC8cb--zebW5gZzQJ7EEBP9Or33yRJ9Kh4KzbY4RUoAAtC0BnPnXHjFlBszij2DSWT5Zq0y1FeUy7NBJeG1BundaYfU_SVWXROFodjf6_hdlhCOtwXrdIBXNjrwCIa-fTRngWWtYZClkqhmq8KXsmj2JO5ToexR9SNxUJrRCgaIssJR", "width": 1920}], "place_id": "ChIJmWu3kU058jkRK5c5Go3MhHI", "reference": "ChIJmWu3kU058jkRK5c5Go3MhHI", "scope": "GOOGLE", "types": ["school", "point_of_interest", "establishment"], "vicinity": "4XHW+MP5, Kachhiana"}, {"business_status": "OPERATIONAL", "geometry": {"location": {"lat": 25.1495083, "lng": 85.9840864}, "viewport": {"northeast": {"lat": 25.1508572802915, "lng": 85.9854353802915}, "southwest": {"lat": 25.1481593197085, "lng": 85.9827374197085}}}, "icon": "https://maps.gstatic.com/mapfiles/place_api/icons/v1/png_71/school-71.png", "icon_background_color": "#7B9EB0", "icon_mask_base_uri": "https://maps.gstatic.com/mapfiles/place_api/icons/v2/school_pinlet", "name": "Gurukul Groups Of Institution", "photos": [{"height": 4096, "html_attributions": ["<a href=\"https://maps.google.com/maps/contrib/105942867458168703117\">deepak kumar</a>"], "photo_reference": "Aap_uEBnbPdKNIqfG1nQMxG1AirtmzNtHkjbduB3MdFtAykZb4KbQ1Xx6_Kgn6QvKVgynMmEAvOE_ojxFzc00pG3Ku1vlBepG8xviJrEnvkWQepUXuy3DvHtT_G9w5SNb7MRYCRzhBFBREzvu1dph_Np5Q-2oyAQKlMAfbOu-_P0QyWgnFTy", "width": 2304}], "place_id": "ChIJAwAAAMU-8jkRAnMruYszRGM", "rating": 5, "reference": "ChIJAwAAAMU-8jkRAnMruYszRGM", "scope": "GOOGLE", "types": ["school", "point_of_interest", "establishment"], "user_ratings_total": 1, "vicinity": "4XXM+RJ4, Kesaura"}, {"business_status": "OPERATIONAL", "geometry": {"location": {"lat": 25.1495084, "lng": 85.98408649999999}, "viewport": {"northeast": {"lat": 25.1508573802915, "lng": 85.9854354802915}, "southwest": {"lat": 25.1481594197085, "lng": 85.9827375197085}}}, "icon": "https://maps.gstatic.com/mapfiles/place_api/icons/v1/png_71/school-71.png", "icon_background_color": "#7B9EB0", "icon_mask_base_uri": "https://maps.gstatic.com/mapfiles/place_api/icons/v2/school_pinlet", "name": "SUBHASHCHANDRA BOSE ENGLISH ACADEMY KESAURA NAGARNAUSA NALANDA BIHAR", "place_id": "ChIJOQ2t7K8_8jkRwok2GnkSzNU", "rating": 5, "reference": "ChIJOQ2t7K8_8jkRwok2GnkSzNU", "scope": "GOOGLE", "types": ["school", "point_of_interest", "establishment"], "user_ratings_total": 1, "vicinity": "4XXM+RJ4, Kesaura"}], "status": "OK"}