{"html_attributions": [], "results": [{"business_status": "OPERATIONAL", "geometry": {"location": {"lat": 24.3681009, "lng": 85.84734399999999}, "viewport": {"northeast": {"lat": 24.3692374302915, "lng": 85.84867334999998}, "southwest": {"lat": 24.3665394697085, "lng": 85.84335594999999}}}, "icon": "https://maps.gstatic.com/mapfiles/place_api/icons/v1/png_71/school-71.png", "icon_background_color": "#7B9EB0", "icon_mask_base_uri": "https://maps.gstatic.com/mapfiles/place_api/icons/v2/school_pinlet", "name": "KGN ACADEMY, Khargu", "place_id": "ChIJsdrEiaSR8zkR1nMlbREfOsY", "plus_code": {"compound_code": "9R9W+6W Chaube, Jharkhand, India", "global_code": "7MP79R9W+6W"}, "reference": "ChIJsdrEiaSR8zkR1nMlbREfOsY", "scope": "GOOGLE", "types": ["school", "point_of_interest", "establishment"], "vicinity": "Khargu, Chaube"}, {"business_status": "OPERATIONAL", "geometry": {"location": {"lat": 24.3876208, "lng": 85.85630069999999}, "viewport": {"northeast": {"lat": 24.3889011, "lng": 85.8571018802915}, "southwest": {"lat": 24.3837799, "lng": 85.85440391970849}}}, "icon": "https://maps.gstatic.com/mapfiles/place_api/icons/v1/png_71/school-71.png", "icon_background_color": "#7B9EB0", "icon_mask_base_uri": "https://maps.gstatic.com/mapfiles/place_api/icons/v2/school_pinlet", "name": "Daldal Hanuman Mandir", "place_id": "ChIJ_____xqU8zkRyRhsvhs7Wro", "reference": "ChIJ_____xqU8zkRyRhsvhs7Wro", "scope": "GOOGLE", "types": ["school", "point_of_interest", "establishment"], "vicinity": "9VQ4+2GV, Daldal"}, {"business_status": "OPERATIONAL", "geometry": {"location": {"lat": 24.3668952, "lng": 85.84601359999999}, "viewport": {"northeast": {"lat": 24.36865708029151, "lng": 85.8466984302915}, "southwest": {"lat": 24.3659591197085, "lng": 85.84400046970848}}}, "icon": "https://maps.gstatic.com/mapfiles/place_api/icons/v1/png_71/school-71.png", "icon_background_color": "#7B9EB0", "icon_mask_base_uri": "https://maps.gstatic.com/mapfiles/place_api/icons/v2/school_pinlet", "name": "netaji subash chandra bosh public school", "place_id": "ChIJCf9EK1SR8zkRHfyOowdbpLk", "reference": "ChIJCf9EK1SR8zkRHfyOowdbpLk", "scope": "GOOGLE", "types": ["primary_school", "school", "point_of_interest", "establishment"], "vicinity": "9R8W+QC2, Khargu"}, {"business_status": "OPERATIONAL", "geometry": {"location": {"lat": 24.3666263, "lng": 85.8462862}, "viewport": {"northeast": {"lat": 24.3685226302915, "lng": 85.84708665}, "southwest": {"lat": 24.36582466970849, "lng": 85.84388485}}}, "icon": "https://maps.gstatic.com/mapfiles/place_api/icons/v1/png_71/school-71.png", "icon_background_color": "#7B9EB0", "icon_mask_base_uri": "https://maps.gstatic.com/mapfiles/place_api/icons/v2/school_pinlet", "name": "swami vivekananda convent public school", "place_id": "ChIJrdGN1VWR8zkRpcNmEwc-J_A", "rating": 5, "reference": "ChIJrdGN1VWR8zkRpcNmEwc-J_A", "scope": "GOOGLE", "types": ["primary_school", "school", "point_of_interest", "establishment"], "user_ratings_total": 1, "vicinity": "9R8W+MG3, Khargu"}], "status": "OK"}