{"html_attributions": [], "results": [{"business_status": "OPERATIONAL", "geometry": {"location": {"lat": 24.9727733, "lng": 86.0357863}, "viewport": {"northeast": {"lat": 24.9741193802915, "lng": 86.0371864802915}, "southwest": {"lat": 24.9714214197085, "lng": 86.03448851970849}}}, "icon": "https://maps.gstatic.com/mapfiles/place_api/icons/v1/png_71/school-71.png", "icon_background_color": "#7B9EB0", "icon_mask_base_uri": "https://maps.gstatic.com/mapfiles/place_api/icons/v2/school_pinlet", "name": "Lohnda primary school", "photos": [{"height": 3120, "html_attributions": ["<a href=\"https://maps.google.com/maps/contrib/104046078733132416591\">Sanjeet Raj</a>"], "photo_reference": "Aap_uEC13we3cTHmZEua-2IqYMzFrJI5rI-YeL1LeCtExHro-KM-3XI4s-5MhWA80dr4dFhptwL0bBiltkr2nZ3jgF2qto5iMPHWqhY2mOZI8ElJAEHsFxoZ1lkCJoXz-wYO8e7r66I57J3urfvG9ec2Gs8UKTnnUZJ0N1xKPtsQ2z8jsp4s", "width": 4160}], "place_id": "ChIJdYqa8BQx8jkR6VXkvl-c9GA", "plus_code": {"compound_code": "X2FP+48 Lohanda, Bihar, India", "global_code": "7MP8X2FP+48"}, "rating": 4.8, "reference": "ChIJdYqa8BQx8jkR6VXkvl-c9GA", "scope": "GOOGLE", "types": ["primary_school", "school", "point_of_interest", "establishment"], "user_ratings_total": 6, "vicinity": "\u0932\u094b\u0939\u0923\u094d\u0921\u093e, Lohanda"}, {"business_status": "OPERATIONAL", "geometry": {"location": {"lat": 24.9789943, "lng": 86.0398991}, "viewport": {"northeast": {"lat": 24.9801490802915, "lng": 86.0413388302915}, "southwest": {"lat": 24.9774511197085, "lng": 86.03864086970849}}}, "icon": "https://maps.gstatic.com/mapfiles/place_api/icons/v1/png_71/school-71.png", "icon_background_color": "#7B9EB0", "icon_mask_base_uri": "https://maps.gstatic.com/mapfiles/place_api/icons/v2/school_pinlet", "name": "High School Ghongsa", "opening_hours": {"open_now": false}, "place_id": "ChIJrZRYAREx8jkRcVs1gA2UUTU", "rating": 4, "reference": "ChIJrZRYAREx8jkRcVs1gA2UUTU", "scope": "GOOGLE", "types": ["secondary_school", "school", "point_of_interest", "establishment"], "user_ratings_total": 1, "vicinity": "X2HQ+HXR, Ghongsa"}, {"business_status": "OPERATIONAL", "geometry": {"location": {"lat": 24.9739326, "lng": 86.0206473}, "viewport": {"northeast": {"lat": 24.9752357802915, "lng": 86.02197198029151}, "southwest": {"lat": 24.9725378197085, "lng": 86.01927401970849}}}, "icon": "https://maps.gstatic.com/mapfiles/place_api/icons/v1/png_71/school-71.png", "icon_background_color": "#7B9EB0", "icon_mask_base_uri": "https://maps.gstatic.com/mapfiles/place_api/icons/v2/school_pinlet", "name": "\u0924\u094d\u0930\u093f\u092a\u0941\u0930\u093e\u0930\u0940 \u0938\u093f\u0902\u0939 \u0909\u091a\u094d\u092f \u0935\u093f\u0926\u094d\u092f\u093e\u0932\u092f", "opening_hours": {"open_now": false}, "photos": [{"height": 3456, "html_attributions": ["<a href=\"https://maps.google.com/maps/contrib/107304169324203300358\">Suman Singh</a>"], "photo_reference": "Aap_uEBP1ts4ZUznk8lXhhEmSrm526B4GVOoA4T4_9TVRluhvgLa_SXsRDsby9W6Ws7eupLZF9twEHUYd8qlt3KFO8fAU8rNRTMryk8X-cSVr0dpUkWWfWUy0lvgGjziKTcSCLH5kX1APPQtnSwFaq1v4pBVIIvsloBZp9xzkwr5QmnMdijq", "width": 4608}], "place_id": "ChIJu9jPEDcx8jkRQYGp4i1-v8M", "plus_code": {"compound_code": "X2FC+H7 Bela, Bihar, India", "global_code": "7MP8X2FC+H7"}, "rating": 4.8, "reference": "ChIJu9jPEDcx8jkRQYGp4i1-v8M", "scope": "GOOGLE", "types": ["secondary_school", "school", "point_of_interest", "establishment"], "user_ratings_total": 4, "vicinity": "National Highway 333A, PIRHINDA"}, {"business_status": "OPERATIONAL", "geometry": {"location": {"lat": 24.9737261, "lng": 86.0206868}, "viewport": {"northeast": {"lat": 24.9751061802915, "lng": 86.0220522802915}, "southwest": {"lat": 24.9724082197085, "lng": 86.01935431970848}}}, "icon": "https://maps.gstatic.com/mapfiles/place_api/icons/v1/png_71/school-71.png", "icon_background_color": "#7B9EB0", "icon_mask_base_uri": "https://maps.gstatic.com/mapfiles/place_api/icons/v2/school_pinlet", "name": "T P S +2 High School Pirhinda", "photos": [{"height": 1080, "html_attributions": ["<a href=\"https://maps.google.com/maps/contrib/113027564581147327715\">naveen kumar</a>"], "photo_reference": "Aap_uEDgGl378-UOLDGtGVjxh0QVvRqcfpVDF3JFFryjvu_0jlbGx2gPsY0ZlfScCCHR9EOKYMaSqaRNf20QmhLBTzuEilrXRuRRlWAvxUuCiXIPwlTSIqU8lYPDaGNJJyfVw31NbeWPuqVDo9m968Up2C2H-ttwPnOizAjW5RooyMNs4v-X", "width": 1920}], "place_id": "ChIJo8hYXyYx8jkR4gaxFEBaeE8", "rating": 3.3, "reference": "ChIJo8hYXyYx8jkR4gaxFEBaeE8", "scope": "GOOGLE", "types": ["school", "point_of_interest", "establishment"], "user_ratings_total": 3, "vicinity": "X2FC+F7V, pirhinda, Sikandra"}, {"business_status": "OPERATIONAL", "geometry": {"location": {"lat": 24.9702312, "lng": 86.0231866}, "viewport": {"northeast": {"lat": 24.97268684999999, "lng": 86.0244551302915}, "southwest": {"lat": 24.96941265000001, "lng": 86.0217571697085}}}, "icon": "https://maps.gstatic.com/mapfiles/place_api/icons/v1/png_71/school-71.png", "icon_background_color": "#7B9EB0", "icon_mask_base_uri": "https://maps.gstatic.com/mapfiles/place_api/icons/v2/school_pinlet", "name": "Utkarmit viddhalay achambho", "photos": [{"height": 2000, "html_attributions": ["<a href=\"https://maps.google.com/maps/contrib/110427438802494923702\">SUDHANSHU RANJAN</a>"], "photo_reference": "Aap_uEDXaWabL4FqDIbrSnZZ5rsmWUhCts8NLjXkK3jFwpCvI3Iug90vvMVH2ODUNgreASRXaAA84ads9VjRxTBs-wJ6jezPCG5zeFMCngeN7_ouEIXMIUSZWt-NsC7trHtppLVbE4sZMDZFR5qieEW_GWSUUxO9xlYr1xNP__0VtnREsOIT", "width": 4000}], "place_id": "ChIJo9kRiZMx8jkR3xElis5YSAY", "rating": 5, "reference": "ChIJo9kRiZMx8jkR3xElis5YSAY", "scope": "GOOGLE", "types": ["school", "point_of_interest", "establishment"], "user_ratings_total": 1, "vicinity": "X2CF+37V, Achambho"}, {"business_status": "CLOSED_TEMPORARILY", "geometry": {"location": {"lat": 24.9819994, "lng": 86.0408717}, "viewport": {"northeast": {"lat": 24.9840139302915, "lng": 86.0420560802915}, "southwest": {"lat": 24.9813159697085, "lng": 86.0393581197085}}}, "icon": "https://maps.gstatic.com/mapfiles/place_api/icons/v1/png_71/school-71.png", "icon_background_color": "#7B9EB0", "icon_mask_base_uri": "https://maps.gstatic.com/mapfiles/place_api/icons/v2/school_pinlet", "name": "Ghonghsa public school", "permanently_closed": true, "photos": [{"height": 1920, "html_attributions": ["<a href=\"https://maps.google.com/maps/contrib/103484987998123327895\">Adarsha Kumar</a>"], "photo_reference": "Aap_uEAMEus2Zjaq-bpOjlmpe82EGehxEKCjYNNhS8oaKn-jNYOhA-sXKffvtzDxL6A9JNMPqVU-BPwD5Fv8zbr4g3mAHQLP2SPjAJrMipBgjV_GxGkVYcO10ejnA4Y77p0ge907L7aZGyoe5JLlKauhE4E5vSNVopbZ1j4-BvC3dJXGFvM6", "width": 1080}], "place_id": "ChIJV3FHybsx8jkR2IhiedFQNik", "reference": "ChIJV3FHybsx8jkR2IhiedFQNik", "scope": "GOOGLE", "types": ["school", "point_of_interest", "establishment"], "vicinity": "X2JR+Q8X, Ghongsa"}, {"business_status": "OPERATIONAL", "geometry": {"location": {"lat": 24.98826309999999, "lng": 86.02570589999999}, "viewport": {"northeast": {"lat": 24.9897551802915, "lng": 86.0265297302915}, "southwest": {"lat": 24.9870572197085, "lng": 86.02383176970848}}}, "icon": "https://maps.gstatic.com/mapfiles/place_api/icons/v1/png_71/school-71.png", "icon_background_color": "#7B9EB0", "icon_mask_base_uri": "https://maps.gstatic.com/mapfiles/place_api/icons/v2/school_pinlet", "name": "Utkramit Madhya Vidyalay Chaurahi", "place_id": "ChIJbwsl7aAx8jkR1NCGea_l9YQ", "reference": "ChIJbwsl7aAx8jkR1NCGea_l9YQ", "scope": "GOOGLE", "types": ["school", "point_of_interest", "establishment"], "vicinity": "X2QG+874, Dhira"}, {"business_status": "OPERATIONAL", "geometry": {"location": {"lat": 24.9768174, "lng": 86.0177075}, "viewport": {"northeast": {"lat": 24.9781696302915, "lng": 86.0190439802915}, "southwest": {"lat": 24.9754716697085, "lng": 86.0163460197085}}}, "icon": "https://maps.gstatic.com/mapfiles/place_api/icons/v1/png_71/school-71.png", "icon_background_color": "#7B9EB0", "icon_mask_base_uri": "https://maps.gstatic.com/mapfiles/place_api/icons/v2/school_pinlet", "name": "Nirmala Bhawan", "opening_hours": {"open_now": false}, "place_id": "ChIJMTd5afkx8jkRjwYt6IkkeGU", "rating": 5, "reference": "ChIJMTd5afkx8jkRjwYt6IkkeGU", "scope": "GOOGLE", "types": ["primary_school", "school", "point_of_interest", "establishment"], "user_ratings_total": 1, "vicinity": "X2G9+P3G, Maharath"}, {"business_status": "OPERATIONAL", "geometry": {"location": {"lat": 24.9666767, "lng": 86.02774079999999}, "viewport": {"northeast": {"lat": 24.9680345302915, "lng": 86.02902808029151}, "southwest": {"lat": 24.9653365697085, "lng": 86.02633011970849}}}, "icon": "https://maps.gstatic.com/mapfiles/place_api/icons/v1/png_71/school-71.png", "icon_background_color": "#7B9EB0", "icon_mask_base_uri": "https://maps.gstatic.com/mapfiles/place_api/icons/v2/school_pinlet", "name": "middle school lahila", "opening_hours": {"open_now": true}, "photos": [{"height": 1280, "html_attributions": ["<a href=\"https://maps.google.com/maps/contrib/111224179868373640064\">V S GAMING</a>"], "photo_reference": "Aap_uEDko6qxyYJuSCtJXU1ThdxjORElkwm3n109d9YClLLb9ADkiIRUvXxGm5CppOVDadlGbxME34GyBg4OSGcZ_bcCMj0hA6gRMczaCGviJrF68JVhc5gXSmKtf34DA0BEAWvsf3-iOp117k_c4elGk2KqRuwq74sUPZUyjqUIAdOoO0a_", "width": 576}], "place_id": "ChIJuTw0-ocx8jkRg4U_PDrZprg", "rating": 5, "reference": "ChIJuTw0-ocx8jkRg4U_PDrZprg", "scope": "GOOGLE", "types": ["school", "point_of_interest", "establishment"], "user_ratings_total": 1, "vicinity": "X28H+M3H, Bela"}, {"business_status": "OPERATIONAL", "geometry": {"location": {"lat": 24.9744197, "lng": 86.0174266}, "viewport": {"northeast": {"lat": 24.9758072302915, "lng": 86.01885443029151}, "southwest": {"lat": 24.97310926970849, "lng": 86.01615646970849}}}, "icon": "https://maps.gstatic.com/mapfiles/place_api/icons/v1/png_71/school-71.png", "icon_background_color": "#7B9EB0", "icon_mask_base_uri": "https://maps.gstatic.com/mapfiles/place_api/icons/v2/school_pinlet", "name": "Government Middle School Pirhinda", "photos": [{"height": 3456, "html_attributions": ["<a href=\"https://maps.google.com/maps/contrib/107304169324203300358\">Suman Singh</a>"], "photo_reference": "Aap_uECUtY29LCzFdd1K-aIiLDXvSN_shlYPW3QhJZrttdWH0p4iZAKOPg9wKjIrIw_uP9ZAhgxaDUPvn2ZyoAWx2NSpi5ExNDI-1ipORDve6m17XYWqQ4dRfqorT3erxfMqbg4G4BSNKuccqJ8_6JziH6lCTfF33iPX9I_QunZueuhDXfsF", "width": 4608}], "place_id": "ChIJR42soTYx8jkRHn5N19QG7LQ", "rating": 3.3, "reference": "ChIJR42soTYx8jkRHn5N19QG7LQ", "scope": "GOOGLE", "types": ["school", "point_of_interest", "establishment"], "user_ratings_total": 13, "vicinity": "X2F8+QX7, Pirhinda, Sikandra"}, {"business_status": "OPERATIONAL", "geometry": {"location": {"lat": 24.9663488, "lng": 86.0341526}, "viewport": {"northeast": {"lat": 24.9677035802915, "lng": 86.0354518802915}, "southwest": {"lat": 24.9650056197085, "lng": 86.0327539197085}}}, "icon": "https://maps.gstatic.com/mapfiles/place_api/icons/v1/png_71/school-71.png", "icon_background_color": "#7B9EB0", "icon_mask_base_uri": "https://maps.gstatic.com/mapfiles/place_api/icons/v2/school_pinlet", "name": "Shanti Vidya Mandir", "place_id": "ChIJve-NphYx8jkRUVTs8Q5l7Ao", "reference": "ChIJve-NphYx8jkRUVTs8Q5l7Ao", "scope": "GOOGLE", "types": ["school", "point_of_interest", "establishment"], "vicinity": "X28M+GMJ, Aadarsh Colony, Sikandra"}, {"business_status": "OPERATIONAL", "geometry": {"location": {"lat": 24.9663289, "lng": 86.0342577}, "viewport": {"northeast": {"lat": 24.96768988029151, "lng": 86.0355038802915}, "southwest": {"lat": 24.9649919197085, "lng": 86.0328059197085}}}, "icon": "https://maps.gstatic.com/mapfiles/place_api/icons/v1/png_71/school-71.png", "icon_background_color": "#7B9EB0", "icon_mask_base_uri": "https://maps.gstatic.com/mapfiles/place_api/icons/v2/school_pinlet", "name": "Sajal Saurav", "photos": [{"height": 1080, "html_attributions": ["<a href=\"https://maps.google.com/maps/contrib/102093604009833339301\">Lakhan Kumar Gupta</a>"], "photo_reference": "Aap_uEB8rnIepSu_ei6nFLHYXy3EYkIQVjZgbM2iawAjw3rtuBKKjv7Z8u8JD09nG8Zm7WOQMYhtfJ1_Vdr77UM2JloNKT4FPK0vJ4kf0KHaTqSrL7Z3SrkIpEdemWRfOKbd4oodn1Xp7crho9hQViuy87Wh84CG81OTiFH5ljCcG384cGWg", "width": 1920}], "place_id": "ChIJWcnhRe0x8jkRKdPuw--t8g0", "plus_code": {"compound_code": "X28M+GP Sikandra, Bihar, India", "global_code": "7MP8X28M+GP"}, "rating": 5, "reference": "ChIJWcnhRe0x8jkRKdPuw--t8g0", "scope": "GOOGLE", "types": ["school", "point_of_interest", "establishment"], "user_ratings_total": 3, "vicinity": "behind Irrigation Colony, Aadarsh Colony, Sikandra"}, {"business_status": "OPERATIONAL", "geometry": {"location": {"lat": 24.965692, "lng": 86.02999989999999}, "viewport": {"northeast": {"lat": 24.9670060302915, "lng": 86.0312978802915}, "southwest": {"lat": 24.96430806970849, "lng": 86.0285999197085}}}, "icon": "https://maps.gstatic.com/mapfiles/place_api/icons/v1/png_71/school-71.png", "icon_background_color": "#7B9EB0", "icon_mask_base_uri": "https://maps.gstatic.com/mapfiles/place_api/icons/v2/school_pinlet", "name": "Newly Residential Vidya Mandir School", "opening_hours": {"open_now": true}, "photos": [{"height": 1987, "html_attributions": ["<a href=\"https://maps.google.com/maps/contrib/102728372878994427988\">Nitish Kumar ,</a>"], "photo_reference": "Aap_uECfZHwDYT9Qvh7uV6pj_TYH7PAj6-1XlQ6_f6EUipWlAqngEZbY0RYfMmw23dXqWpb0d6mgiGERb5e2_yW-AwX0xr-2n-Tf1J_v-0IWlDUTCQg0pKjJzADgXcwyc8N7j3glt4QJLp3h5vINozxnW8Ft3o-h65GmAYeAuUEj5DUYrqsk", "width": 4000}], "place_id": "ChIJk_lHAmox8jkRFaCbIIYaRBM", "plus_code": {"compound_code": "X28H+7X Sikandra, Bihar, India", "global_code": "7MP8X28H+7X"}, "rating": 5, "reference": "ChIJk_lHAmox8jkRFaCbIIYaRBM", "scope": "GOOGLE", "types": ["school", "point_of_interest", "establishment"], "user_ratings_total": 3, "vicinity": "Mob. 9939441557, 9279810787, NH-333A, Sheikhpura Road, Sikandra"}, {"business_status": "OPERATIONAL", "geometry": {"location": {"lat": 24.9656818, "lng": 86.030041}, "viewport": {"northeast": {"lat": 24.9669887302915, "lng": 86.0313286302915}, "southwest": {"lat": 24.9642907697085, "lng": 86.02863066970849}}}, "icon": "https://maps.gstatic.com/mapfiles/place_api/icons/v1/png_71/school-71.png", "icon_background_color": "#7B9EB0", "icon_mask_base_uri": "https://maps.gstatic.com/mapfiles/place_api/icons/v2/school_pinlet", "name": "Newly coaching Sikandra", "opening_hours": {"open_now": true}, "photos": [{"height": 3840, "html_attributions": ["<a href=\"https://maps.google.com/maps/contrib/118088462893459790546\">Rohit Kumar</a>"], "photo_reference": "Aap_uECYbYH_KNzRD2N3XtdQogoNlLiOwERRgKXJ5TZUud686Iex4GRsjgkUCvoIDeZ2u3Nzi_HPhC1hmoERRqUYFq-N8FZXG4Ezx7xr2TYMmtd_xiCKDck7Gbf4u-B3cK8_FXhVIMC_NkGHfDGkGnJz8vvS6nFNQBGVXYAn1FcxX8sNdOMT", "width": 2160}], "place_id": "ChIJo5UVj0Ex8jkRwqrRHVJhNrY", "plus_code": {"compound_code": "X28J+72 Sikandra, Bihar, India", "global_code": "7MP8X28J+72"}, "reference": "ChIJo5UVj0Ex8jkRwqrRHVJhNrY", "scope": "GOOGLE", "types": ["school", "point_of_interest", "establishment"], "vicinity": "National Highway 333A, Sikandra"}], "status": "OK"}