{"html_attributions": [], "results": [{"business_status": "OPERATIONAL", "geometry": {"location": {"lat": 25.0784659, "lng": 86.02631470000001}, "viewport": {"northeast": {"lat": 25.0798149302915, "lng": 86.0276663302915}, "southwest": {"lat": 25.0771169697085, "lng": 86.02496836970849}}}, "icon": "https://maps.gstatic.com/mapfiles/place_api/icons/v1/png_71/school-71.png", "icon_background_color": "#7B9EB0", "icon_mask_base_uri": "https://maps.gstatic.com/mapfiles/place_api/icons/v2/school_pinlet", "name": "NANHE KADAM -A PLAY SCHOOL", "opening_hours": {"open_now": true}, "photos": [{"height": 3120, "html_attributions": ["<a href=\"https://maps.google.com/maps/contrib/114337066322631307635\">BHABHU VISION</a>"], "photo_reference": "Aap_uEBKEPI8lP3roKth2DartPyAi-AwLiiNrjN6qTrHDs78Ov9ISBX2dUyCRMcGTH7Wo0RJ0kda7683zrfuYuge2xxXFZ1DtIh2zItsnrRMAc67KSqmR6bPTxQNpAiIXyBUsFbzPr5iOPshlWWiXFrRzxgd9JaWyAUtCCtj7YaQjD5wRAkV", "width": 4160}], "place_id": "ChIJdeuI7JM78jkRbQW6unQbcEY", "plus_code": {"compound_code": "32HG+9G Pratappur, Bihar, India", "global_code": "7MQ832HG+9G"}, "rating": 5, "reference": "ChIJdeuI7JM78jkRbQW6unQbcEY", "scope": "GOOGLE", "types": ["school", "point_of_interest", "establishment"], "user_ratings_total": 6, "vicinity": "Pratappur"}, {"business_status": "OPERATIONAL", "geometry": {"location": {"lat": 25.0731698, "lng": 86.02190449999999}, "viewport": {"northeast": {"lat": 25.0745187802915, "lng": 86.0232887302915}, "southwest": {"lat": 25.0718208197085, "lng": 86.02059076970849}}}, "icon": "https://maps.gstatic.com/mapfiles/place_api/icons/v1/png_71/school-71.png", "icon_background_color": "#7B9EB0", "icon_mask_base_uri": "https://maps.gstatic.com/mapfiles/place_api/icons/v2/school_pinlet", "name": "Santosh paswan", "place_id": "ChIJJcaF6VI78jkRm-57tYXDahY", "reference": "ChIJJcaF6VI78jkRm-57tYXDahY", "scope": "GOOGLE", "types": ["school", "point_of_interest", "establishment"], "vicinity": "32FC+7Q6, Pratappur"}, {"business_status": "OPERATIONAL", "geometry": {"location": {"lat": 25.0742622, "lng": 86.0191777}, "viewport": {"northeast": {"lat": 25.0755926302915, "lng": 86.0206010802915}, "southwest": {"lat": 25.0728946697085, "lng": 86.01790311970849}}}, "icon": "https://maps.gstatic.com/mapfiles/place_api/icons/v1/png_71/school-71.png", "icon_background_color": "#7B9EB0", "icon_mask_base_uri": "https://maps.gstatic.com/mapfiles/place_api/icons/v2/school_pinlet", "name": "+2 \u0909\u091a\u094d\u091a\u0924\u0930 \u092e\u093e\u0927\u094d\u092f\u092e\u093f\u0915 \u0935\u093f\u0926\u094d\u092f\u093e\u0932\u092f \u092a\u094d\u0930\u0924\u093e\u092a\u092a\u0941\u0930", "place_id": "ChIJh2pTpSU68jkR4jtKKLttG1c", "plus_code": {"compound_code": "32F9+PM Lakhisarai, Bihar, India", "global_code": "7MQ832F9+PM"}, "rating": 3, "reference": "ChIJh2pTpSU68jkR4jtKKLttG1c", "scope": "GOOGLE", "types": ["school", "point_of_interest", "establishment"], "user_ratings_total": 2, "vicinity": "\u092a\u094d\u0930\u0924\u093e\u092a\u092a\u0941\u0930, \u0939\u0932\u0938\u0940, Lakhisarai"}, {"business_status": "OPERATIONAL", "geometry": {"location": {"lat": 25.074437, "lng": 86.01903899999999}, "viewport": {"northeast": {"lat": 25.0757451802915, "lng": 86.0205515302915}, "southwest": {"lat": 25.0730472197085, "lng": 86.01785356970849}}}, "icon": "https://maps.gstatic.com/mapfiles/place_api/icons/v1/png_71/school-71.png", "icon_background_color": "#7B9EB0", "icon_mask_base_uri": "https://maps.gstatic.com/mapfiles/place_api/icons/v2/school_pinlet", "name": "Shree Durga Puja Samiti. PratappurBihar", "photos": [{"height": 1280, "html_attributions": ["<a href=\"https://maps.google.com/maps/contrib/108460751577647132373\">pawan kumar</a>"], "photo_reference": "Aap_uECkbrcYquF6uaeccAIurYsUbXIOCcOpgFHs1POY5m1wmvbTzMqhWhqKI4BODzFoEFx4ZUtLSJDJD7BILItr0qhlvPKH4Pa5yZiCMWQHdpxcYmdBfSI9ZaKuSVoaRQL3n3SJGDyNhT7FGqJ2SxuTEw10aCPMy3PpOr_h_bbAPuw-SQ", "width": 960}], "place_id": "ChIJi4sDuyU68jkRHuOX2mdDtrM", "rating": 4, "reference": "ChIJi4sDuyU68jkRHuOX2mdDtrM", "scope": "GOOGLE", "types": ["school", "point_of_interest", "establishment"], "user_ratings_total": 2, "vicinity": "32F9+QJF, Pratappur"}, {"business_status": "OPERATIONAL", "geometry": {"location": {"lat": 25.0872144, "lng": 86.0377986}, "viewport": {"northeast": {"lat": 25.0883365802915, "lng": 86.04170475}, "southwest": {"lat": 25.0856386197085, "lng": 86.03649655}}}, "icon": "https://maps.gstatic.com/mapfiles/place_api/icons/v1/png_71/school-71.png", "icon_background_color": "#7B9EB0", "icon_mask_base_uri": "https://maps.gstatic.com/mapfiles/place_api/icons/v2/school_pinlet", "name": "Rohit Rock", "place_id": "ChIJ7SuIXgM78jkRi1sx60NEuS4", "plus_code": {"compound_code": "32PQ+V4 Koli, Bihar, India", "global_code": "7MQ832PQ+V4"}, "reference": "ChIJ7SuIXgM78jkRi1sx60NEuS4", "scope": "GOOGLE", "types": ["school", "point_of_interest", "establishment"], "vicinity": "Unnamed Road"}], "status": "OK"}