{"html_attributions": [], "results": [{"business_status": "OPERATIONAL", "geometry": {"location": {"lat": 25.1376464, "lng": 86.0363794}, "viewport": {"northeast": {"lat": 25.1394810302915, "lng": 86.0409562}, "southwest": {"lat": 25.13678306970849, "lng": 86.03485380000001}}}, "icon": "https://maps.gstatic.com/mapfiles/place_api/icons/v1/png_71/school-71.png", "icon_background_color": "#7B9EB0", "icon_mask_base_uri": "https://maps.gstatic.com/mapfiles/place_api/icons/v2/school_pinlet", "name": "prathmik school Dihra", "place_id": "ChIJU7whh-098jkR4kI8UIYd1yc", "plus_code": {"compound_code": "42QP+3H Dihra, Bihar, India", "global_code": "7MQ842QP+3H"}, "rating": 5, "reference": "ChIJU7whh-098jkR4kI8UIYd1yc", "scope": "GOOGLE", "types": ["school", "point_of_interest", "establishment"], "user_ratings_total": 1, "vicinity": "Dihra"}, {"business_status": "OPERATIONAL", "geometry": {"location": {"lat": 25.1375932, "lng": 86.036388}, "viewport": {"northeast": {"lat": 25.1390438, "lng": 86.0376824302915}, "southwest": {"lat": 25.13324139999999, "lng": 86.03498446970849}}}, "icon": "https://maps.gstatic.com/mapfiles/place_api/icons/v1/png_71/school-71.png", "icon_background_color": "#7B9EB0", "icon_mask_base_uri": "https://maps.gstatic.com/mapfiles/place_api/icons/v2/school_pinlet", "name": "prathmik school Dihra Deepak kumar", "photos": [{"height": 2592, "html_attributions": ["<a href=\"https://maps.google.com/maps/contrib/102994617694630419039\">prathmik school Dihra Deepak kumar</a>"], "photo_reference": "Aap_uECPsm0ROId6EPZDipYjMRuZYdbtLOF0zN9jKo4ZxV6tu8K1UM9pXXSYWDGmvtDFcQUy7itMQzyT9gZeZzSKAtwX-m3jcjMcBqCka_Ic4gJSCrLdP7__huv8aQQo0FX6TqqvWC7148BhmWdpkjd_oeEOhAGooWZYEiA7LeWVxxo5E3hY", "width": 1296}], "place_id": "ChIJi2kdCQY98jkRVotFemeEk04", "plus_code": {"compound_code": "42QP+2H Dihra, Bihar, India", "global_code": "7MQ842QP+2H"}, "reference": "ChIJi2kdCQY98jkRVotFemeEk04", "scope": "GOOGLE", "types": ["school", "point_of_interest", "establishment"], "vicinity": "Aryen Deepak, Krishan pandit (\u092d\u0935\u0928 \u0921\u093f\u0939\u0930\u093e) Aryen Deepak Krishan pandit (\u092d\u0935\u0928, Dihra"}, {"business_status": "OPERATIONAL", "geometry": {"location": {"lat": 25.1448239, "lng": 86.0301124}, "viewport": {"northeast": {"lat": 25.1461728802915, "lng": 86.0314613802915}, "southwest": {"lat": 25.1434749197085, "lng": 86.02876341970848}}}, "icon": "https://maps.gstatic.com/mapfiles/place_api/icons/v1/png_71/school-71.png", "icon_background_color": "#7B9EB0", "icon_mask_base_uri": "https://maps.gstatic.com/mapfiles/place_api/icons/v2/school_pinlet", "name": "Hanuman Mandir", "place_id": "ChIJjQoTwKk98jkRCMAlO9kqbLo", "rating": 5, "reference": "ChIJjQoTwKk98jkRCMAlO9kqbLo", "scope": "GOOGLE", "types": ["school", "point_of_interest", "establishment"], "user_ratings_total": 1, "vicinity": "42VJ+W2H, Pachauta"}, {"business_status": "OPERATIONAL", "geometry": {"location": {"lat": 25.1369486, "lng": 86.0194992}, "viewport": {"northeast": {"lat": 25.1382418802915, "lng": 86.02085863029151}, "southwest": {"lat": 25.1355439197085, "lng": 86.01816066970851}}}, "icon": "https://maps.gstatic.com/mapfiles/place_api/icons/v1/png_71/school-71.png", "icon_background_color": "#7B9EB0", "icon_mask_base_uri": "https://maps.gstatic.com/mapfiles/place_api/icons/v2/school_pinlet", "name": "Golu singh", "photos": [{"height": 4032, "html_attributions": ["<a href=\"https://maps.google.com/maps/contrib/109804552253845535678\">Sanjeet Singh</a>"], "photo_reference": "Aap_uEBNCwNPThotsr09yEH7TmUx6mebPQtvNIXMXIESmJsWWW3tKSLvPJCOg-Ek_-KDHTbti9NVUr6u0XTUox-CEGUmPUB4H7nz-qxKhQqwCSjnxgKUprC9qBbRQ-AUBWOX4rE6Ohcp6a1M1-1YELlmO7mKc2Iq9YrgvfYPhRkd3fPUPNya", "width": 3024}], "place_id": "ChIJk-OtLMI98jkRxBhKJbrB6KQ", "reference": "ChIJk-OtLMI98jkRxBhKJbrB6KQ", "scope": "GOOGLE", "types": ["school", "point_of_interest", "establishment"], "vicinity": "42P9+QQH, Garsanda"}, {"business_status": "OPERATIONAL", "geometry": {"location": {"lat": 25.1283637, "lng": 86.03118169999999}, "viewport": {"northeast": {"lat": 25.12969998029151, "lng": 86.0325806302915}, "southwest": {"lat": 25.1270020197085, "lng": 86.0298826697085}}}, "icon": "https://maps.gstatic.com/mapfiles/place_api/icons/v1/png_71/school-71.png", "icon_background_color": "#7B9EB0", "icon_mask_base_uri": "https://maps.gstatic.com/mapfiles/place_api/icons/v2/school_pinlet", "name": "+2 \u0936\u094d\u0930\u0940 \u0915\u0943\u0937\u094d\u0923 \u0909\u091a\u094d\u091a \u0935\u093f\u0926\u094d\u092f\u093e\u0932\u092f \u0921\u0915\u0930\u093e", "place_id": "ChIJMeCxEuQ78jkRcTftFY53gv0", "reference": "ChIJMeCxEuQ78jkRcTftFY53gv0", "scope": "GOOGLE", "types": ["school", "point_of_interest", "establishment"], "vicinity": "42HJ+8FV, Dakra"}, {"business_status": "OPERATIONAL", "geometry": {"location": {"lat": 25.13666, "lng": 86.0193309}, "viewport": {"northeast": {"lat": 25.1380440302915, "lng": 86.02073468029151}, "southwest": {"lat": 25.1353460697085, "lng": 86.01803671970849}}}, "icon": "https://maps.gstatic.com/mapfiles/place_api/icons/v1/png_71/school-71.png", "icon_background_color": "#7B9EB0", "icon_mask_base_uri": "https://maps.gstatic.com/mapfiles/place_api/icons/v2/school_pinlet", "name": "Garsanda Middle School", "photos": [{"height": 9248, "html_attributions": ["<a href=\"https://maps.google.com/maps/contrib/113278435052404437391\">KESHAV KUMAR</a>"], "photo_reference": "Aap_uEB4oD_eei138ThWgieLWJjlGmm95btwJh0b31oKp6Pdgjw1abmBDRYjDBCUyGi6h0JPMswBuYKZFhuJEJqvZ5zo7NvCMtpsJnsBn7okL8UCrTzhzwQU9MOtRspGpvYTu-ohTjy61VlmRHgbaA26t5xdhfcGgEKRZW2NYY3A1YKY9XV1", "width": 6944}], "place_id": "ChIJfZygcQc88jkR2zoG0DXPPgo", "rating": 5, "reference": "ChIJfZygcQc88jkR2zoG0DXPPgo", "scope": "GOOGLE", "types": ["secondary_school", "school", "point_of_interest", "establishment"], "user_ratings_total": 2, "vicinity": "42P9+MP8, Garsanda"}, {"business_status": "OPERATIONAL", "geometry": {"location": {"lat": 25.1366375, "lng": 86.0186761}, "viewport": {"northeast": {"lat": 25.13794373029151, "lng": 86.0200226302915}, "southwest": {"lat": 25.1352457697085, "lng": 86.01732466970849}}}, "icon": "https://maps.gstatic.com/mapfiles/place_api/icons/v1/png_71/school-71.png", "icon_background_color": "#7B9EB0", "icon_mask_base_uri": "https://maps.gstatic.com/mapfiles/place_api/icons/v2/school_pinlet", "name": "Garsanda Mandir Durga", "place_id": "ChIJp31wcUw98jkRJyzZGmWEp0E", "plus_code": {"compound_code": "42P9+MF Garsanda, Bihar, India", "global_code": "7MQ842P9+MF"}, "rating": 4.5, "reference": "ChIJp31wcUw98jkRJyzZGmWEp0E", "scope": "GOOGLE", "types": ["school", "point_of_interest", "establishment"], "user_ratings_total": 2, "vicinity": "Gsrsanda mandir, Durga"}, {"business_status": "OPERATIONAL", "geometry": {"location": {"lat": 25.1266869, "lng": 86.02962560000002}, "viewport": {"northeast": {"lat": 25.1279842802915, "lng": 86.03103128029151}, "southwest": {"lat": 25.1252863197085, "lng": 86.02833331970851}}}, "icon": "https://maps.gstatic.com/mapfiles/place_api/icons/v1/png_71/school-71.png", "icon_background_color": "#7B9EB0", "icon_mask_base_uri": "https://maps.gstatic.com/mapfiles/place_api/icons/v2/school_pinlet", "name": "sk high school dakra", "photos": [{"height": 3000, "html_attributions": ["<a href=\"https://maps.google.com/maps/contrib/103022289124963244902\">Sonu Singh</a>"], "photo_reference": "Aap_uECpYrutG3OqyRVpfrPAqOaqmjCAxusW9YYU633QYSUWrMFrFhD6SOVYVmAcRGTFlNm9LHOUmM1r8Lh69DHew08U5cuqatxL-b-4sGWoHRKgYjRH2BAuAUZxclHzcTb97hIDIZCUEJD38Fx8Z44JgezNm9kImLJUr71DMlAwBJSUUP-o", "width": 4000}], "place_id": "ChIJbyvWK5k78jkR8TEPouQaPXY", "plus_code": {"compound_code": "42GH+MV Dakra, Bihar, India", "global_code": "7MQ842GH+MV"}, "rating": 5, "reference": "ChIJbyvWK5k78jkR8TEPouQaPXY", "scope": "GOOGLE", "types": ["school", "point_of_interest", "establishment"], "user_ratings_total": 1, "vicinity": "Road, Dakra"}, {"business_status": "OPERATIONAL", "geometry": {"location": {"lat": 25.13712709999999, "lng": 86.0174105}, "viewport": {"northeast": {"lat": 25.1381866802915, "lng": 86.0187822802915}, "southwest": {"lat": 25.1354887197085, "lng": 86.0160843197085}}}, "icon": "https://maps.gstatic.com/mapfiles/place_api/icons/v1/png_71/school-71.png", "icon_background_color": "#7B9EB0", "icon_mask_base_uri": "https://maps.gstatic.com/mapfiles/place_api/icons/v2/school_pinlet", "name": "High School Dakra", "place_id": "ChIJL-pYZW898jkRu1ODknwNq28", "reference": "ChIJL-pYZW898jkRu1ODknwNq28", "scope": "GOOGLE", "types": ["school", "point_of_interest", "establishment"], "vicinity": "42P8+VX3, Dakra"}, {"business_status": "OPERATIONAL", "geometry": {"location": {"lat": 25.1263418, "lng": 86.029242}, "viewport": {"northeast": {"lat": 25.1277087802915, "lng": 86.0306165802915}, "southwest": {"lat": 25.1250108197085, "lng": 86.02791861970849}}}, "icon": "https://maps.gstatic.com/mapfiles/place_api/icons/v1/png_71/school-71.png", "icon_background_color": "#7B9EB0", "icon_mask_base_uri": "https://maps.gstatic.com/mapfiles/place_api/icons/v2/school_pinlet", "name": "+2 \u0936\u094d\u0930\u0940 \u0915\u0943\u0937\u094d\u0923 \u0909\u091a\u094d\u091a \u0935\u093f\u0926\u094d\u092f\u093e\u0932\u092f \u0921\u0915\u0930\u093e", "photos": [{"height": 1280, "html_attributions": ["<a href=\"https://maps.google.com/maps/contrib/107222378968688655990\">Sriram Kumar</a>"], "photo_reference": "Aap_uECU1D8HXhoixTWfG_pe-u5UKKpkhikbhOqv4mXlR5FV9lUK2fhIuhcQwH_XI2rSlBCctBccLh2_-5bsg2bEHx0dv-BQoVsupSlR3MLi_d9XeRFQdRDtV7-iuJ_KMnaIfFCH7gOBs0L6k1zqG71Lf5o9wXglU4cGg2NX2Tvy4jAHs2jS", "width": 720}], "place_id": "ChIJPaZAv4s78jkRvNULSZ6sDig", "rating": 1, "reference": "ChIJPaZAv4s78jkRvNULSZ6sDig", "scope": "GOOGLE", "types": ["school", "point_of_interest", "establishment"], "user_ratings_total": 1, "vicinity": "42GH+GMQ, Dakra"}, {"business_status": "OPERATIONAL", "geometry": {"location": {"lat": 25.1263263, "lng": 86.0294278}, "viewport": {"northeast": {"lat": 25.1276450802915, "lng": 86.0307643302915}, "southwest": {"lat": 25.1249471197085, "lng": 86.0280663697085}}}, "icon": "https://maps.gstatic.com/mapfiles/place_api/icons/v1/png_71/school-71.png", "icon_background_color": "#7B9EB0", "icon_mask_base_uri": "https://maps.gstatic.com/mapfiles/place_api/icons/v2/school_pinlet", "name": "High School Dakra", "place_id": "ChIJ2SHworg78jkR2Wr9w_bBW1E", "plus_code": {"compound_code": "42GH+GQ Dakra, Bihar, India", "global_code": "7MQ842GH+GQ"}, "reference": "ChIJ2SHworg78jkR2Wr9w_bBW1E", "scope": "GOOGLE", "types": ["school", "point_of_interest", "establishment"], "vicinity": "High School Dakra"}, {"business_status": "OPERATIONAL", "geometry": {"location": {"lat": 25.1262826, "lng": 86.029535}, "viewport": {"northeast": {"lat": 25.1276072802915, "lng": 86.0308740302915}, "southwest": {"lat": 25.1249093197085, "lng": 86.0281760697085}}}, "icon": "https://maps.gstatic.com/mapfiles/place_api/icons/v1/png_71/school-71.png", "icon_background_color": "#7B9EB0", "icon_mask_base_uri": "https://maps.gstatic.com/mapfiles/place_api/icons/v2/school_pinlet", "name": "+2 High School Dakra", "photos": [{"height": 2448, "html_attributions": ["<a href=\"https://maps.google.com/maps/contrib/106073584468263067754\">Vivek Singh</a>"], "photo_reference": "Aap_uEB41dNMUgbfEPgV9DjwRdtI2-hOClQW1fERyEclhKJdOFMzwSi74-UCoazAUP3TSnxx73sG-bupmNfh1rY8EbxiYq1NZhDhNedbNl1FvahpB56L37mGvYV0argiNzBu7rB3hgKf-_xXLeIsCWaxM9pKGqinaZNhgKb7GWCXLLD8ncCW", "width": 3264}], "place_id": "ChIJJ_V9WvI78jkRrpE42Flhq8E", "rating": 4.3, "reference": "ChIJJ_V9WvI78jkRrpE42Flhq8E", "scope": "GOOGLE", "types": ["secondary_school", "school", "point_of_interest", "establishment"], "user_ratings_total": 4, "vicinity": "42GH+GR7, Dakra"}], "status": "OK"}