{"html_attributions": [], "results": [{"business_status": "OPERATIONAL", "geometry": {"location": {"lat": 24.4172168, "lng": 86.05839859999999}, "viewport": {"northeast": {"lat": 24.41853448029151, "lng": 86.0598842302915}, "southwest": {"lat": 24.4158365197085, "lng": 86.05718626970848}}}, "icon": "https://maps.gstatic.com/mapfiles/place_api/icons/v1/png_71/school-71.png", "icon_background_color": "#7B9EB0", "icon_mask_base_uri": "https://maps.gstatic.com/mapfiles/place_api/icons/v2/school_pinlet", "name": "S.S.V.N COACHING CLASSES", "photos": [{"height": 4000, "html_attributions": ["<a href=\"https://maps.google.com/maps/contrib/115726338057718878255\">SSVN COACHING, REMBA ,GIRIDIH</a>"], "photo_reference": "Aap_uEDCObiR5RiefC7ALhgNcGh1ZQZdf3416iGsxhPfi37HWk5TnzJJs9Tgnt1cZ-NtnUoekCBAvSunh3Nu98ipT7sf8RPcu-9-tbG-kXRdJMvZ1P8FXVuqFHT1Eb4nFHwa5UOhrYwaHRxpywqThIJHeUoR4KF6HfkzkQ-bwALpBKCjMHPC", "width": 2250}], "place_id": "ChIJn3ABKDjp8zkRXH31kLAA2JI", "plus_code": {"compound_code": "C385+V9 Patardih, Jharkhand, India", "global_code": "7MP8C385+V9"}, "rating": 3, "reference": "ChIJn3ABKDjp8zkRXH31kLAA2JI", "scope": "GOOGLE", "types": ["school", "point_of_interest", "establishment"], "user_ratings_total": 1, "vicinity": "Jharkhandi Dham Road, Patardih"}, {"business_status": "OPERATIONAL", "geometry": {"location": {"lat": 24.4200722, "lng": 86.0417236}, "viewport": {"northeast": {"lat": 24.4214547302915, "lng": 86.0430045302915}, "southwest": {"lat": 24.4187567697085, "lng": 86.04030656970849}}}, "icon": "https://maps.gstatic.com/mapfiles/place_api/icons/v1/png_71/school-71.png", "icon_background_color": "#7B9EB0", "icon_mask_base_uri": "https://maps.gstatic.com/mapfiles/place_api/icons/v2/school_pinlet", "name": "Gyan ganga public school Bhandaro", "photos": [{"height": 1080, "html_attributions": ["<a href=\"https://maps.google.com/maps/contrib/113627543269922855166\">Nishant Verma</a>"], "photo_reference": "Aap_uEBjZADF2DI9J2pCUJ7DSJPSGdfH-iSQ0D49yVr7ULtGA3n7OfFYF9XtoGNXmPiyeCN-sFhWqmiDu0WpV5-FHDFJ981kF6YzENs06l0ZiVsSr8AjPnGdte2ywjnFzc38lSjVqAijRHN8o8Y9cN6uQ0DYFOtAfGXcEzk8n9yQS4iiimzT", "width": 1920}], "place_id": "ChIJ_Xwe8-rp8zkRcLHr_5lkApY", "reference": "ChIJ_Xwe8-rp8zkRcLHr_5lkApY", "scope": "GOOGLE", "types": ["school", "point_of_interest", "establishment"], "vicinity": "C2CR+2MH, Bhandaro"}, {"business_status": "OPERATIONAL", "geometry": {"location": {"lat": 24.41624650000001, "lng": 86.0402129}, "viewport": {"northeast": {"lat": 24.41801703029151, "lng": 86.0416380802915}, "southwest": {"lat": 24.4153190697085, "lng": 86.0389401197085}}}, "icon": "https://maps.gstatic.com/mapfiles/place_api/icons/v1/png_71/school-71.png", "icon_background_color": "#7B9EB0", "icon_mask_base_uri": "https://maps.gstatic.com/mapfiles/place_api/icons/v2/school_pinlet", "name": "Saurabh School", "place_id": "ChIJ0xIbe8vp8zkRO2XX1Nh7e5o", "reference": "ChIJ0xIbe8vp8zkRO2XX1Nh7e5o", "scope": "GOOGLE", "types": ["school", "point_of_interest", "establishment"], "vicinity": "C28R+F3W, Bhandaro"}, {"business_status": "OPERATIONAL", "geometry": {"location": {"lat": 24.4273694, "lng": 86.04909549999999}, "viewport": {"northeast": {"lat": 24.42855328029151, "lng": 86.05366150000003}, "southwest": {"lat": 24.4258553197085, "lng": 86.04757349999997}}}, "icon": "https://maps.gstatic.com/mapfiles/place_api/icons/v1/png_71/school-71.png", "icon_background_color": "#7B9EB0", "icon_mask_base_uri": "https://maps.gstatic.com/mapfiles/place_api/icons/v2/school_pinlet", "name": "UM School Chirumahua Patardih", "place_id": "ChIJcW9A6hrp8zkRnXJQulDWhxk", "reference": "ChIJcW9A6hrp8zkRnXJQulDWhxk", "scope": "GOOGLE", "types": ["school", "point_of_interest", "establishment"], "vicinity": "C2GX+WJX, Chirumahua, Patardih"}, {"business_status": "OPERATIONAL", "geometry": {"location": {"lat": 24.4162304, "lng": 86.0392148}, "viewport": {"northeast": {"lat": 24.4180922802915, "lng": 86.04071933029151}, "southwest": {"lat": 24.4153943197085, "lng": 86.03802136970849}}}, "icon": "https://maps.gstatic.com/mapfiles/place_api/icons/v1/png_71/school-71.png", "icon_background_color": "#7B9EB0", "icon_mask_base_uri": "https://maps.gstatic.com/mapfiles/place_api/icons/v2/school_pinlet", "name": "J.p.k Collage Of Compitance ' Bhandaro", "photos": [{"height": 3000, "html_attributions": ["<a href=\"https://maps.google.com/maps/contrib/114988813182617085805\">ANKIT KUMAR</a>"], "photo_reference": "Aap_uEBmZ0ISaL-3LaiZua06OJiZ5xkY3T76WG6QhHcJJ1noE0q0hntvVVlQpvBDnboCjI2TOxhHrymiqUWla_Rp-Jh7HfKFO102poW1X5evxUSXk-FGm5vyzFzs8p_9IrV5dPCj-bz0iqN6nZxh3g7FJP8Ha59MCcWIWPQHxZ9-BrxWHtpr", "width": 4000}], "place_id": "ChIJkYT39Q7p8zkRla6FXgrTf6s", "rating": 4.1, "reference": "ChIJkYT39Q7p8zkRla6FXgrTf6s", "scope": "GOOGLE", "types": ["school", "point_of_interest", "establishment"], "user_ratings_total": 19, "vicinity": "C28Q+FMW, Bhandaro"}, {"business_status": "OPERATIONAL", "geometry": {"location": {"lat": 24.4104438, "lng": 86.0579262}, "viewport": {"northeast": {"lat": 24.4117822802915, "lng": 86.0593386802915}, "southwest": {"lat": 24.4090843197085, "lng": 86.0566407197085}}}, "icon": "https://maps.gstatic.com/mapfiles/place_api/icons/v1/png_71/school-71.png", "icon_background_color": "#7B9EB0", "icon_mask_base_uri": "https://maps.gstatic.com/mapfiles/place_api/icons/v2/school_pinlet", "name": "Utkarmit Prathamic Vidyalaya Manditand", "opening_hours": {"open_now": false}, "place_id": "ChIJde7QgOPo8zkRUqZ-b3wnWvE", "reference": "ChIJde7QgOPo8zkRUqZ-b3wnWvE", "scope": "GOOGLE", "types": ["school", "point_of_interest", "establishment"], "vicinity": "C365+55F, Manritanr"}, {"business_status": "OPERATIONAL", "geometry": {"location": {"lat": 24.4242958, "lng": 86.0401797}, "viewport": {"northeast": {"lat": 24.4259970302915, "lng": 86.0418243302915}, "southwest": {"lat": 24.4232990697085, "lng": 86.03912636970848}}}, "icon": "https://maps.gstatic.com/mapfiles/place_api/icons/v1/png_71/school-71.png", "icon_background_color": "#7B9EB0", "icon_mask_base_uri": "https://maps.gstatic.com/mapfiles/place_api/icons/v2/school_pinlet", "name": "S.B.M.K.H.S.", "place_id": "ChIJPQk3zQnp8zkR6K7zv3c424w", "plus_code": {"compound_code": "C2FR+P3 Churjhari alias Danutanr, Jharkhand, India", "global_code": "7MP8C2FR+P3"}, "rating": 4.5, "reference": "ChIJPQk3zQnp8zkR6K7zv3c424w", "scope": "GOOGLE", "types": ["school", "point_of_interest", "establishment"], "user_ratings_total": 2, "vicinity": "India"}, {"business_status": "OPERATIONAL", "geometry": {"location": {"lat": 24.4097706, "lng": 86.05807349999999}, "viewport": {"northeast": {"lat": 24.4111023802915, "lng": 86.0593930302915}, "southwest": {"lat": 24.4084044197085, "lng": 86.0566950697085}}}, "icon": "https://maps.gstatic.com/mapfiles/place_api/icons/v1/png_71/school-71.png", "icon_background_color": "#7B9EB0", "icon_mask_base_uri": "https://maps.gstatic.com/mapfiles/place_api/icons/v2/school_pinlet", "name": "DPS Remba", "place_id": "ChIJB065aBLp8zkRYwewgvyD4PU", "plus_code": {"compound_code": "C355+W6 Patardih, Jharkhand, India", "global_code": "7MP8C355+W6"}, "rating": 4.8, "reference": "ChIJB065aBLp8zkRYwewgvyD4PU", "scope": "GOOGLE", "types": ["school", "point_of_interest", "establishment"], "user_ratings_total": 6, "vicinity": "Jharkhandi Dham Road, Patardih"}, {"business_status": "OPERATIONAL", "geometry": {"location": {"lat": 24.4245591, "lng": 86.0393834}, "viewport": {"northeast": {"lat": 24.4257956802915, "lng": 86.0405644802915}, "southwest": {"lat": 24.4230977197085, "lng": 86.03786651970849}}}, "icon": "https://maps.gstatic.com/mapfiles/place_api/icons/v1/png_71/school-71.png", "icon_background_color": "#7B9EB0", "icon_mask_base_uri": "https://maps.gstatic.com/mapfiles/place_api/icons/v2/school_pinlet", "name": "S B M K High School Bhandaro", "photos": [{"height": 2448, "html_attributions": ["<a href=\"https://maps.google.com/maps/contrib/105783544925687714425\">Rk Ranjan</a>"], "photo_reference": "Aap_uEBy77MKpwxbFjXK_AQxkmE8FMvDsGopMpIScQBh2tYRbYlRfMoEKhq81hpCYH9_XM1_BcjaIHjus9t2CkG4lGW9SAeO4L7fmN59-yy2nblc4uSiWLX2TMih7WKNVN5WYe_6qWFAvp1ECMYd5kTc94Nb2fz6h1Z6SalaACj9AzEoyaxt", "width": 3264}], "place_id": "ChIJw7wH2wnp8zkRez9sghrvAVk", "rating": 3.3, "reference": "ChIJw7wH2wnp8zkRez9sghrvAVk", "scope": "GOOGLE", "types": ["school", "point_of_interest", "establishment"], "user_ratings_total": 4, "vicinity": "C2FQ+RQC, Churjhari alias Danutanr"}, {"business_status": "OPERATIONAL", "geometry": {"location": {"lat": 24.4179153, "lng": 86.037005}, "viewport": {"northeast": {"lat": 24.4192790302915, "lng": 86.0383176802915}, "southwest": {"lat": 24.4165810697085, "lng": 86.03561971970849}}}, "icon": "https://maps.gstatic.com/mapfiles/place_api/icons/v1/png_71/school-71.png", "icon_background_color": "#7B9EB0", "icon_mask_base_uri": "https://maps.gstatic.com/mapfiles/place_api/icons/v2/school_pinlet", "name": "Ganesh Mandir Suraj home", "photos": [{"height": 4128, "html_attributions": ["<a href=\"https://maps.google.com/maps/contrib/107833575099378073237\">Suraj Kumar saw</a>"], "photo_reference": "Aap_uEBT7DYROVb4qytn7O_WXmVgsJ9IrAw201Vyk9jIZ-7qwxqLccMAqoqayrTqeWEuqVvstZBqCRwEowXYCtn1aax6vxFV_6SbA_5pxUmIV_Z7E-VUvsvLxcmwOsUnL8jBEPJGGD68hJt96pVAD88WoNWBnYtqS_c5pLbTc-1x_s2ENUir", "width": 3096}], "place_id": "ChIJk-B-Bxzp8zkRvA7Qs2S1rJo", "reference": "ChIJk-B-Bxzp8zkRvA7Qs2S1rJo", "scope": "GOOGLE", "types": ["school", "point_of_interest", "establishment"], "vicinity": "C29P+5R6, Bhandaro"}, {"business_status": "OPERATIONAL", "geometry": {"location": {"lat": 24.4245155, "lng": 86.0387994}, "viewport": {"northeast": {"lat": 24.4258437302915, "lng": 86.04013638029151}, "southwest": {"lat": 24.42314576970849, "lng": 86.03743841970851}}}, "icon": "https://maps.gstatic.com/mapfiles/place_api/icons/v1/png_71/school-71.png", "icon_background_color": "#7B9EB0", "icon_mask_base_uri": "https://maps.gstatic.com/mapfiles/place_api/icons/v2/school_pinlet", "name": "Middle School Bhandaro", "place_id": "ChIJJ92NCU7p8zkRDcVfuHWxfkg", "rating": 5, "reference": "ChIJJ92NCU7p8zkRDcVfuHWxfkg", "scope": "GOOGLE", "types": ["school", "point_of_interest", "establishment"], "user_ratings_total": 1, "vicinity": "C2FQ+RG3, Churjhari alias Danutanr"}, {"business_status": "OPERATIONAL", "geometry": {"location": {"lat": 24.4074783, "lng": 86.05656429999999}, "viewport": {"northeast": {"lat": 24.4088702802915, "lng": 86.0577299302915}, "southwest": {"lat": 24.4061723197085, "lng": 86.0550319697085}}}, "icon": "https://maps.gstatic.com/mapfiles/place_api/icons/v1/png_71/school-71.png", "icon_background_color": "#7B9EB0", "icon_mask_base_uri": "https://maps.gstatic.com/mapfiles/place_api/icons/v2/school_pinlet", "name": "Sai Wave International School,Dhirosinga", "place_id": "ChIJbWzmMsnp8zkROzW_MZz0Y70", "reference": "ChIJbWzmMsnp8zkROzW_MZz0Y70", "scope": "GOOGLE", "types": ["school", "point_of_interest", "establishment"], "vicinity": "C344+XJW, Patardih"}, {"business_status": "OPERATIONAL", "geometry": {"location": {"lat": 24.4257338, "lng": 86.0395705}, "viewport": {"northeast": {"lat": 24.4270641302915, "lng": 86.0409052302915}, "southwest": {"lat": 24.4243661697085, "lng": 86.0382072697085}}}, "icon": "https://maps.gstatic.com/mapfiles/place_api/icons/v1/png_71/school-71.png", "icon_background_color": "#7B9EB0", "icon_mask_base_uri": "https://maps.gstatic.com/mapfiles/place_api/icons/v2/school_pinlet", "name": "J.P.K Inter college of competence Bhandaro", "photos": [{"height": 1080, "html_attributions": ["<a href=\"https://maps.google.com/maps/contrib/117917779860453392565\">Bikash YT musical</a>"], "photo_reference": "Aap_uEB-agwdSMsOM17dBem0UkXS3w2zPolSLWpkJqn6fcR8e_Wi-3Zo4spAG_uDiSyPtWORCnwxi7rMASkMMyaIPU8AL6raZZ55HWfWifmuJZrO-NEbS0kXu_v_UXbkHMhFFlHxV9AlGY3sYA2w_mkaW-FWD-Tyzfe0t2aofarHNd6o_GER", "width": 1920}], "place_id": "ChIJoUeXSg_p8zkRRu-C9tIOEfg", "rating": 4.7, "reference": "ChIJoUeXSg_p8zkRRu-C9tIOEfg", "scope": "GOOGLE", "types": ["school", "point_of_interest", "establishment"], "user_ratings_total": 3, "vicinity": "C2GQ+7RW, Churjhari alias Danutanr"}], "status": "OK"}