{"html_attributions": [], "results": [{"business_status": "OPERATIONAL", "geometry": {"location": {"lat": 24.5000563, "lng": 86.09259279999999}, "viewport": {"northeast": {"lat": 24.5013455302915, "lng": 86.0939957802915}, "southwest": {"lat": 24.4986475697085, "lng": 86.09129781970849}}}, "icon": "https://maps.gstatic.com/mapfiles/place_api/icons/v1/png_71/school-71.png", "icon_background_color": "#7B9EB0", "icon_mask_base_uri": "https://maps.gstatic.com/mapfiles/place_api/icons/v2/school_pinlet", "name": "S.B.S Public High School Bairia", "place_id": "ChIJ7R4E3crC8zkRm56cr5rYVSw", "rating": 5, "reference": "ChIJ7R4E3crC8zkRm56cr5rYVSw", "scope": "GOOGLE", "types": ["school", "point_of_interest", "establishment"], "user_ratings_total": 1, "vicinity": "G32V+22G, Bairia"}, {"business_status": "OPERATIONAL", "geometry": {"location": {"lat": 24.4997027, "lng": 86.0946894}, "viewport": {"northeast": {"lat": 24.5010476802915, "lng": 86.09605408029151}, "southwest": {"lat": 24.4983497197085, "lng": 86.0933561197085}}}, "icon": "https://maps.gstatic.com/mapfiles/place_api/icons/v1/png_71/school-71.png", "icon_background_color": "#7B9EB0", "icon_mask_base_uri": "https://maps.gstatic.com/mapfiles/place_api/icons/v2/school_pinlet", "name": "Bairiya", "photos": [{"height": 1280, "html_attributions": ["<a href=\"https://maps.google.com/maps/contrib/115611335474053970223\">Md Firoj Ansari</a>"], "photo_reference": "Aap_uEDQh9l0V1Ot-nXZ5BlJCMeWKKp7lpbhgF_syh54DP1RaAudQ8qwBbbdFKP97_40tut82lpgUyfvECKxfjRVsdGr4zid9M8vxvy6HySW40diIqrreS3rrLK_r81ABCfay72R7JiCMugxSFKZzlnac3BzxxJz98zUyYvxILGvKWX9AkfO", "width": 720}], "place_id": "ChIJeSXwB7fd8zkR8pELK3WKTns", "plus_code": {"compound_code": "F3XV+VV Bairia, Jharkhand, India", "global_code": "7MP8F3XV+VV"}, "reference": "ChIJeSXwB7fd8zkR8pELK3WKTns", "scope": "GOOGLE", "types": ["school", "point_of_interest", "establishment"], "vicinity": "Unnamed Road, Bairia"}, {"business_status": "OPERATIONAL", "geometry": {"location": {"lat": 24.4965602, "lng": 86.0960719}, "viewport": {"northeast": {"lat": 24.4979504302915, "lng": 86.09744153029152}, "southwest": {"lat": 24.4952524697085, "lng": 86.0947435697085}}}, "icon": "https://maps.gstatic.com/mapfiles/place_api/icons/v1/png_71/school-71.png", "icon_background_color": "#7B9EB0", "icon_mask_base_uri": "https://maps.gstatic.com/mapfiles/place_api/icons/v2/school_pinlet", "name": "\u092a\u094d\u0930\u093e\u0925\u092e\u093f\u0915 \u0935\u093f\u0926\u094d\u092f\u093e\u0932\u092f , \u092c\u0948\u0930\u093f\u092f\u093e", "opening_hours": {"open_now": false}, "place_id": "ChIJmW2wclTd8zkRWveMETwYwNA", "plus_code": {"compound_code": "F3WW+JC Bairia, Jharkhand, India", "global_code": "7MP8F3WW+JC"}, "rating": 5, "reference": "ChIJmW2wclTd8zkRWveMETwYwNA", "scope": "GOOGLE", "types": ["school", "point_of_interest", "establishment"], "user_ratings_total": 1, "vicinity": "\u092e\u0927\u094d\u092f \u091f\u094b\u0932\u093e, Bairia"}, {"business_status": "OPERATIONAL", "geometry": {"location": {"lat": 24.50376199999999, "lng": 86.098825}, "viewport": {"northeast": {"lat": 24.5051299302915, "lng": 86.10052208029151}, "southwest": {"lat": 24.50243196970849, "lng": 86.0978241197085}}}, "icon": "https://maps.gstatic.com/mapfiles/place_api/icons/v1/png_71/school-71.png", "icon_background_color": "#7B9EB0", "icon_mask_base_uri": "https://maps.gstatic.com/mapfiles/place_api/icons/v2/school_pinlet", "name": "U H S Bairiya", "place_id": "ChIJnV_4rE3d8zkRxD4y59eU6BU", "rating": 5, "reference": "ChIJnV_4rE3d8zkRxD4y59eU6BU", "scope": "GOOGLE", "types": ["school", "point_of_interest", "establishment"], "user_ratings_total": 1, "vicinity": "G33X+GG4, Bairia"}, {"business_status": "OPERATIONAL", "geometry": {"location": {"lat": 24.5015016, "lng": 86.1003046}, "viewport": {"northeast": {"lat": 24.5028923802915, "lng": 86.1014524802915}, "southwest": {"lat": 24.5001944197085, "lng": 86.09875451970848}}}, "icon": "https://maps.gstatic.com/mapfiles/place_api/icons/v1/png_71/school-71.png", "icon_background_color": "#7B9EB0", "icon_mask_base_uri": "https://maps.gstatic.com/mapfiles/place_api/icons/v2/school_pinlet", "name": "Raza masjid", "place_id": "ChIJHSqggfjd8zkRIR_gvExYWHQ", "plus_code": {"compound_code": "G422+J4 Bairia, Jharkhand, India", "global_code": "7MP8G422+J4"}, "reference": "ChIJHSqggfjd8zkRIR_gvExYWHQ", "scope": "GOOGLE", "types": ["school", "point_of_interest", "establishment"], "vicinity": ""}, {"business_status": "OPERATIONAL", "geometry": {"location": {"lat": 24.5016252, "lng": 86.1002603}, "viewport": {"northeast": {"lat": 24.5029696302915, "lng": 86.1014332802915}, "southwest": {"lat": 24.5002716697085, "lng": 86.0987353197085}}}, "icon": "https://maps.gstatic.com/mapfiles/place_api/icons/v1/png_71/school-71.png", "icon_background_color": "#7B9EB0", "icon_mask_base_uri": "https://maps.gstatic.com/mapfiles/place_api/icons/v2/school_pinlet", "name": "Raza masjid bairiya", "place_id": "ChIJjVFwI0Ld8zkR_faAguyH8rk", "plus_code": {"compound_code": "G422+M4 Bairia, Jharkhand, India", "global_code": "7MP8G422+M4"}, "reference": "ChIJjVFwI0Ld8zkR_faAguyH8rk", "scope": "GOOGLE", "types": ["school", "point_of_interest", "establishment"], "vicinity": "Unnamed Road, Bairia"}, {"business_status": "OPERATIONAL", "geometry": {"location": {"lat": 24.5014939, "lng": 86.10032199999999}, "viewport": {"northeast": {"lat": 24.5028869302915, "lng": 86.1014607802915}, "southwest": {"lat": 24.5001889697085, "lng": 86.0987628197085}}}, "icon": "https://maps.gstatic.com/mapfiles/place_api/icons/v1/png_71/school-71.png", "icon_background_color": "#7B9EB0", "icon_mask_base_uri": "https://maps.gstatic.com/mapfiles/place_api/icons/v2/school_pinlet", "name": "Raza masjid bairiya", "place_id": "ChIJ1boS7-rd8zkRGt28l9h50Dk", "plus_code": {"compound_code": "G422+H4 Bairia, Jharkhand, India", "global_code": "7MP8G422+H4"}, "reference": "ChIJ1boS7-rd8zkRGt28l9h50Dk", "scope": "GOOGLE", "types": ["school", "point_of_interest", "establishment"], "vicinity": "Unnamed Road, Bairia"}], "status": "OK"}