{"html_attributions": [], "results": [{"business_status": "OPERATIONAL", "geometry": {"location": {"lat": 24.98067, "lng": 86.09117549999999}, "viewport": {"northeast": {"lat": 24.9819344802915, "lng": 86.0925057302915}, "southwest": {"lat": 24.9792365197085, "lng": 86.0898077697085}}}, "icon": "https://maps.gstatic.com/mapfiles/place_api/icons/v1/png_71/school-71.png", "icon_background_color": "#7B9EB0", "icon_mask_base_uri": "https://maps.gstatic.com/mapfiles/place_api/icons/v2/school_pinlet", "name": "Kushwaha Tola", "opening_hours": {"open_now": true}, "place_id": "ChIJVVVVVdgx8jkRk89BvM20Fus", "plus_code": {"compound_code": "X3JR+7F Tal Saharsa, Bihar, India", "global_code": "7MP8X3JR+7F"}, "rating": 1, "reference": "ChIJVVVVVdgx8jkRk89BvM20Fus", "scope": "GOOGLE", "types": ["school", "point_of_interest", "establishment"], "user_ratings_total": 1, "vicinity": "811315, Tal Saharsa"}, {"business_status": "OPERATIONAL", "geometry": {"location": {"lat": 24.98067, "lng": 86.09117549999999}, "viewport": {"northeast": {"lat": 24.9819344802915, "lng": 86.0925057302915}, "southwest": {"lat": 24.9792365197085, "lng": 86.0898077697085}}}, "icon": "https://maps.gstatic.com/mapfiles/place_api/icons/v1/png_71/school-71.png", "icon_background_color": "#7B9EB0", "icon_mask_base_uri": "https://maps.gstatic.com/mapfiles/place_api/icons/v2/school_pinlet", "name": "ShreeRam", "opening_hours": {"open_now": false}, "photos": [{"height": 960, "html_attributions": ["<a href=\"https://maps.google.com/maps/contrib/103086645023698408628\">Shreeram Kumar</a>"], "photo_reference": "Aap_uECQ7a6L1rTjuzFWJqFJ8FcMCgVFo8eHD8SdVokGiiQY9mE9Ej87zmG4-30betrhEaxtomwDNXWGdfnCcUhH4m29XWES51OGNK6QVlLgaeb-ZlJXi7m2yGKjNq6GrsbRJriNKX-HE9Kn55S7dlYTqirH-LPbeJzZ48n-GB1tgsQNFkaH", "width": 720}], "place_id": "ChIJaYAINNgx8jkRQzdSTbFTzYU", "reference": "ChIJaYAINNgx8jkRQzdSTbFTzYU", "scope": "GOOGLE", "types": ["school", "point_of_interest", "establishment"], "vicinity": "X3JR+7F7, Tal Saharsa"}, {"business_status": "OPERATIONAL", "geometry": {"location": {"lat": 24.98067959999999, "lng": 86.0911788}, "viewport": {"northeast": {"lat": 24.9819391802915, "lng": 86.0925079302915}, "southwest": {"lat": 24.97924121970849, "lng": 86.0898099697085}}}, "icon": "https://maps.gstatic.com/mapfiles/place_api/icons/v1/png_71/school-71.png", "icon_background_color": "#7B9EB0", "icon_mask_base_uri": "https://maps.gstatic.com/mapfiles/place_api/icons/v2/school_pinlet", "name": "Chaurasiya Tola", "opening_hours": {"open_now": false}, "place_id": "ChIJRRxUVdgx8jkRBo6mXOe-d5s", "plus_code": {"compound_code": "X3JR+7F Tal Saharsa, Bihar, India", "global_code": "7MP8X3JR+7F"}, "rating": 5, "reference": "ChIJRRxUVdgx8jkRBo6mXOe-d5s", "scope": "GOOGLE", "types": ["school", "point_of_interest", "establishment"], "user_ratings_total": 1, "vicinity": "Tal Saharsa"}, {"business_status": "OPERATIONAL", "geometry": {"location": {"lat": 24.9829615, "lng": 86.0860538}, "viewport": {"northeast": {"lat": 24.9843088302915, "lng": 86.08741418029152}, "southwest": {"lat": 24.9816108697085, "lng": 86.08471621970851}}}, "icon": "https://maps.gstatic.com/mapfiles/place_api/icons/v1/png_71/school-71.png", "icon_background_color": "#7B9EB0", "icon_mask_base_uri": "https://maps.gstatic.com/mapfiles/place_api/icons/v2/school_pinlet", "name": "High School Tal Saharsa", "photos": [{"height": 4032, "html_attributions": ["<a href=\"https://maps.google.com/maps/contrib/110045789841752973861\">Santu Kumar</a>"], "photo_reference": "Aap_uEA2jiCVp1M_fl3YUmlgSGSbUHpJ7DVR_JFhwCFGASviyApR5HdhP14yBH5HxRa7AuDQrcySrqMsbKZtu5RAH3reIM2I82O8NU6VOpCOBJ5kwc1HudkpMc1miC9Ejof0XWgSkmi_Wt6ENpAb5yiWR8Ay7mh85iN7Je4Pc2JRxDwww17Z", "width": 3016}], "place_id": "ChIJVVVVVdgx8jkROABFFY2O8Bg", "plus_code": {"compound_code": "X3MP+5C Tal Saharsa, Bihar, India", "global_code": "7MP8X3MP+5C"}, "rating": 3.3, "reference": "ChIJVVVVVdgx8jkROABFFY2O8Bg", "scope": "GOOGLE", "types": ["school", "point_of_interest", "establishment"], "user_ratings_total": 8, "vicinity": "Tal saharsa Road"}], "status": "OK"}