{"html_attributions": [], "results": [{"business_status": "OPERATIONAL", "geometry": {"location": {"lat": 25.0218406, "lng": 86.0809938}, "viewport": {"northeast": {"lat": 25.0232360802915, "lng": 86.08175588029151}, "southwest": {"lat": 25.0205381197085, "lng": 86.0790579197085}}}, "icon": "https://maps.gstatic.com/mapfiles/place_api/icons/v1/png_71/school-71.png", "icon_background_color": "#7B9EB0", "icon_mask_base_uri": "https://maps.gstatic.com/mapfiles/place_api/icons/v2/school_pinlet", "name": "Rahul Kumar", "place_id": "ChIJScfQBiYx8jkRYu1s7RdvV0c", "plus_code": {"compound_code": "23CJ+P9 Konag, Bihar, India", "global_code": "7MQ823CJ+P9"}, "rating": 5, "reference": "ChIJScfQBiYx8jkRYu1s7RdvV0c", "scope": "GOOGLE", "types": ["primary_school", "school", "point_of_interest", "establishment"], "user_ratings_total": 1, "vicinity": "At Bardokhar Post Konag, Dist, Lakh"}, {"business_status": "OPERATIONAL", "geometry": {"location": {"lat": 25.01524, "lng": 86.09993329999999}, "viewport": {"northeast": {"lat": 25.01658963029151, "lng": 86.10125533029151}, "southwest": {"lat": 25.0138916697085, "lng": 86.0985573697085}}}, "icon": "https://maps.gstatic.com/mapfiles/place_api/icons/v1/png_71/school-71.png", "icon_background_color": "#7B9EB0", "icon_mask_base_uri": "https://maps.gstatic.com/mapfiles/place_api/icons/v2/school_pinlet", "name": "Bindeswari Singh high school bahrawan", "place_id": "ChIJp8NbCMAv8jkRRp4P3pyAE6g", "plus_code": {"compound_code": "238X+3X Bahranwan, Bihar, India", "global_code": "7MQ8238X+3X"}, "reference": "ChIJp8NbCMAv8jkRRp4P3pyAE6g", "scope": "GOOGLE", "types": ["school", "point_of_interest", "establishment"], "vicinity": "Bahrawan"}, {"business_status": "OPERATIONAL", "geometry": {"location": {"lat": 25.02376570000001, "lng": 86.1000242}, "viewport": {"northeast": {"lat": 25.0254974302915, "lng": 86.1015899302915}, "southwest": {"lat": 25.0227994697085, "lng": 86.09889196970848}}}, "icon": "https://maps.gstatic.com/mapfiles/place_api/icons/v1/png_71/school-71.png", "icon_background_color": "#7B9EB0", "icon_mask_base_uri": "https://maps.gstatic.com/mapfiles/place_api/icons/v2/school_pinlet", "name": "Bindeswari Singh High School", "place_id": "ChIJ5-kSwOYv8jkRieC8Oz_IfDs", "reference": "ChIJ5-kSwOYv8jkRieC8Oz_IfDs", "scope": "GOOGLE", "types": ["school", "point_of_interest", "establishment"], "vicinity": "24F2+G22, Rata"}, {"business_status": "OPERATIONAL", "geometry": {"location": {"lat": 25.0237991, "lng": 86.10005670000001}, "viewport": {"northeast": {"lat": 25.0255141302915, "lng": 86.10160618029151}, "southwest": {"lat": 25.0228161697085, "lng": 86.0989082197085}}}, "icon": "https://maps.gstatic.com/mapfiles/place_api/icons/v1/png_71/school-71.png", "icon_background_color": "#7B9EB0", "icon_mask_base_uri": "https://maps.gstatic.com/mapfiles/place_api/icons/v2/school_pinlet", "name": "B S High School Bahrawan", "place_id": "ChIJOa4IwOYv8jkRPNzDaolZpAA", "reference": "ChIJOa4IwOYv8jkRPNzDaolZpAA", "scope": "GOOGLE", "types": ["school", "point_of_interest", "establishment"], "vicinity": "24F2+G27, Bahrawan, Lakhisarai"}, {"business_status": "OPERATIONAL", "geometry": {"location": {"lat": 25.0245942, "lng": 86.08025599999999}, "viewport": {"northeast": {"lat": 25.0258863302915, "lng": 86.0815390802915}, "southwest": {"lat": 25.0231883697085, "lng": 86.0788411197085}}}, "icon": "https://maps.gstatic.com/mapfiles/place_api/icons/v1/png_71/school-71.png", "icon_background_color": "#7B9EB0", "icon_mask_base_uri": "https://maps.gstatic.com/mapfiles/place_api/icons/v2/school_pinlet", "name": "Shiv Mandir Konag", "photos": [{"height": 4160, "html_attributions": ["<a href=\"https://maps.google.com/maps/contrib/117643514461917669788\">Umesh Mukhi</a>"], "photo_reference": "Aap_uEBNuFPq6r8O_tyyWoIfVFaVUEKDwvAx441FoK4GpMCbfP2RUzteGDYEypVz72IHjXzW-GqmEp9uv_tmhjvGKKG9ZanQwkagyugQyC8CV2jaxIAXsDZx1zlFja6NZVtduEkRrHVaPshCftILpfQqMVW5ADwE9GPrRZX1ybAoNL-PQp3x", "width": 3120}], "place_id": "ChIJ_Tlr7T8x8jkR3DybCEM6SmA", "plus_code": {"compound_code": "23FJ+R4 Baghaur, Bihar, India", "global_code": "7MQ823FJ+R4"}, "rating": 5, "reference": "ChIJ_Tlr7T8x8jkR3DybCEM6SmA", "scope": "GOOGLE", "types": ["school", "point_of_interest", "establishment"], "user_ratings_total": 1, "vicinity": "Unnamed Road, Baghaur"}], "status": "OK"}