{"html_attributions": [], "results": [{"business_status": "OPERATIONAL", "geometry": {"location": {"lat": 25.03538110000001, "lng": 86.10559549999999}, "viewport": {"northeast": {"lat": 25.0367710802915, "lng": 86.10782030000001}, "southwest": {"lat": 25.03407311970849, "lng": 86.10485389999997}}}, "icon": "https://maps.gstatic.com/mapfiles/place_api/icons/v1/png_71/school-71.png", "icon_background_color": "#7B9EB0", "icon_mask_base_uri": "https://maps.gstatic.com/mapfiles/place_api/icons/v2/school_pinlet", "name": "Rishi Kumar", "place_id": "ChIJk8bLFqgv8jkRY051qpzcC7U", "reference": "ChIJk8bLFqgv8jkRY051qpzcC7U", "scope": "GOOGLE", "types": ["school", "point_of_interest", "establishment"], "vicinity": "24P4+565, Sawan Kherawan"}, {"business_status": "OPERATIONAL", "geometry": {"location": {"lat": 25.0318367, "lng": 86.1170483}, "viewport": {"northeast": {"lat": 25.03309498029151, "lng": 86.1183819802915}, "southwest": {"lat": 25.0303970197085, "lng": 86.1156840197085}}}, "icon": "https://maps.gstatic.com/mapfiles/place_api/icons/v1/png_71/school-71.png", "icon_background_color": "#7B9EB0", "icon_mask_base_uri": "https://maps.gstatic.com/mapfiles/place_api/icons/v2/school_pinlet", "name": "\u0909\u0924\u094d\u0915\u094d\u0930\u092e\u093f\u0924 \u092e\u0927\u094d\u092f \u0935\u093f\u0926\u094d\u092f\u093e\u0932\u092f \u0916\u0948\u0930\u092e\u093e", "place_id": "ChIJA_ajlz8v8jkRsBAVXkaVyys", "plus_code": {"compound_code": "24J8+PR Satsanda, Bihar, India", "global_code": "7MQ824J8+PR"}, "reference": "ChIJA_ajlz8v8jkRsBAVXkaVyys", "scope": "GOOGLE", "types": ["school", "point_of_interest", "establishment"], "vicinity": "Unnamed Road, Satsanda"}, {"business_status": "OPERATIONAL", "geometry": {"location": {"lat": 25.0406703, "lng": 86.1217424}, "viewport": {"northeast": {"lat": 25.04277705, "lng": 86.12390434999999}, "southwest": {"lat": 25.03996805, "lng": 86.12102175000001}}}, "icon": "https://maps.gstatic.com/mapfiles/place_api/icons/v1/png_71/school-71.png", "icon_background_color": "#7B9EB0", "icon_mask_base_uri": "https://maps.gstatic.com/mapfiles/place_api/icons/v2/school_pinlet", "name": "Bright Era Academy", "opening_hours": {"open_now": false}, "photos": [{"height": 2560, "html_attributions": ["<a href=\"https://maps.google.com/maps/contrib/108228004152691235639\">prank #</a>"], "photo_reference": "Aap_uEB3jUYrn_iNiQ7Xer_8L7fZ7L23b-00Wt_8k_A2aZhuGbjPrMYbSXLBPquuCylQEVwu1hL_lpD8Wi7Zb5Mo01tDSQ4jXP5LRN0UoVRmSbu2V-4HD2uzClJmaeSDsLjHEsq02z-WeFjrQrxGFu4vvhx0edLDpQZzJnOtrxoowm9Sa0uj", "width": 1920}], "place_id": "ChIJAQAAAIkv8jkRS1fgP11by2E", "reference": "ChIJAQAAAIkv8jkRS1fgP11by2E", "scope": "GOOGLE", "types": ["school", "point_of_interest", "establishment"], "vicinity": "24RC+7M9, Satsanda"}, {"business_status": "OPERATIONAL", "geometry": {"location": {"lat": 25.0290423, "lng": 86.11724970000002}, "viewport": {"northeast": {"lat": 25.0303689802915, "lng": 86.11859243029153}, "southwest": {"lat": 25.0276710197085, "lng": 86.11589446970851}}}, "icon": "https://maps.gstatic.com/mapfiles/place_api/icons/v1/png_71/school-71.png", "icon_background_color": "#7B9EB0", "icon_mask_base_uri": "https://maps.gstatic.com/mapfiles/place_api/icons/v2/school_pinlet", "name": "Bab an Kumar sharma", "place_id": "ChIJadiDQhsv8jkR6UUkSoT1XZg", "plus_code": {"compound_code": "24H8+JV Satsanda, Bihar, India", "global_code": "7MQ824H8+JV"}, "reference": "ChIJadiDQhsv8jkR6UUkSoT1XZg", "scope": "GOOGLE", "types": ["secondary_school", "school", "point_of_interest", "establishment"], "vicinity": "68, Khairama"}, {"business_status": "OPERATIONAL", "geometry": {"location": {"lat": 25.0415199, "lng": 86.09755179999999}, "viewport": {"northeast": {"lat": 25.0427274802915, "lng": 86.0989350302915}, "southwest": {"lat": 25.0400295197085, "lng": 86.0962370697085}}}, "icon": "https://maps.gstatic.com/mapfiles/place_api/icons/v1/png_71/school-71.png", "icon_background_color": "#7B9EB0", "icon_mask_base_uri": "https://maps.gstatic.com/mapfiles/place_api/icons/v2/school_pinlet", "name": "Primary School", "place_id": "ChIJOdWr2Ugv8jkR-KjpNe23BkY", "reference": "ChIJOdWr2Ugv8jkR-KjpNe23BkY", "scope": "GOOGLE", "types": ["school", "point_of_interest", "establishment"], "vicinity": "23RX+J23, Barui"}], "status": "OK"}