{"html_attributions": [], "results": [{"business_status": "OPERATIONAL", "geometry": {"location": {"lat": 25.0595225, "lng": 86.10964419999999}, "viewport": {"northeast": {"lat": 25.0608786302915, "lng": 86.1109368802915}, "southwest": {"lat": 25.0581806697085, "lng": 86.1082389197085}}}, "icon": "https://maps.gstatic.com/mapfiles/place_api/icons/v1/png_71/school-71.png", "icon_background_color": "#7B9EB0", "icon_mask_base_uri": "https://maps.gstatic.com/mapfiles/place_api/icons/v2/school_pinlet", "name": "Utkarmit Madhya Vidyalaya Gunli", "place_id": "ChIJU7Pg8jcl8jkRlwhLaA0LH4U", "rating": 1, "reference": "ChIJU7Pg8jcl8jkRlwhLaA0LH4U", "scope": "GOOGLE", "types": ["school", "point_of_interest", "establishment"], "user_ratings_total": 1, "vicinity": "3455+RV2, Gulni"}, {"business_status": "OPERATIONAL", "geometry": {"location": {"lat": 25.0584465, "lng": 86.11668}, "viewport": {"northeast": {"lat": 25.0598547302915, "lng": 86.11785588029151}, "southwest": {"lat": 25.0571567697085, "lng": 86.1151579197085}}}, "icon": "https://maps.gstatic.com/mapfiles/place_api/icons/v1/png_71/school-71.png", "icon_background_color": "#7B9EB0", "icon_mask_base_uri": "https://maps.gstatic.com/mapfiles/place_api/icons/v2/school_pinlet", "name": "MADARSA ZIYAULM GULNI", "opening_hours": {"open_now": true}, "place_id": "ChIJux3n-gsl8jkR5unx7z6OjQk", "rating": 5, "reference": "ChIJux3n-gsl8jkR5unx7z6OjQk", "scope": "GOOGLE", "types": ["school", "point_of_interest", "establishment"], "user_ratings_total": 1, "vicinity": "3458+9MF, Gulni"}, {"business_status": "OPERATIONAL", "geometry": {"location": {"lat": 25.0607976, "lng": 86.0988253}, "viewport": {"northeast": {"lat": 25.0620632302915, "lng": 86.1010128}, "southwest": {"lat": 25.0593652697085, "lng": 86.09226279999999}}}, "icon": "https://maps.gstatic.com/mapfiles/place_api/icons/v1/png_71/school-71.png", "icon_background_color": "#7B9EB0", "icon_mask_base_uri": "https://maps.gstatic.com/mapfiles/place_api/icons/v2/school_pinlet", "name": "GULNI MASJID", "place_id": "ChIJ9fPmL2sl8jkRxVhPTKh4uwg", "reference": "ChIJ9fPmL2sl8jkRxVhPTKh4uwg", "scope": "GOOGLE", "types": ["school", "point_of_interest", "establishment"], "vicinity": "336X+8G8, Nand Nama"}, {"business_status": "OPERATIONAL", "geometry": {"location": {"lat": 25.0625162, "lng": 86.0977453}, "viewport": {"northeast": {"lat": 25.0638317802915, "lng": 86.09945704999998}, "southwest": {"lat": 25.06113381970849, "lng": 86.09261005000002}}}, "icon": "https://maps.gstatic.com/mapfiles/place_api/icons/v1/png_71/school-71.png", "icon_background_color": "#7B9EB0", "icon_mask_base_uri": "https://maps.gstatic.com/mapfiles/place_api/icons/v2/school_pinlet", "name": "high school nandnama", "place_id": "ChIJ-0oYwUsl8jkR3pP0aBB4YYU", "reference": "ChIJ-0oYwUsl8jkR3pP0aBB4YYU", "scope": "GOOGLE", "types": ["school", "point_of_interest", "establishment"], "vicinity": "337X+235, Nand Nama"}], "status": "OK"}