{"html_attributions": [], "results": [{"business_status": "OPERATIONAL", "geometry": {"location": {"lat": 24.8153712, "lng": 86.12697039999999}, "viewport": {"northeast": {"lat": 24.81666663029151, "lng": 86.12809423029151}, "southwest": {"lat": 24.8139686697085, "lng": 86.12539626970849}}}, "icon": "https://maps.gstatic.com/mapfiles/place_api/icons/v1/png_71/school-71.png", "icon_background_color": "#7B9EB0", "icon_mask_base_uri": "https://maps.gstatic.com/mapfiles/place_api/icons/v2/school_pinlet", "name": "HIGH SCHOOL HARNI", "opening_hours": {"open_now": false}, "place_id": "ChIJm2GrhmXT8zkRWYUYjXkQ3XY", "reference": "ChIJm2GrhmXT8zkRWYUYjXkQ3XY", "scope": "GOOGLE", "types": ["school", "point_of_interest", "establishment"], "vicinity": "R48G+4QX, Khalari"}, {"business_status": "OPERATIONAL", "geometry": {"location": {"lat": 24.8108322, "lng": 86.13596810000001}, "viewport": {"northeast": {"lat": 24.8121410302915, "lng": 86.13726683029152}, "southwest": {"lat": 24.8094430697085, "lng": 86.13456886970852}}}, "icon": "https://maps.gstatic.com/mapfiles/place_api/icons/v1/png_71/school-71.png", "icon_background_color": "#7B9EB0", "icon_mask_base_uri": "https://maps.gstatic.com/mapfiles/place_api/icons/v2/school_pinlet", "name": "utkarmit middle school harni", "opening_hours": {"open_now": false}, "place_id": "ChIJSRDBuQHT8zkRHHlVScY9e-c", "rating": 4, "reference": "ChIJSRDBuQHT8zkRHHlVScY9e-c", "scope": "GOOGLE", "types": ["school", "point_of_interest", "establishment"], "user_ratings_total": 1, "vicinity": "R46P+89P, Harni"}, {"business_status": "OPERATIONAL", "geometry": {"location": {"lat": 24.8058576, "lng": 86.1309928}, "viewport": {"northeast": {"lat": 24.8074608302915, "lng": 86.1321358802915}, "southwest": {"lat": 24.8047628697085, "lng": 86.1294379197085}}}, "icon": "https://maps.gstatic.com/mapfiles/place_api/icons/v1/png_71/school-71.png", "icon_background_color": "#7B9EB0", "icon_mask_base_uri": "https://maps.gstatic.com/mapfiles/place_api/icons/v2/school_pinlet", "name": "Arnmabank School", "place_id": "ChIJ0z9akVXS8zkRebY1ml3lmi4", "reference": "ChIJ0z9akVXS8zkRebY1ml3lmi4", "scope": "GOOGLE", "types": ["school", "point_of_interest", "establishment"], "vicinity": "R44J+89X, Arunwa Bank"}], "status": "OK"}