{"html_attributions": [], "results": [{"business_status": "OPERATIONAL", "geometry": {"location": {"lat": 24.5035718, "lng": 86.1631022}, "viewport": {"northeast": {"lat": 24.5048594802915, "lng": 86.1645711802915}, "southwest": {"lat": 24.5021615197085, "lng": 86.1618732197085}}}, "icon": "https://maps.gstatic.com/mapfiles/place_api/icons/v1/png_71/school-71.png", "icon_background_color": "#7B9EB0", "icon_mask_base_uri": "https://maps.gstatic.com/mapfiles/place_api/icons/v2/school_pinlet", "name": "Manjhiladih Primary School Baalck", "photos": [{"height": 1440, "html_attributions": ["<a href=\"https://maps.google.com/maps/contrib/111682467987774442620\">Rajiv Nandan</a>"], "photo_reference": "Aap_uED_xqwB4_lWPEDR0zKdXjnpEiAq5tk-4W6pp4zs2XgJJjKPrYjen6JSbWYASp-1ISnPdkXQQu5JGZAB-v4ceyGiuion9xkHV1CkTtNg3Bednbe_c7G_xYDP4p8iyMEb1mDUfJw3u1FgfWUX0EbvlCRtzFhAknfs6cCNl70_NC_JWE8X", "width": 2560}], "place_id": "ChIJfdIAEsPd8zkRWbd4y5dMQRI", "reference": "ChIJfdIAEsPd8zkRWbd4y5dMQRI", "scope": "GOOGLE", "types": ["school", "point_of_interest", "establishment"], "vicinity": "G537+C6H, Manjhladih"}, {"business_status": "OPERATIONAL", "geometry": {"location": {"lat": 24.4929881, "lng": 86.15894860000002}, "viewport": {"northeast": {"lat": 24.4943311302915, "lng": 86.1602605802915}, "southwest": {"lat": 24.4916331697085, "lng": 86.1575626197085}}}, "icon": "https://maps.gstatic.com/mapfiles/place_api/icons/v1/png_71/school-71.png", "icon_background_color": "#7B9EB0", "icon_mask_base_uri": "https://maps.gstatic.com/mapfiles/place_api/icons/v2/school_pinlet", "name": "Ram Nam High School Rampur Ghoranjee", "opening_hours": {"open_now": false}, "place_id": "ChIJS7EeqTfd8zkRoNWgF3dtLPQ", "plus_code": {"compound_code": "F5V5+5H Nankar Ranidih, Jharkhand, India", "global_code": "7MP8F5V5+5H"}, "rating": 5, "reference": "ChIJS7EeqTfd8zkRoNWgF3dtLPQ", "scope": "GOOGLE", "types": ["school", "point_of_interest", "establishment"], "user_ratings_total": 1, "vicinity": "Unnamed Road"}, {"business_status": "OPERATIONAL", "geometry": {"location": {"lat": 24.5049333, "lng": 86.1596577}, "viewport": {"northeast": {"lat": 24.5063120802915, "lng": 86.1610361802915}, "southwest": {"lat": 24.50361411970849, "lng": 86.1583382197085}}}, "icon": "https://maps.gstatic.com/mapfiles/place_api/icons/v1/png_71/school-71.png", "icon_background_color": "#7B9EB0", "icon_mask_base_uri": "https://maps.gstatic.com/mapfiles/place_api/icons/v2/school_pinlet", "name": "Amisha Music Parent._s", "place_id": "ChIJ66x7zWHd8zkR3m9zIlQLPZ4", "plus_code": {"compound_code": "G535+XV Manjhladih, Jharkhand, India", "global_code": "7MP8G535+XV"}, "reference": "ChIJ66x7zWHd8zkR3m9zIlQLPZ4", "scope": "GOOGLE", "types": ["school", "point_of_interest", "establishment"], "vicinity": "Hanuman Mandir, Manjhladih"}], "status": "OK"}