{"html_attributions": [], "results": [{"business_status": "OPERATIONAL", "geometry": {"location": {"lat": 24.804966, "lng": 86.1617347}, "viewport": {"northeast": {"lat": 24.8063812302915, "lng": 86.1630763802915}, "southwest": {"lat": 24.8036832697085, "lng": 86.1603784197085}}}, "icon": "https://maps.gstatic.com/mapfiles/place_api/icons/v1/png_71/school-71.png", "icon_background_color": "#7B9EB0", "icon_mask_base_uri": "https://maps.gstatic.com/mapfiles/place_api/icons/v2/school_pinlet", "name": "panbharwa jamui", "opening_hours": {"open_now": false}, "photos": [{"height": 1836, "html_attributions": ["<a href=\"https://maps.google.com/maps/contrib/105337583683226415282\">Ashok kumar</a>"], "photo_reference": "Aap_uECzTU7uI7xmFqjkb1an3KNAiSvgNK4UCw34LlNjcdefnH_dIHLG6bknkbj5ZVvibtcyqsT77FYkZYYcqHswYPpkKZI9P7Wm_4TcIL3SZceJ6NKCStDKwsh_b7IYXrq_Wn4xvreBl_jY9_xO7FZe5tjVzxa_umksMJxUYHm7uHHTxzyz", "width": 3264}], "place_id": "ChIJC0j1sp3T8zkRINBF2XGhbyg", "plus_code": {"compound_code": "R536+XM Harni, Bihar, India", "global_code": "7MP8R536+XM"}, "rating": 2.2, "reference": "ChIJC0j1sp3T8zkRINBF2XGhbyg", "scope": "GOOGLE", "types": ["school", "point_of_interest", "establishment"], "user_ratings_total": 5, "vicinity": ""}, {"business_status": "OPERATIONAL", "geometry": {"location": {"lat": 24.7968293, "lng": 86.1581161}, "viewport": {"northeast": {"lat": 24.7982087802915, "lng": 86.1594564302915}, "southwest": {"lat": 24.7955108197085, "lng": 86.15675846970849}}}, "icon": "https://maps.gstatic.com/mapfiles/place_api/icons/v1/png_71/school-71.png", "icon_background_color": "#7B9EB0", "icon_mask_base_uri": "https://maps.gstatic.com/mapfiles/place_api/icons/v2/school_pinlet", "name": "LAXMI NARAYAN PUBLIC SCHOOL KURWATAND", "place_id": "ChIJqVHEatzT8zkREQYHnAGfcHs", "plus_code": {"compound_code": "Q5W5+P6 Bisanpur, Bihar, India", "global_code": "7MP8Q5W5+P6"}, "reference": "ChIJqVHEatzT8zkREQYHnAGfcHs", "scope": "GOOGLE", "types": ["school", "point_of_interest", "establishment"], "vicinity": "State Highway 82, Bisanpur"}, {"business_status": "OPERATIONAL", "geometry": {"location": {"lat": 24.7970252, "lng": 86.1565775}, "viewport": {"northeast": {"lat": 24.7981135802915, "lng": 86.1580004802915}, "southwest": {"lat": 24.7954156197085, "lng": 86.1553025197085}}}, "icon": "https://maps.gstatic.com/mapfiles/place_api/icons/v1/png_71/school-71.png", "icon_background_color": "#7B9EB0", "icon_mask_base_uri": "https://maps.gstatic.com/mapfiles/place_api/icons/v2/school_pinlet", "name": "DJ Sintu Sound Kurwatand Chouk", "place_id": "ChIJyRquO7_T8zkR7lojYWrybSE", "plus_code": {"compound_code": "Q5W4+RJ Bisanpur, Bihar, India", "global_code": "7MP8Q5W4+RJ"}, "reference": "ChIJyRquO7_T8zkR7lojYWrybSE", "scope": "GOOGLE", "types": ["school", "point_of_interest", "establishment"], "vicinity": "State Highway 82, Bisanpur"}], "status": "OK"}