{"html_attributions": [], "results": [{"business_status": "CLOSED_TEMPORARILY", "geometry": {"location": {"lat": 24.9960306, "lng": 86.1919475}, "viewport": {"northeast": {"lat": 24.9974303802915, "lng": 86.1932102302915}, "southwest": {"lat": 24.99473241970849, "lng": 86.19051226970849}}}, "icon": "https://maps.gstatic.com/mapfiles/place_api/icons/v1/png_71/school-71.png", "icon_background_color": "#7B9EB0", "icon_mask_base_uri": "https://maps.gstatic.com/mapfiles/place_api/icons/v2/school_pinlet", "name": "B.M.D. Public School Sonay(Jamui)", "permanently_closed": true, "photos": [{"height": 2322, "html_attributions": ["<a href=\"https://maps.google.com/maps/contrib/101337513650941386470\">B.M.D. Public School Sonay(Jamui)</a>"], "photo_reference": "Aap_uEB-SNNvcf0cYHIG3lxwbskn_zorwHRoIE23ChdpInnXzrenz9v8u_Ad_zICzQRjWqzjQKejJVgw47yp54bVlTR5OmkWcbA1rVGJ1yq3VCwnH5BRAoAU90pYNSBBAsWRnmrBaat9YEfdW9SpRxPm3oOII-dZ4mXHsEaa4NmK6__O0nOi", "width": 4128}], "place_id": "ChIJX2og6SAp8jkR3txMkKvEztY", "plus_code": {"compound_code": "X5WR+CQ Jamui, Bihar, India", "global_code": "7MP8X5WR+CQ"}, "rating": 3.9, "reference": "ChIJX2og6SAp8jkR3txMkKvEztY", "scope": "GOOGLE", "types": ["school", "point_of_interest", "establishment"], "user_ratings_total": 24, "vicinity": "Jamui - Lakhisarai Road, Jamui"}, {"business_status": "OPERATIONAL", "geometry": {"location": {"lat": 24.9960528, "lng": 86.1875376}, "viewport": {"northeast": {"lat": 24.9974424802915, "lng": 86.18889498029151}, "southwest": {"lat": 24.9947445197085, "lng": 86.18619701970849}}}, "icon": "https://maps.gstatic.com/mapfiles/place_api/icons/v1/png_71/school-71.png", "icon_background_color": "#7B9EB0", "icon_mask_base_uri": "https://maps.gstatic.com/mapfiles/place_api/icons/v2/school_pinlet", "name": "Mohammad shafi iqbal", "place_id": "ChIJq9ds20wp8jkRj9waXvMIWDk", "plus_code": {"compound_code": "X5WQ+C2 Dighoi, Bihar, India", "global_code": "7MP8X5WQ+C2"}, "reference": "ChIJq9ds20wp8jkRj9waXvMIWDk", "scope": "GOOGLE", "types": ["school", "point_of_interest", "establishment"], "vicinity": "State Highway 18, Dighoi"}, {"business_status": "OPERATIONAL", "geometry": {"location": {"lat": 24.9951682, "lng": 86.187305}, "viewport": {"northeast": {"lat": 24.9965421802915, "lng": 86.1886750802915}, "southwest": {"lat": 24.9938442197085, "lng": 86.1859771197085}}}, "icon": "https://maps.gstatic.com/mapfiles/place_api/icons/v1/png_71/school-71.png", "icon_background_color": "#7B9EB0", "icon_mask_base_uri": "https://maps.gstatic.com/mapfiles/place_api/icons/v2/school_pinlet", "name": "Sonay", "place_id": "ChIJP7F87pwp8jkR5PGKxFI8oao", "reference": "ChIJP7F87pwp8jkR5PGKxFI8oao", "scope": "GOOGLE", "types": ["secondary_school", "school", "point_of_interest", "establishment"], "vicinity": "X5WP+3W7, Sonai"}, {"business_status": "OPERATIONAL", "geometry": {"location": {"lat": 24.9961665, "lng": 86.1938193}, "viewport": {"northeast": {"lat": 24.9975641302915, "lng": 86.19524623029152}, "southwest": {"lat": 24.9948661697085, "lng": 86.1925482697085}}}, "icon": "https://maps.gstatic.com/mapfiles/place_api/icons/v1/png_71/school-71.png", "icon_background_color": "#7B9EB0", "icon_mask_base_uri": "https://maps.gstatic.com/mapfiles/place_api/icons/v2/school_pinlet", "name": "Middle School Makhtab (Urdu) Marwa (Jamui)", "place_id": "ChIJBaW5lVEp8jkRuZLM_aW5JnE", "reference": "ChIJBaW5lVEp8jkRuZLM_aW5JnE", "scope": "GOOGLE", "types": ["school", "point_of_interest", "establishment"], "vicinity": "X5WV+FG8, Marwa"}, {"business_status": "OPERATIONAL", "geometry": {"location": {"lat": 24.9961835, "lng": 86.1938751}, "viewport": {"northeast": {"lat": 24.9975665802915, "lng": 86.19527873029149}, "southwest": {"lat": 24.99486861970849, "lng": 86.19258076970848}}}, "icon": "https://maps.gstatic.com/mapfiles/place_api/icons/v1/png_71/school-71.png", "icon_background_color": "#7B9EB0", "icon_mask_base_uri": "https://maps.gstatic.com/mapfiles/place_api/icons/v2/school_pinlet", "name": "\u0909\u0924\u094d\u0915\u094d\u0930\u092e\u093f\u0924 \u092e\u0927\u094d\u092f \u0935\u093f\u0926\u094d\u092f\u093e\u0932\u092f \u092e\u0915\u0924\u092c \u092e\u0921\u0935\u093e", "place_id": "ChIJB-kWRCAp8jkRGhoGTAMqRZY", "reference": "ChIJB-kWRCAp8jkRGhoGTAMqRZY", "scope": "GOOGLE", "types": ["school", "point_of_interest", "establishment"], "vicinity": "X5WV+FHC, Marwa"}, {"business_status": "OPERATIONAL", "geometry": {"location": {"lat": 25.0016744, "lng": 86.1881604}, "viewport": {"northeast": {"lat": 25.0030288302915, "lng": 86.18951178029151}, "southwest": {"lat": 25.0003308697085, "lng": 86.18681381970849}}}, "icon": "https://maps.gstatic.com/mapfiles/place_api/icons/v1/png_71/school-71.png", "icon_background_color": "#7B9EB0", "icon_mask_base_uri": "https://maps.gstatic.com/mapfiles/place_api/icons/v2/school_pinlet", "name": "Raza masjid (shahidganj) \u0930\u091c\u093c\u093e \u092e\u0938\u094d\u091c\u093f\u0926 (\u0936\u0939\u0940\u0926\u0917\u0902\u091c)", "opening_hours": {"open_now": true}, "photos": [{"height": 2250, "html_attributions": ["<a href=\"https://maps.google.com/maps/contrib/110916578057876600811\">Anjuman-e-Islam Raniganj</a>"], "photo_reference": "Aap_uEC28xzblhs8kf2h8AVOXWpYSzaDYPFEEUQwS5Pm_IslvHISJtbYViaj-TRyypmy72KYd3OqHtYUx3Ev3UYLizG3NszF5C9_qnr3uVQ4w6DAtzwVJ5ODe0DebhgGTmLD6I4v9ClpymVW1KoXX43nWb4FH6KYRhJj-F8EwTTmrEMKgqbB", "width": 4000}], "place_id": "ChIJOWScMhcp8jkRtWvbtC7W4Pw", "plus_code": {"compound_code": "252Q+M7 Dighoi, Bihar, India", "global_code": "7MQ8252Q+M7"}, "reference": "ChIJOWScMhcp8jkRtWvbtC7W4Pw", "scope": "GOOGLE", "types": ["school", "point_of_interest", "establishment"], "vicinity": "Jamui - Lakhisarai Road, Dighoi"}, {"business_status": "OPERATIONAL", "geometry": {"location": {"lat": 24.9934832, "lng": 86.1866187}, "viewport": {"northeast": {"lat": 24.9948860802915, "lng": 86.1878407802915}, "southwest": {"lat": 24.9921881197085, "lng": 86.18514281970849}}}, "icon": "https://maps.gstatic.com/mapfiles/place_api/icons/v1/png_71/school-71.png", "icon_background_color": "#7B9EB0", "icon_mask_base_uri": "https://maps.gstatic.com/mapfiles/place_api/icons/v2/school_pinlet", "name": "i-saksham kendra M.T sonai", "place_id": "ChIJAQAAQCYp8jkRCltKgjDC-4I", "rating": 3.5, "reference": "ChIJAQAAQCYp8jkRCltKgjDC-4I", "scope": "GOOGLE", "types": ["school", "point_of_interest", "establishment"], "user_ratings_total": 4, "vicinity": "X5VP+9JX, Sonai"}, {"business_status": "OPERATIONAL", "geometry": {"location": {"lat": 24.9969501, "lng": 86.1836156}, "viewport": {"northeast": {"lat": 24.9979289802915, "lng": 86.1844489802915}, "southwest": {"lat": 24.9952310197085, "lng": 86.1817510197085}}}, "icon": "https://maps.gstatic.com/mapfiles/place_api/icons/v1/png_71/school-71.png", "icon_background_color": "#7B9EB0", "icon_mask_base_uri": "https://maps.gstatic.com/mapfiles/place_api/icons/v2/school_pinlet", "name": "Middle school of DHEORI", "place_id": "ChIJQSUxyq4p8jkRFPTh2HrLhc0", "plus_code": {"compound_code": "X5WM+QC Kakan, Bihar, India", "global_code": "7MP8X5WM+QC"}, "reference": "ChIJQSUxyq4p8jkRFPTh2HrLhc0", "scope": "GOOGLE", "types": ["secondary_school", "school", "point_of_interest", "establishment"], "vicinity": "Jamui KAKAN DHEWRI, Kakan"}, {"business_status": "OPERATIONAL", "geometry": {"location": {"lat": 24.996668, "lng": 86.182915}, "viewport": {"northeast": {"lat": 24.9978997302915, "lng": 86.18401613029151}, "southwest": {"lat": 24.9952017697085, "lng": 86.1813181697085}}}, "icon": "https://maps.gstatic.com/mapfiles/place_api/icons/v1/png_71/school-71.png", "icon_background_color": "#7B9EB0", "icon_mask_base_uri": "https://maps.gstatic.com/mapfiles/place_api/icons/v2/school_pinlet", "name": "Utkramit Madhya Vidyalaya Dhewri", "photos": [{"height": 3000, "html_attributions": ["<a href=\"https://maps.google.com/maps/contrib/112513500525354450074\">Nitish kumar Kumar</a>"], "photo_reference": "Aap_uEDtllhGWKCRWmezvrxFmjP5sbLgt80AqFnPylWNJEsccQHWRWCnj0Ag4-fOZbI8Zv3bjHATzIkx4VgowlTGTyk4A_Z8RCT5Jl6NCRxyUpbYbF8j-cVR_jyYGZOMU0fHTu8uoVLQr9IHe7u5Y-eB8C_jMImxEsY_1lbZoD-StEXtlLLM", "width": 4000}], "place_id": "ChIJj_mLSkwp8jkRLLDhQs8TsB0", "plus_code": {"compound_code": "X5WM+M5 Kakan, Bihar, India", "global_code": "7MP8X5WM+M5"}, "rating": 5, "reference": "ChIJj_mLSkwp8jkRLLDhQs8TsB0", "scope": "GOOGLE", "types": ["school", "point_of_interest", "establishment"], "user_ratings_total": 1, "vicinity": "Jamui KAKAN DHEWRI, Kakan"}, {"business_status": "OPERATIONAL", "geometry": {"location": {"lat": 25.0003924, "lng": 86.1972066}, "viewport": {"northeast": {"lat": 25.00173738029151, "lng": 86.19856563029151}, "southwest": {"lat": 24.9990394197085, "lng": 86.19586766970849}}}, "icon": "https://maps.gstatic.com/mapfiles/place_api/icons/v1/png_71/school-71.png", "icon_background_color": "#7B9EB0", "icon_mask_base_uri": "https://maps.gstatic.com/mapfiles/place_api/icons/v2/school_pinlet", "name": "\u092e\u0915\u0924\u092c \u092a\u094d\u0930\u0924\u093e\u092a\u092a\u0941\u0930", "opening_hours": {"open_now": false}, "place_id": "ChIJc3-S7GYp8jkRWZctr9Gb7Hc", "reference": "ChIJc3-S7GYp8jkRWZctr9Gb7Hc", "scope": "GOOGLE", "types": ["school", "point_of_interest", "establishment"], "vicinity": "252W+5V4, Marwa"}, {"business_status": "OPERATIONAL", "geometry": {"location": {"lat": 25.0037178, "lng": 86.1853763}, "viewport": {"northeast": {"lat": 25.0050481302915, "lng": 86.1866849802915}, "southwest": {"lat": 25.0023501697085, "lng": 86.1839870197085}}}, "icon": "https://maps.gstatic.com/mapfiles/place_api/icons/v1/png_71/school-71.png", "icon_background_color": "#7B9EB0", "icon_mask_base_uri": "https://maps.gstatic.com/mapfiles/place_api/icons/v2/school_pinlet", "name": "Soni Telicom", "photos": [{"height": 4160, "html_attributions": ["<a href=\"https://maps.google.com/maps/contrib/100495542240529977655\">Upendra Paswan</a>"], "photo_reference": "Aap_uED5-mNhXqOZ0Q1PWXEuBSxl-iSTDkB5p13drGHRRIm_WkvUmR49J_c3HQidnAgH4BRxqXpYH_EuEkLvk7XfawYzN7K-iRAnu8kiDtzaauIbAzKSMBiHJiZUSWiNth6wb1YQOuAiJ4dcFDvWAbWBKAFevPnxCCIl_GRGozcjsdB7E-fB", "width": 3120}], "place_id": "ChIJ3aHd_9ko8jkR2f6RHmNZF8Q", "plus_code": {"compound_code": "253P+F5 Dighoi, Bihar, India", "global_code": "7MQ8253P+F5"}, "rating": 5, "reference": "ChIJ3aHd_9ko8jkR2f6RHmNZF8Q", "scope": "GOOGLE", "types": ["school", "point_of_interest", "establishment"], "user_ratings_total": 1, "vicinity": "Jamui - Lakhisarai Road, Dighoi"}, {"business_status": "OPERATIONAL", "geometry": {"location": {"lat": 24.9939394, "lng": 86.19786239999999}, "viewport": {"northeast": {"lat": 24.9954564802915, "lng": 86.19909713029149}, "southwest": {"lat": 24.9927585197085, "lng": 86.19639916970849}}}, "icon": "https://maps.gstatic.com/mapfiles/place_api/icons/v1/png_71/school-71.png", "icon_background_color": "#7B9EB0", "icon_mask_base_uri": "https://maps.gstatic.com/mapfiles/place_api/icons/v2/school_pinlet", "name": "Rahul Teaching", "place_id": "ChIJI-zd3G4p8jkR0V5bHvJ4MrM", "rating": 5, "reference": "ChIJI-zd3G4p8jkR0V5bHvJ4MrM", "scope": "GOOGLE", "types": ["school", "point_of_interest", "establishment"], "user_ratings_total": 1, "vicinity": "X5VX+H4H, Marwa"}, {"business_status": "OPERATIONAL", "geometry": {"location": {"lat": 25.0001678, "lng": 86.19892519999999}, "viewport": {"northeast": {"lat": 25.0015095802915, "lng": 86.2003247302915}, "southwest": {"lat": 24.9988116197085, "lng": 86.19762676970849}}}, "icon": "https://maps.gstatic.com/mapfiles/place_api/icons/v1/png_71/school-71.png", "icon_background_color": "#7B9EB0", "icon_mask_base_uri": "https://maps.gstatic.com/mapfiles/place_api/icons/v2/school_pinlet", "name": "Dilkush house ,Pratapppur jamui", "photos": [{"height": 4000, "html_attributions": ["<a href=\"https://maps.google.com/maps/contrib/101497004959411227254\">singh anshu</a>"], "photo_reference": "Aap_uEBZsySPbIvkifLWIH7JqHeVii8LuKvPxS8JgfzmFx3h7l-3RTHdbFj3NkJNBNDyKNHAF9NiZU8Jr91TFSTcesTiHPc0uz4WqETTxqJM_oy2b0ujjHHkGvB6tbJkHSKFFkAikYoLrOOgbwmDHMf5fhrwafR5WxaHJ-NIlMLhmvSSfMWJ", "width": 3000}], "place_id": "ChIJtQHTogMp8jkRGxOhfwQJ4zw", "plus_code": {"compound_code": "252X+3H Partapur, Bihar, India", "global_code": "7MQ8252X+3H"}, "reference": "ChIJtQHTogMp8jkRGxOhfwQJ4zw", "scope": "GOOGLE", "types": ["secondary_school", "school", "point_of_interest", "establishment"], "vicinity": "Unnamed Road, Partapur"}, {"business_status": "OPERATIONAL", "geometry": {"location": {"lat": 25.0068417, "lng": 86.1878899}, "viewport": {"northeast": {"lat": 25.0081304802915, "lng": 86.1891410302915}, "southwest": {"lat": 25.0054325197085, "lng": 86.18644306970849}}}, "icon": "https://maps.gstatic.com/mapfiles/place_api/icons/v1/png_71/school-71.png", "icon_background_color": "#7B9EB0", "icon_mask_base_uri": "https://maps.gstatic.com/mapfiles/place_api/icons/v2/school_pinlet", "name": "Niraj Kirana Store", "opening_hours": {"open_now": true}, "place_id": "ChIJVVVVVdoo8jkRQ0PqE7B_ipI", "reference": "ChIJVVVVVdoo8jkRQ0PqE7B_ipI", "scope": "GOOGLE", "types": ["school", "point_of_interest", "establishment"], "vicinity": "254Q+P5J, Dhandh"}, {"business_status": "OPERATIONAL", "geometry": {"location": {"lat": 24.9992893, "lng": 86.2021674}, "viewport": {"northeast": {"lat": 25.0004828802915, "lng": 86.2034656802915}, "southwest": {"lat": 24.9977849197085, "lng": 86.2007677197085}}}, "icon": "https://maps.gstatic.com/mapfiles/place_api/icons/v1/png_71/school-71.png", "icon_background_color": "#7B9EB0", "icon_mask_base_uri": "https://maps.gstatic.com/mapfiles/place_api/icons/v2/school_pinlet", "name": "Government high school (dhand pratappur, jamui)", "place_id": "ChIJyWqqSN0p8jkRjTTza1uZtpQ", "plus_code": {"compound_code": "X6X2+PV Rajpura, Bihar, India", "global_code": "7MP8X6X2+PV"}, "reference": "ChIJyWqqSN0p8jkRjTTza1uZtpQ", "scope": "GOOGLE", "types": ["secondary_school", "school", "point_of_interest", "establishment"], "vicinity": "Dhand Pratappur ,jamui"}, {"business_status": "OPERATIONAL", "geometry": {"location": {"lat": 24.9992632, "lng": 86.2021922}, "viewport": {"northeast": {"lat": 25.00046573029151, "lng": 86.2034934302915}, "southwest": {"lat": 24.9977677697085, "lng": 86.2007954697085}}}, "icon": "https://maps.gstatic.com/mapfiles/place_api/icons/v1/png_71/school-71.png", "icon_background_color": "#7B9EB0", "icon_mask_base_uri": "https://maps.gstatic.com/mapfiles/place_api/icons/v2/school_pinlet", "name": "Government high school", "place_id": "ChIJkdr5ZrMp8jkRIZ-NSPoVCNY", "plus_code": {"compound_code": "X6X2+PV Rajpura, Bihar, India", "global_code": "7MP8X6X2+PV"}, "reference": "ChIJkdr5ZrMp8jkRIZ-NSPoVCNY", "scope": "GOOGLE", "types": ["school", "point_of_interest", "establishment"], "vicinity": "Unnamed Road, Rajpura"}], "status": "OK"}