{"html_attributions": [], "results": [{"business_status": "OPERATIONAL", "geometry": {"location": {"lat": 25.05898609999999, "lng": 86.1853744}, "viewport": {"northeast": {"lat": 25.0603312802915, "lng": 86.1867000302915}, "southwest": {"lat": 25.0576333197085, "lng": 86.18400206970848}}}, "icon": "https://maps.gstatic.com/mapfiles/place_api/icons/v1/png_71/school-71.png", "icon_background_color": "#7B9EB0", "icon_mask_base_uri": "https://maps.gstatic.com/mapfiles/place_api/icons/v2/school_pinlet", "name": "UTKRAMIT MIDDLE SCHOOL BHALUI NAYA TOLA", "place_id": "ChIJx6SsILYn8jkRrQNNMAVbOuk", "reference": "ChIJx6SsILYn8jkRrQNNMAVbOuk", "scope": "GOOGLE", "types": ["school", "point_of_interest", "establishment"], "vicinity": "355P+H4X, NAYA TOLA, Bhalui"}, {"business_status": "OPERATIONAL", "geometry": {"location": {"lat": 25.0594906, "lng": 86.1852632}, "viewport": {"northeast": {"lat": 25.0608337802915, "lng": 86.18665538029151}, "southwest": {"lat": 25.0581358197085, "lng": 86.18395741970849}}}, "icon": "https://maps.gstatic.com/mapfiles/place_api/icons/v1/png_71/school-71.png", "icon_background_color": "#7B9EB0", "icon_mask_base_uri": "https://maps.gstatic.com/mapfiles/place_api/icons/v2/school_pinlet", "name": "\u092a\u094d\u0930\u093e,\u0935\u093f\u0926\u094d\u092f\u093e\u0932\u092f \u0915\u0941\u0930\u093e\u0935", "opening_hours": {"open_now": true}, "place_id": "ChIJJe9ThVwn8jkR9WnXgCTV6DA", "reference": "ChIJJe9ThVwn8jkR9WnXgCTV6DA", "scope": "GOOGLE", "types": ["school", "point_of_interest", "establishment"], "vicinity": "355P+Q4R, Sangrampur"}, {"business_status": "OPERATIONAL", "geometry": {"location": {"lat": 25.0631664, "lng": 86.19043239999999}, "viewport": {"northeast": {"lat": 25.0649641302915, "lng": 86.19128599999998}, "southwest": {"lat": 25.0622661697085, "lng": 86.1878716}}}, "icon": "https://maps.gstatic.com/mapfiles/place_api/icons/v1/png_71/school-71.png", "icon_background_color": "#7B9EB0", "icon_mask_base_uri": "https://maps.gstatic.com/mapfiles/place_api/icons/v2/school_pinlet", "name": "Mahavir Mandir Sangrampur", "place_id": "ChIJbXKRglMn8jkR1E1MatezgR0", "plus_code": {"compound_code": "357R+75 Sangrampur, Bihar, India", "global_code": "7MQ8357R+75"}, "reference": "ChIJbXKRglMn8jkR1E1MatezgR0", "scope": "GOOGLE", "types": ["school", "point_of_interest", "establishment"], "vicinity": "Sangrampur"}, {"business_status": "OPERATIONAL", "geometry": {"location": {"lat": 25.059517, "lng": 86.184084}, "viewport": {"northeast": {"lat": 25.06089958029151, "lng": 86.1855297802915}, "southwest": {"lat": 25.0582016197085, "lng": 86.18283181970848}}}, "icon": "https://maps.gstatic.com/mapfiles/place_api/icons/v1/png_71/school-71.png", "icon_background_color": "#7B9EB0", "icon_mask_base_uri": "https://maps.gstatic.com/mapfiles/place_api/icons/v2/school_pinlet", "name": "\u0915\u0942\u0930\u093e\u0935", "opening_hours": {"open_now": true}, "photos": [{"height": 1411, "html_attributions": ["<a href=\"https://maps.google.com/maps/contrib/101218254379926033287\">VIBHISHAN KUMAR</a>"], "photo_reference": "Aap_uEBFmvAIdyHRKq64QQzdQRyNjydtLnqLT-WtxOsQpjJNJX5sd0U8tQfCT6d65dlKkiVZMvckafbVhGW1PfVbDgzFxjLxsIta4VjcIBC-hvQ2HM9kZBQRNVYWbR31DbGzYy8GEQ5i2YQMnc4LksyXS-v8LsxwVQHpsZ_f55ZasoYdJdPe", "width": 720}], "place_id": "ChIJpeUWGt0n8jkRpTgbFnF1j_A", "reference": "ChIJpeUWGt0n8jkRpTgbFnF1j_A", "scope": "GOOGLE", "types": ["school", "point_of_interest", "establishment"], "vicinity": "355M+RJ4, Sangrampur"}, {"business_status": "OPERATIONAL", "geometry": {"location": {"lat": 25.0650339, "lng": 86.1863812}, "viewport": {"northeast": {"lat": 25.06637153029151, "lng": 86.1876031302915}, "southwest": {"lat": 25.0636735697085, "lng": 86.1849051697085}}}, "icon": "https://maps.gstatic.com/mapfiles/place_api/icons/v1/png_71/school-71.png", "icon_background_color": "#7B9EB0", "icon_mask_base_uri": "https://maps.gstatic.com/mapfiles/place_api/icons/v2/school_pinlet", "name": "Kurmi tola Sangrampur", "opening_hours": {"open_now": true}, "photos": [{"height": 814, "html_attributions": ["<a href=\"https://maps.google.com/maps/contrib/114186763515035396710\">Ashwani Kumar</a>"], "photo_reference": "Aap_uEALNJaZOsqF0wq91xzxOcMSqE7VUdZ7IRZzucMJZlHsWtXRo4Qpfk3In6yqB298qIiKU66w_TTZSVctga6fuFIkvzgyLRovqYZebmJWrWZsWMELG5SuI6bAYjbkDMVP67AOxiZd7K5EKVPvo4HLEATzjoc3bxUsO2Ch_a5mF-F1gIFI", "width": 1080}], "place_id": "ChIJX1pYKHUn8jkR9FXrrDHrFZ0", "rating": 5, "reference": "ChIJX1pYKHUn8jkR9FXrrDHrFZ0", "scope": "GOOGLE", "types": ["school", "point_of_interest", "establishment"], "user_ratings_total": 2, "vicinity": "358P+2H6, Sangrampur"}, {"business_status": "OPERATIONAL", "geometry": {"location": {"lat": 25.0497968, "lng": 86.19070529999999}, "viewport": {"northeast": {"lat": 25.05167398029151, "lng": 86.1926634802915}, "southwest": {"lat": 25.0489760197085, "lng": 86.18996551970848}}}, "icon": "https://maps.gstatic.com/mapfiles/place_api/icons/v1/png_71/school-71.png", "icon_background_color": "#7B9EB0", "icon_mask_base_uri": "https://maps.gstatic.com/mapfiles/place_api/icons/v2/school_pinlet", "name": "Utkramit Madhya Vidyalaya,Basua Chak", "place_id": "ChIJJxVFnx4m8jkRXJKeJo7X84w", "plus_code": {"compound_code": "25XR+W7 Basua Chak, Bihar, India", "global_code": "7MQ825XR+W7"}, "rating": 5, "reference": "ChIJJxVFnx4m8jkRXJKeJo7X84w", "scope": "GOOGLE", "types": ["school", "point_of_interest", "establishment"], "user_ratings_total": 1, "vicinity": "Dhanawi - Kundar Road, Basua Chak"}, {"business_status": "OPERATIONAL", "geometry": {"location": {"lat": 25.0498751, "lng": 86.1917035}, "viewport": {"northeast": {"lat": 25.0515035302915, "lng": 86.19337853029153}, "southwest": {"lat": 25.0488055697085, "lng": 86.1906805697085}}}, "icon": "https://maps.gstatic.com/mapfiles/place_api/icons/v1/png_71/school-71.png", "icon_background_color": "#7B9EB0", "icon_mask_base_uri": "https://maps.gstatic.com/mapfiles/place_api/icons/v2/school_pinlet", "name": "abhimanyu chaurasiya", "place_id": "ChIJlfyXTREn8jkRAFUOqcYo0y0", "reference": "ChIJlfyXTREn8jkRAFUOqcYo0y0", "scope": "GOOGLE", "types": ["school", "point_of_interest", "establishment"], "vicinity": "25XR+XM4, Basua Chak"}, {"business_status": "OPERATIONAL", "geometry": {"location": {"lat": 25.0498751, "lng": 86.1917035}, "viewport": {"northeast": {"lat": 25.0515035302915, "lng": 86.19337853029153}, "southwest": {"lat": 25.0488055697085, "lng": 86.1906805697085}}}, "icon": "https://maps.gstatic.com/mapfiles/place_api/icons/v1/png_71/school-71.png", "icon_background_color": "#7B9EB0", "icon_mask_base_uri": "https://maps.gstatic.com/mapfiles/place_api/icons/v2/school_pinlet", "name": "Basuachak School", "place_id": "ChIJ59d_Lo8n8jkRXzICJL-g_aA", "plus_code": {"compound_code": "25XR+XM Basua Chak, Bihar, India", "global_code": "7MQ825XR+XM"}, "reference": "ChIJ59d_Lo8n8jkRXzICJL-g_aA", "scope": "GOOGLE", "types": ["school", "point_of_interest", "establishment"], "vicinity": "Mahsauna, Basua Chak"}, {"business_status": "OPERATIONAL", "geometry": {"location": {"lat": 25.0658782, "lng": 86.18578749999999}, "viewport": {"northeast": {"lat": 25.0672379802915, "lng": 86.1871023802915}, "southwest": {"lat": 25.0645400197085, "lng": 86.1844044197085}}}, "icon": "https://maps.gstatic.com/mapfiles/place_api/icons/v1/png_71/school-71.png", "icon_background_color": "#7B9EB0", "icon_mask_base_uri": "https://maps.gstatic.com/mapfiles/place_api/icons/v2/school_pinlet", "name": "\u092c\u093f\u092a\u0941\u0932 \u0915\u093f\u0930\u093e\u0928\u093e \u0938\u094d\u091f\u094b\u0930", "place_id": "ChIJSa46z7sn8jkR6moNVocAjck", "plus_code": {"compound_code": "358P+98 Sangrampur, Bihar, India", "global_code": "7MQ8358P+98"}, "reference": "ChIJSa46z7sn8jkR6moNVocAjck", "scope": "GOOGLE", "types": ["school", "point_of_interest", "establishment"], "vicinity": "Unnamed Road, Sangrampur"}, {"business_status": "OPERATIONAL", "geometry": {"location": {"lat": 25.0497786, "lng": 86.1852109}, "viewport": {"northeast": {"lat": 25.0511423302915, "lng": 86.18650698029151}, "southwest": {"lat": 25.04844436970849, "lng": 86.1838090197085}}}, "icon": "https://maps.gstatic.com/mapfiles/place_api/icons/v1/png_71/school-71.png", "icon_background_color": "#7B9EB0", "icon_mask_base_uri": "https://maps.gstatic.com/mapfiles/place_api/icons/v2/school_pinlet", "name": "Amit Paswan Shiv Mandir", "place_id": "ChIJSdNa4O8n8jkRkk5jt9fTUos", "reference": "ChIJSdNa4O8n8jkRkk5jt9fTUos", "scope": "GOOGLE", "types": ["school", "point_of_interest", "establishment"], "vicinity": "25XP+W38, Ramal Bigha"}, {"business_status": "OPERATIONAL", "geometry": {"location": {"lat": 25.0612263, "lng": 86.1998952}, "viewport": {"northeast": {"lat": 25.0623852802915, "lng": 86.20126508029149}, "southwest": {"lat": 25.05968731970849, "lng": 86.19856711970849}}}, "icon": "https://maps.gstatic.com/mapfiles/place_api/icons/v1/png_71/school-71.png", "icon_background_color": "#7B9EB0", "icon_mask_base_uri": "https://maps.gstatic.com/mapfiles/place_api/icons/v2/school_pinlet", "name": "U M S Mahuliya", "place_id": "ChIJI5ScXMsn8jkR-VcK-tKDepE", "reference": "ChIJI5ScXMsn8jkR-VcK-tKDepE", "scope": "GOOGLE", "types": ["school", "point_of_interest", "establishment"], "vicinity": "356X+FXR, Sangrampur"}, {"business_status": "OPERATIONAL", "geometry": {"location": {"lat": 25.0666256, "lng": 86.1846801}, "viewport": {"northeast": {"lat": 25.0680051302915, "lng": 86.18587053029151}, "southwest": {"lat": 25.06530716970849, "lng": 86.18317256970849}}}, "icon": "https://maps.gstatic.com/mapfiles/place_api/icons/v1/png_71/school-71.png", "icon_background_color": "#7B9EB0", "icon_mask_base_uri": "https://maps.gstatic.com/mapfiles/place_api/icons/v2/school_pinlet", "name": "PRIYA SINGS", "photos": [{"height": 3264, "html_attributions": ["<a href=\"https://maps.google.com/maps/contrib/113047602622389954189\">Nibash Kumar pandit Nibash Kumar pandit</a>"], "photo_reference": "Aap_uEDSzFBuLoM4amVkyqVJP_cLxLO5Es3aVsrz-L9UBkZJSv0S5Namx-hEvDlMQvOJYcKqoHJqjQ-luPWfj-VejpbzvGFfQsxK1OTBu7axe01veZfno1rNDoKuJYudus0IFPAGCC8Ga3Z0E1YnNGWoI8vkjYgOXlegjYfAUAYOwgArZGuo", "width": 1552}], "place_id": "ChIJhzUqaG4n8jkRfzuEZT-L17A", "plus_code": {"compound_code": "358M+MV Sangrampur, Bihar, India", "global_code": "7MQ8358M+MV"}, "reference": "ChIJhzUqaG4n8jkRfzuEZT-L17A", "scope": "GOOGLE", "types": ["school", "point_of_interest", "establishment"], "vicinity": "Unnamed Road, Sangrampur"}, {"business_status": "OPERATIONAL", "geometry": {"location": {"lat": 25.0671944, "lng": 86.18438200000001}, "viewport": {"northeast": {"lat": 25.0685388802915, "lng": 86.18576938029152}, "southwest": {"lat": 25.0658409197085, "lng": 86.1830714197085}}}, "icon": "https://maps.gstatic.com/mapfiles/place_api/icons/v1/png_71/school-71.png", "icon_background_color": "#7B9EB0", "icon_mask_base_uri": "https://maps.gstatic.com/mapfiles/place_api/icons/v2/school_pinlet", "name": "Kcpandit", "place_id": "ChIJWUcunl4n8jkRH2WFYw6k-jU", "plus_code": {"compound_code": "358M+VQ Sangrampur, Bihar, India", "global_code": "7MQ8358M+VQ"}, "reference": "ChIJWUcunl4n8jkRH2WFYw6k-jU", "scope": "GOOGLE", "types": ["primary_school", "school", "point_of_interest", "establishment"], "vicinity": "Unnamed Road, Sangrampur"}, {"business_status": "OPERATIONAL", "geometry": {"location": {"lat": 25.0481514, "lng": 86.1829041}, "viewport": {"northeast": {"lat": 25.0498879302915, "lng": 86.1849522}, "southwest": {"lat": 25.0471899697085, "lng": 86.1822214}}}, "icon": "https://maps.gstatic.com/mapfiles/place_api/icons/v1/png_71/school-71.png", "icon_background_color": "#7B9EB0", "icon_mask_base_uri": "https://maps.gstatic.com/mapfiles/place_api/icons/v2/school_pinlet", "name": "U.M.School Basuachak", "place_id": "ChIJM0vZ_wIm8jkREy72BxV8AxU", "reference": "ChIJM0vZ_wIm8jkREy72BxV8AxU", "scope": "GOOGLE", "types": ["school", "point_of_interest", "establishment"], "vicinity": "25XM+756, Ramal Bigha"}, {"business_status": "OPERATIONAL", "geometry": {"location": {"lat": 25.0481144, "lng": 86.18295909999999}, "viewport": {"northeast": {"lat": 25.0498694302915, "lng": 86.1849632802915}, "southwest": {"lat": 25.0471714697085, "lng": 86.18226531970849}}}, "icon": "https://maps.gstatic.com/mapfiles/place_api/icons/v1/png_71/school-71.png", "icon_background_color": "#7B9EB0", "icon_mask_base_uri": "https://maps.gstatic.com/mapfiles/place_api/icons/v2/school_pinlet", "name": "U.M.S. Basuachak School", "place_id": "ChIJlyHN_wIm8jkRMJ-2ekHmBjs", "reference": "ChIJlyHN_wIm8jkRMJ-2ekHmBjs", "scope": "GOOGLE", "types": ["school", "point_of_interest", "establishment"], "vicinity": "25XM+65W, Basua Chak"}, {"business_status": "OPERATIONAL", "geometry": {"location": {"lat": 25.0698032, "lng": 86.1850592}, "viewport": {"northeast": {"lat": 25.0711815802915, "lng": 86.1863213802915}, "southwest": {"lat": 25.06848361970849, "lng": 86.1836234197085}}}, "icon": "https://maps.gstatic.com/mapfiles/place_api/icons/v1/png_71/school-71.png", "icon_background_color": "#7B9EB0", "icon_mask_base_uri": "https://maps.gstatic.com/mapfiles/place_api/icons/v2/school_pinlet", "name": "Madhya vidyalaya,bhandar", "photos": [{"height": 4160, "html_attributions": ["<a href=\"https://maps.google.com/maps/contrib/113715809760608291497\">AMAN KUMAR</a>"], "photo_reference": "Aap_uEA7X33agz-GuiO9cnsAyT1Xxmit_So_ohkFru-6cc_YOI2Eb11aJMmrAUXxeyQYcrobz45BWh5CAVt9Mbx72d1ruz_eRM5Tf-7WjOccwoou3mIjhmYdDyKSz_7CpVJDQiFckbxmx5yn1T2KkzKz-xVWM4BNkRBVVjMljH9WtujU4atW", "width": 1968}], "place_id": "ChIJe3bEKyMn8jkR7ww_jWWJjHQ", "rating": 5, "reference": "ChIJe3bEKyMn8jkR7ww_jWWJjHQ", "scope": "GOOGLE", "types": ["school", "point_of_interest", "establishment"], "user_ratings_total": 1, "vicinity": "359P+W2F, Sangrampur"}], "status": "OK"}