{"html_attributions": [], "results": [{"business_status": "OPERATIONAL", "geometry": {"location": {"lat": 24.85521779999999, "lng": 86.2293274}, "viewport": {"northeast": {"lat": 24.8566330302915, "lng": 86.2306949302915}, "southwest": {"lat": 24.85393506970849, "lng": 86.2279969697085}}}, "icon": "https://maps.gstatic.com/mapfiles/place_api/icons/v1/png_71/school-71.png", "icon_background_color": "#7B9EB0", "icon_mask_base_uri": "https://maps.gstatic.com/mapfiles/place_api/icons/v2/school_pinlet", "name": "Sagdaha Parasmaney, Nearby Utkarmit Madhyamik Vidyalaya Sagdaha", "photos": [{"height": 3464, "html_attributions": ["<a href=\"https://maps.google.com/maps/contrib/118099501414108826484\">Deepak Singh</a>"], "photo_reference": "Aap_uEB32KMNS3l_M6CX9gqPiiiJXVAGYAyYEnC2uX76pGPGSj9vt8kiYe7Nk1cuWZ613GmU9inIqDtzX9DaJkzPG2JIOfgW88K_5b7FNpBqJ636QOg0ckEsVKah2tiH8IlW5D7nv5giscfpYXstc2Eu9nQaHYFsXmtPREMepH-w1Of6bNY_", "width": 4618}], "place_id": "ChIJ5Y0WUvvV8zkRfmoXAgI8dbI", "plus_code": {"compound_code": "V64H+3P Sagdaha, Bihar, India", "global_code": "7MP8V64H+3P"}, "rating": 5, "reference": "ChIJ5Y0WUvvV8zkRfmoXAgI8dbI", "scope": "GOOGLE", "types": ["school", "point_of_interest", "establishment"], "user_ratings_total": 1, "vicinity": "Unnamed Road, Sagdaha"}, {"business_status": "OPERATIONAL", "geometry": {"location": {"lat": 24.85935259999999, "lng": 86.2271662}, "viewport": {"northeast": {"lat": 24.8606753302915, "lng": 86.2286066802915}, "southwest": {"lat": 24.8579773697085, "lng": 86.22590871970849}}}, "icon": "https://maps.gstatic.com/mapfiles/place_api/icons/v1/png_71/school-71.png", "icon_background_color": "#7B9EB0", "icon_mask_base_uri": "https://maps.gstatic.com/mapfiles/place_api/icons/v2/school_pinlet", "name": "J.V. Memorial public school", "opening_hours": {"open_now": false}, "photos": [{"height": 2448, "html_attributions": ["<a href=\"https://maps.google.com/maps/contrib/102063635914523729799\">Bhojpuriya Halchal Apna Pradesh Jamui</a>"], "photo_reference": "Aap_uEAgImfT7m0yUCAC4io0SPfQOilMCvwyLKzgV-X15nujThBbhf37q0n40-AsKVUqHcL0GgyU1YHQVRr1XuVAYpc1K2noxjKREG0G48_Uz22iRMGLA5TtBv2LHSLSs5NCt3hxGVFnZdxrhWPuaYBTpbl6fNPe-hsNrUrjfOCi_0H3cH6u", "width": 3264}], "place_id": "ChIJVwphc80q8jkRpjSaV8lz7K4", "rating": 4.9, "reference": "ChIJVwphc80q8jkRpjSaV8lz7K4", "scope": "GOOGLE", "types": ["school", "point_of_interest", "establishment"], "user_ratings_total": 8, "vicinity": "V65G+PVV, Sagdaha"}, {"business_status": "OPERATIONAL", "geometry": {"location": {"lat": 24.85384759999999, "lng": 86.2285536}, "viewport": {"northeast": {"lat": 24.8552606302915, "lng": 86.2299299302915}, "southwest": {"lat": 24.85256266970849, "lng": 86.22723196970848}}}, "icon": "https://maps.gstatic.com/mapfiles/place_api/icons/v1/png_71/school-71.png", "icon_background_color": "#7B9EB0", "icon_mask_base_uri": "https://maps.gstatic.com/mapfiles/place_api/icons/v2/school_pinlet", "name": "\u0928\u0935\u0940\u0928 \u092a\u094d\u0930\u093e\u0925\u092e\u093f\u0915 \u0935\u093f\u0926\u094d\u092f\u093e\u0932\u092f \u0938\u0917\u0926\u093e\u0939\u093e \u092e\u0902\u0921\u0932 \u091f\u094b\u0932\u093e", "place_id": "ChIJ38uaIDDV8zkRdCzTTo1oH50", "plus_code": {"compound_code": "V63H+GC Sagdaha, Bihar, India", "global_code": "7MP8V63H+GC"}, "reference": "ChIJ38uaIDDV8zkRdCzTTo1oH50", "scope": "GOOGLE", "types": ["school", "point_of_interest", "establishment"], "vicinity": "Mandal Tola, Sagdaha"}, {"business_status": "OPERATIONAL", "geometry": {"location": {"lat": 24.85384759999999, "lng": 86.2285536}, "viewport": {"northeast": {"lat": 24.8552606302915, "lng": 86.2299299302915}, "southwest": {"lat": 24.85256266970849, "lng": 86.22723196970848}}}, "icon": "https://maps.gstatic.com/mapfiles/place_api/icons/v1/png_71/school-71.png", "icon_background_color": "#7B9EB0", "icon_mask_base_uri": "https://maps.gstatic.com/mapfiles/place_api/icons/v2/school_pinlet", "name": "Sagdaha Navin Prathmik School", "place_id": "ChIJq6qqqjPV8zkRODJaghFdqsM", "reference": "ChIJq6qqqjPV8zkRODJaghFdqsM", "scope": "GOOGLE", "types": ["school", "point_of_interest", "establishment"], "vicinity": "V63H+GCM, Sagdaha"}, {"business_status": "OPERATIONAL", "geometry": {"location": {"lat": 24.854528, "lng": 86.225978}, "viewport": {"northeast": {"lat": 24.8558680302915, "lng": 86.22737508029151}, "southwest": {"lat": 24.8531700697085, "lng": 86.2246771197085}}}, "icon": "https://maps.gstatic.com/mapfiles/place_api/icons/v1/png_71/school-71.png", "icon_background_color": "#7B9EB0", "icon_mask_base_uri": "https://maps.gstatic.com/mapfiles/place_api/icons/v2/school_pinlet", "name": "Utkarmit Madhya Vidyalay Sagdaha", "photos": [{"height": 1080, "html_attributions": ["<a href=\"https://maps.google.com/maps/contrib/110055822618936363450\">Mukesh kumar Singh</a>"], "photo_reference": "Aap_uEDQqNTgfWL3jwHb0rDa81xMT9r4qhIJ5PPCPk6zQBOcNzKlFfIlJG_RLMEo3LcV9pYxqcXrug0mukEiBcWYfTXT4YHog2S48CUsHu7nGw_pQq82m4yrmqPyP83p9BsYneNLKy9jmgvR2R5EtC0VIX1pclEuZRpGyZumAt17qfiE1yZz", "width": 1920}], "place_id": "ChIJGeIB09bV8zkRb4CSTgmiMGc", "plus_code": {"compound_code": "V63G+R9 Sagdaha, Bihar, India", "global_code": "7MP8V63G+R9"}, "reference": "ChIJGeIB09bV8zkRb4CSTgmiMGc", "scope": "GOOGLE", "types": ["school", "point_of_interest", "establishment"], "vicinity": "Unnamed Road, Sagdaha"}, {"business_status": "OPERATIONAL", "geometry": {"location": {"lat": 24.8542479, "lng": 86.2258094}, "viewport": {"northeast": {"lat": 24.8555313802915, "lng": 86.2271303302915}, "southwest": {"lat": 24.8528334197085, "lng": 86.2244323697085}}}, "icon": "https://maps.gstatic.com/mapfiles/place_api/icons/v1/png_71/school-71.png", "icon_background_color": "#7B9EB0", "icon_mask_base_uri": "https://maps.gstatic.com/mapfiles/place_api/icons/v2/school_pinlet", "name": "Upgraded Middle School Sagdaha", "place_id": "ChIJlV3GfS3V8zkRXpdi0jBXzGo", "rating": 4.7, "reference": "ChIJlV3GfS3V8zkRXpdi0jBXzGo", "scope": "GOOGLE", "types": ["school", "point_of_interest", "establishment"], "user_ratings_total": 3, "vicinity": "V63G+M8V, Sagdaha"}, {"business_status": "OPERATIONAL", "geometry": {"location": {"lat": 24.8542974, "lng": 86.2257544}, "viewport": {"northeast": {"lat": 24.8555677802915, "lng": 86.2270696802915}, "southwest": {"lat": 24.85286981970849, "lng": 86.2243717197085}}}, "icon": "https://maps.gstatic.com/mapfiles/place_api/icons/v1/png_71/school-71.png", "icon_background_color": "#7B9EB0", "icon_mask_base_uri": "https://maps.gstatic.com/mapfiles/place_api/icons/v2/school_pinlet", "name": "Sagdaha Primary School", "photos": [{"height": 1080, "html_attributions": ["<a href=\"https://maps.google.com/maps/contrib/100420211892800344952\">Nishant</a>"], "photo_reference": "Aap_uEBL4V1fCm3EHn2tbT9F9X8NCR-nJKXXNtyejvTlZk8ouu4xgR8glrfmCwb7NU9DjAsd1MipzgAlJvJG6oRDcG6LE6t8eUjQnV0DXVRnhpNdjzsGnx2WhOA19Nc15sJd5F4lWPBXg3-9zqvBezVow95-Pwe379BZ_CUIhRRtpZQrPnsw", "width": 1920}], "place_id": "ChIJDQsveKDV8zkRDRVCDyWbi7s", "plus_code": {"compound_code": "V63G+P8 Bela, Bihar, India", "global_code": "7MP8V63G+P8"}, "reference": "ChIJDQsveKDV8zkRDRVCDyWbi7s", "scope": "GOOGLE", "types": ["school", "point_of_interest", "establishment"], "vicinity": "Sagdaha, Bela"}, {"business_status": "OPERATIONAL", "geometry": {"location": {"lat": 24.8632385, "lng": 86.2288634}, "viewport": {"northeast": {"lat": 24.8644964802915, "lng": 86.2303894302915}, "southwest": {"lat": 24.8617985197085, "lng": 86.22769146970849}}}, "icon": "https://maps.gstatic.com/mapfiles/place_api/icons/v1/png_71/school-71.png", "icon_background_color": "#7B9EB0", "icon_mask_base_uri": "https://maps.gstatic.com/mapfiles/place_api/icons/v2/school_pinlet", "name": "M.S Public school bhandra", "photos": [{"height": 6000, "html_attributions": ["<a href=\"https://maps.google.com/maps/contrib/102713148216762625260\">Gulshan Singh</a>"], "photo_reference": "Aap_uED0j3kATWezg2iwk3Gzu5KW1UlJndT6MMxJRj1XbA6mv__CZq1Zx3Z0XrtrGGexFi7PLfJCQqW-8YIJMR-UJpQMBQ6VuiHuoX8XxgtoOO-ZPMy5z2DoPO-pCzIXDZJSbP7IzkUbMUIwc2knKUu4HSKs6CtGbPQjN0aw1BJaXRkZNxt8", "width": 4000}], "place_id": "ChIJgS9hOTwr8jkREXnh_LWM1d4", "plus_code": {"compound_code": "V67H+7G Bhandra, Bihar, India", "global_code": "7MP8V67H+7G"}, "reference": "ChIJgS9hOTwr8jkREXnh_LWM1d4", "scope": "GOOGLE", "types": ["school", "point_of_interest", "establishment"], "vicinity": "Unnamed Road, Bhandra"}, {"business_status": "OPERATIONAL", "geometry": {"location": {"lat": 24.8641301, "lng": 86.22980559999999}, "viewport": {"northeast": {"lat": 24.8654791802915, "lng": 86.23115443029151}, "southwest": {"lat": 24.8627812197085, "lng": 86.22845646970849}}}, "icon": "https://maps.gstatic.com/mapfiles/place_api/icons/v1/png_71/school-71.png", "icon_background_color": "#7B9EB0", "icon_mask_base_uri": "https://maps.gstatic.com/mapfiles/place_api/icons/v2/school_pinlet", "name": "Madhya Vidalay Bhandra", "place_id": "ChIJGU8C_Uor8jkRJvu_Lj9DT7A", "plus_code": {"compound_code": "V67H+MW Khaira, Bihar, India", "global_code": "7MP8V67H+MW"}, "rating": 5, "reference": "ChIJGU8C_Uor8jkRJvu_Lj9DT7A", "scope": "GOOGLE", "types": ["school", "point_of_interest", "establishment"], "user_ratings_total": 1, "vicinity": "Madhya Vidalay Bhandra, Khaira"}, {"business_status": "OPERATIONAL", "geometry": {"location": {"lat": 24.8627715, "lng": 86.23864069999999}, "viewport": {"northeast": {"lat": 24.8641697802915, "lng": 86.23987373029149}, "southwest": {"lat": 24.86147181970849, "lng": 86.23717576970849}}}, "icon": "https://maps.gstatic.com/mapfiles/place_api/icons/v1/png_71/school-71.png", "icon_background_color": "#7B9EB0", "icon_mask_base_uri": "https://maps.gstatic.com/mapfiles/place_api/icons/v2/school_pinlet", "name": "N.P. SCHOOL PANCHRUKHI", "place_id": "ChIJf17798kr8jkR1FPxJ8rHacE", "reference": "ChIJf17798kr8jkR1FPxJ8rHacE", "scope": "GOOGLE", "types": ["school", "point_of_interest", "establishment"], "vicinity": "V67Q+4F2, Bhandra"}, {"business_status": "OPERATIONAL", "geometry": {"location": {"lat": 24.8655704, "lng": 86.22347239999999}, "viewport": {"northeast": {"lat": 24.86681963029151, "lng": 86.22486773029149}, "southwest": {"lat": 24.8641216697085, "lng": 86.22216976970849}}}, "icon": "https://maps.gstatic.com/mapfiles/place_api/icons/v1/png_71/school-71.png", "icon_background_color": "#7B9EB0", "icon_mask_base_uri": "https://maps.gstatic.com/mapfiles/place_api/icons/v2/school_pinlet", "name": "Anshu_I-saksham", "place_id": "ChIJ6XNC-LIr8jkR6vzBnf5_3yA", "plus_code": {"compound_code": "V68F+69 Khaira, Bihar, India", "global_code": "7MP8V68F+69"}, "reference": "ChIJ6XNC-LIr8jkR6vzBnf5_3yA", "scope": "GOOGLE", "types": ["school", "point_of_interest", "establishment"], "vicinity": "Sagdaha, Khaira"}, {"business_status": "OPERATIONAL", "geometry": {"location": {"lat": 24.8655704, "lng": 86.22347239999999}, "viewport": {"northeast": {"lat": 24.86681963029151, "lng": 86.22486773029149}, "southwest": {"lat": 24.8641216697085, "lng": 86.22216976970849}}}, "icon": "https://maps.gstatic.com/mapfiles/place_api/icons/v1/png_71/school-71.png", "icon_background_color": "#7B9EB0", "icon_mask_base_uri": "https://maps.gstatic.com/mapfiles/place_api/icons/v2/school_pinlet", "name": "Mahima Temple", "photos": [{"height": 4128, "html_attributions": ["<a href=\"https://maps.google.com/maps/contrib/114822967219178607245\">Anand Ram</a>"], "photo_reference": "Aap_uECdYtsVgVDTBCTyMB0-WfZHzl8I4NA2CvvV1O3mtt9GKgvy0VqVTH2Y_Mewx3O8fNKEQMFfDEQZRnmO2C0uKIjRa9jiDBE9Dsrkve7rBVVRe8RZrDDjB8dASum5v2lkOH1Wju6DpCOPSIaoU8Ukmej0V2grjOkumVZz5B6GI9cY03ng", "width": 3096}], "place_id": "ChIJv41KHCsr8jkRiWsLiJ2-6Fw", "reference": "ChIJv41KHCsr8jkRiWsLiJ2-6Fw", "scope": "GOOGLE", "types": ["school", "point_of_interest", "establishment"], "vicinity": "V68F+69H, Kendih"}, {"business_status": "OPERATIONAL", "geometry": {"location": {"lat": 24.8502685, "lng": 86.2226756}, "viewport": {"northeast": {"lat": 24.8516391302915, "lng": 86.22393533029151}, "southwest": {"lat": 24.8489411697085, "lng": 86.2212373697085}}}, "icon": "https://maps.gstatic.com/mapfiles/place_api/icons/v1/png_71/school-71.png", "icon_background_color": "#7B9EB0", "icon_mask_base_uri": "https://maps.gstatic.com/mapfiles/place_api/icons/v2/school_pinlet", "name": "\u0928\u0935\u0940\u0928 \u092a\u094d\u0930\u093e\u0925\u092e\u093f\u0915 \u0935\u093f\u0926\u094d\u092f\u093e\u0932\u092f \u0938\u0917\u0926\u093e\u0939\u093e \u092e\u0902\u0921\u0932 \u091f\u094b\u0932\u093e", "place_id": "ChIJ3TYqCQrV8zkRmqKjgpOnONQ", "reference": "ChIJ3TYqCQrV8zkRmqKjgpOnONQ", "scope": "GOOGLE", "types": ["school", "point_of_interest", "establishment"], "vicinity": "V62F+433"}, {"business_status": "OPERATIONAL", "geometry": {"location": {"lat": 24.864149, "lng": 86.239038}, "viewport": {"northeast": {"lat": 24.8654912302915, "lng": 86.2404052302915}, "southwest": {"lat": 24.8627932697085, "lng": 86.2377072697085}}}, "icon": "https://maps.gstatic.com/mapfiles/place_api/icons/v1/png_71/school-71.png", "icon_background_color": "#7B9EB0", "icon_mask_base_uri": "https://maps.gstatic.com/mapfiles/place_api/icons/v2/school_pinlet", "name": "school N.P.B.Panchrukhi", "place_id": "ChIJRd6WM1Mr8jkRD8Fwu5GcPMo", "plus_code": {"compound_code": "V67Q+MJ Bhandra, Bihar, India", "global_code": "7MP8V67Q+MJ"}, "reference": "ChIJRd6WM1Mr8jkRD8Fwu5GcPMo", "scope": "GOOGLE", "types": ["school", "point_of_interest", "establishment"], "vicinity": "village panchmukhi post khand aich p/s khaira dist"}], "status": "OK"}