{"html_attributions": [], "results": [{"business_status": "OPERATIONAL", "geometry": {"location": {"lat": 24.97398159999999, "lng": 86.2279853}, "viewport": {"northeast": {"lat": 24.97533058029149, "lng": 86.2293342802915}, "southwest": {"lat": 24.97263261970849, "lng": 86.22663631970849}}}, "icon": "https://maps.gstatic.com/mapfiles/place_api/icons/v1/png_71/school-71.png", "icon_background_color": "#7B9EB0", "icon_mask_base_uri": "https://maps.gstatic.com/mapfiles/place_api/icons/v2/school_pinlet", "name": "Daulatpur Jamui Bihar", "photos": [{"height": 2268, "html_attributions": ["<a href=\"https://maps.google.com/maps/contrib/116613380905534963777\">Dilkhush Kumar</a>"], "photo_reference": "Aap_uEDzlSGxa1E-RodpWkz4KzZgLHzX0RG67OvpEaId4wag2Ik2weRF12FVAA2DxlkFKkefuqkSJU7tTHoaaQEx8zGVtzQ324uZ3dmx909uWTvO91DtTj54XMopTiKYI46IvwcfzmSnFdH8B1BSun9tKX2wnTEfu1cCyatwvpsf9Rmph_ul", "width": 4032}], "place_id": "ChIJGS1irNgp8jkRxAbmKujmOgk", "rating": 5, "reference": "ChIJGS1irNgp8jkRxAbmKujmOgk", "scope": "GOOGLE", "types": ["school", "point_of_interest", "establishment"], "user_ratings_total": 1, "vicinity": "X6FH+H5X, Daulatpur"}, {"business_status": "OPERATIONAL", "geometry": {"location": {"lat": 24.9702053, "lng": 86.2361069}, "viewport": {"northeast": {"lat": 24.9716492302915, "lng": 86.2378805302915}, "southwest": {"lat": 24.9689512697085, "lng": 86.2351825697085}}}, "icon": "https://maps.gstatic.com/mapfiles/place_api/icons/v1/png_71/school-71.png", "icon_background_color": "#7B9EB0", "icon_mask_base_uri": "https://maps.gstatic.com/mapfiles/place_api/icons/v2/school_pinlet", "name": "School Road patauna 811313", "place_id": "ChIJAbHnmiAp8jkR0yBUPXI1-4c", "plus_code": {"compound_code": "X6CP+3C Patauna, Bihar, India", "global_code": "7MP8X6CP+3C"}, "reference": "ChIJAbHnmiAp8jkR0yBUPXI1-4c", "scope": "GOOGLE", "types": ["secondary_school", "school", "point_of_interest", "establishment"], "vicinity": "Unnamed Road, Patauna"}, {"business_status": "OPERATIONAL", "geometry": {"location": {"lat": 24.9754755, "lng": 86.2190298}, "viewport": {"northeast": {"lat": 24.9768586302915, "lng": 86.22044488029151}, "southwest": {"lat": 24.9741606697085, "lng": 86.2177469197085}}}, "icon": "https://maps.gstatic.com/mapfiles/place_api/icons/v1/png_71/school-71.png", "icon_background_color": "#7B9EB0", "icon_mask_base_uri": "https://maps.gstatic.com/mapfiles/place_api/icons/v2/school_pinlet", "name": "Daulatpur School Jamui", "opening_hours": {"open_now": false}, "photos": [{"height": 3264, "html_attributions": ["<a href=\"https://maps.google.com/maps/contrib/102042862194715639466\">neeraj nayan</a>"], "photo_reference": "Aap_uEBoA2hbap2kRQvKbknogDfwRG5HeDqnJAt62WeG0Hzm7OAVjqwkvcLdqfixiY7ixkoP-BRC_ATpZTqpq_Sh8oVfS-28g_nMjCfcFqsv72CZMjfwHwLmKx6k2ZKpzt5SOHtdiNe3z-dZ_Rd2eaH8JHyC4TNhKMp8Mc9M8cWXzbVSqKxH", "width": 2448}], "place_id": "ChIJfTgkzaEp8jkRjjhoot_kLZ4", "plus_code": {"compound_code": "X6G9+5J Daulatpur, Bihar, India", "global_code": "7MP8X6G9+5J"}, "rating": 5, "reference": "ChIJfTgkzaEp8jkRjjhoot_kLZ4", "scope": "GOOGLE", "types": ["school", "point_of_interest", "establishment"], "user_ratings_total": 1, "vicinity": "Daulatpur"}, {"business_status": "OPERATIONAL", "geometry": {"location": {"lat": 24.9754075, "lng": 86.2188729}, "viewport": {"northeast": {"lat": 24.9768295302915, "lng": 86.22036333029149}, "southwest": {"lat": 24.9741315697085, "lng": 86.21766536970848}}}, "icon": "https://maps.gstatic.com/mapfiles/place_api/icons/v1/png_71/school-71.png", "icon_background_color": "#7B9EB0", "icon_mask_base_uri": "https://maps.gstatic.com/mapfiles/place_api/icons/v2/school_pinlet", "name": "Daulatpuer Middle School", "place_id": "ChIJk7GNdywp8jkRre3vs09bSVY", "reference": "ChIJk7GNdywp8jkRre3vs09bSVY", "scope": "GOOGLE", "types": ["secondary_school", "school", "point_of_interest", "establishment"], "vicinity": "X6G9+5G9, Daulatpur"}, {"business_status": "OPERATIONAL", "geometry": {"location": {"lat": 24.9753813, "lng": 86.21886549999999}, "viewport": {"northeast": {"lat": 24.9768080302915, "lng": 86.2203649302915}, "southwest": {"lat": 24.9741100697085, "lng": 86.21766696970849}}}, "icon": "https://maps.gstatic.com/mapfiles/place_api/icons/v1/png_71/school-71.png", "icon_background_color": "#7B9EB0", "icon_mask_base_uri": "https://maps.gstatic.com/mapfiles/place_api/icons/v2/school_pinlet", "name": "\u092e\u0927\u094d\u092f \u0935\u093f\u0927\u093e\u0932\u092f \u0926\u094c\u0932\u0924\u092a\u0941\u0930", "photos": [{"height": 1932, "html_attributions": ["<a href=\"https://maps.google.com/maps/contrib/114548914762074686726\">RUPESH KUMAR</a>"], "photo_reference": "Aap_uEA4YEDm2C6lPa7ZKotCiJidyvtu3yAOOqTBPXmPk5MrxVUda1lfda45fNDesgHctYxtB7bmNrHXUJoCKtlBJUiwjDfgVMqaKdEtm6ielAk7gHfD5ymSWdqBgYiZV8mXe0pB5HoLiefDmaMbTDfFm2TvYtJxdL-pBNq3GjoHP0GqgkfE", "width": 2576}], "place_id": "ChIJk-bX1qEp8jkRKjnZNGn0K5U", "plus_code": {"compound_code": "X6G9+5G Daulatpur, Bihar, India", "global_code": "7MP8X6G9+5G"}, "reference": "ChIJk-bX1qEp8jkRKjnZNGn0K5U", "scope": "GOOGLE", "types": ["school", "point_of_interest", "establishment"], "vicinity": "\u0917\u094d\u0930\u093e\u092e +\u092a\u094b\u0938\u094d\u091f )\u0935\u093f\u0939\u093e\u0930, Daulatpur"}, {"business_status": "OPERATIONAL", "geometry": {"location": {"lat": 24.968427, "lng": 86.236671}, "viewport": {"northeast": {"lat": 24.9697891802915, "lng": 86.2379809302915}, "southwest": {"lat": 24.96709121970849, "lng": 86.23528296970849}}}, "icon": "https://maps.gstatic.com/mapfiles/place_api/icons/v1/png_71/school-71.png", "icon_background_color": "#7B9EB0", "icon_mask_base_uri": "https://maps.gstatic.com/mapfiles/place_api/icons/v2/school_pinlet", "name": "Utkarmit Madhy Vidhayalay Patauna", "photos": [{"height": 4624, "html_attributions": ["<a href=\"https://maps.google.com/maps/contrib/105752719110538159396\">Utkarmit Madhy Vidhayalay Patauna</a>"], "photo_reference": "Aap_uEA3LrJVs6joaXVUa4lFnfGWHHNAz7D_T6uDbymbIJcT8X4tqpLkpGiX-euRtjRYJhLmMOVQlJLXFW5ImLbL2X--DTDMIf4rBqn_cm8Q1E1GKYWoQj0J9cB4DwyBD3b5_e7gTHZyEspgVvRqmiHm_CP9a5qA0YwLPKFsgZfn2GdbZnM9", "width": 2136}], "place_id": "ChIJWTzDDk4p8jkRvtMZZPIeFiM", "plus_code": {"compound_code": "X69P+9M Patauna, Bihar, India", "global_code": "7MP8X69P+9M"}, "rating": 5, "reference": "ChIJWTzDDk4p8jkRvtMZZPIeFiM", "scope": "GOOGLE", "types": ["school", "point_of_interest", "establishment"], "user_ratings_total": 1, "vicinity": "Patauna"}, {"business_status": "OPERATIONAL", "geometry": {"location": {"lat": 24.9810625, "lng": 86.2427731}, "viewport": {"northeast": {"lat": 24.9824667302915, "lng": 86.2440682802915}, "southwest": {"lat": 24.9797687697085, "lng": 86.2413703197085}}}, "icon": "https://maps.gstatic.com/mapfiles/place_api/icons/v1/png_71/school-71.png", "icon_background_color": "#7B9EB0", "icon_mask_base_uri": "https://maps.gstatic.com/mapfiles/place_api/icons/v2/school_pinlet", "name": "U.M.S. Baryarpur Booth No-152", "place_id": "ChIJpeVIjMMp8jkR3JYw8PG5bls", "reference": "ChIJpeVIjMMp8jkR3JYw8PG5bls", "scope": "GOOGLE", "types": ["school", "point_of_interest", "establishment"], "vicinity": "X6JV+C4C, Bariarpur"}], "status": "OK"}