{"html_attributions": [], "results": [{"business_status": "OPERATIONAL", "geometry": {"location": {"lat": 24.9588017, "lng": 86.2387232}, "viewport": {"northeast": {"lat": 24.9604351802915, "lng": 86.2396296}, "southwest": {"lat": 24.95773721970849, "lng": 86.23600400000001}}}, "icon": "https://maps.gstatic.com/mapfiles/place_api/icons/v1/png_71/school-71.png", "icon_background_color": "#7B9EB0", "icon_mask_base_uri": "https://maps.gstatic.com/mapfiles/place_api/icons/v2/school_pinlet", "name": "Jamui Polytechnic", "opening_hours": {"open_now": true}, "photos": [{"height": 3630, "html_attributions": ["<a href=\"https://maps.google.com/maps/contrib/111422981310246116623\">Md Wajid Hasan</a>"], "photo_reference": "Aap_uEBFNFeIZKHEW4VXcZrde34Sp4heVMjO1O06X2ICMe1kc9ydA2dvkruYceYxHgM2tPXACbqjNn80J5mxxD0ow5gHINc9NmSudgRQOy0DlR6PIMDRPvTuBWSgguctJAMLpXUM26T1Z-2cyD8ZNbczkQv1hVOu5LGRA-Hc75pap9J7NZIn", "width": 3072}], "place_id": "ChIJZSv1nfMp8jkRhnXkwCQJ_AQ", "plus_code": {"compound_code": "X65Q+GF Jamui, Bihar, India", "global_code": "7MP8X65Q+GF"}, "rating": 3.7, "reference": "ChIJZSv1nfMp8jkRhnXkwCQJ_AQ", "scope": "GOOGLE", "types": ["school", "point_of_interest", "establishment"], "user_ratings_total": 26, "vicinity": "Jamui"}, {"business_status": "OPERATIONAL", "geometry": {"location": {"lat": 24.9600526, "lng": 86.2574668}, "viewport": {"northeast": {"lat": 24.9613790802915, "lng": 86.2588455802915}, "southwest": {"lat": 24.9586811197085, "lng": 86.2561476197085}}}, "icon": "https://maps.gstatic.com/mapfiles/place_api/icons/v1/png_71/school-71.png", "icon_background_color": "#7B9EB0", "icon_mask_base_uri": "https://maps.gstatic.com/mapfiles/place_api/icons/v2/school_pinlet", "name": "SHASHI Pvt. ITI", "place_id": "ChIJz5b2tEiH8TkRgeuS3dCXqqY", "rating": 1, "reference": "ChIJz5b2tEiH8TkRgeuS3dCXqqY", "scope": "GOOGLE", "types": ["school", "point_of_interest", "establishment"], "user_ratings_total": 1, "vicinity": "X764+2XG, Katauna"}, {"business_status": "OPERATIONAL", "geometry": {"location": {"lat": 24.9546775, "lng": 86.2572328}, "viewport": {"northeast": {"lat": 24.9560407802915, "lng": 86.25858178029151}, "southwest": {"lat": 24.9533428197085, "lng": 86.25588381970849}}}, "icon": "https://maps.gstatic.com/mapfiles/place_api/icons/v1/png_71/school-71.png", "icon_background_color": "#7B9EB0", "icon_mask_base_uri": "https://maps.gstatic.com/mapfiles/place_api/icons/v2/school_pinlet", "name": "\u092e\u093e\u0901 \u092c\u093f\u0936\u0939\u0930\u093f \u0906\u0938\u094d\u0925\u093e\u0928 \u0915\u091f\u094c\u0928\u093e", "place_id": "ChIJmVAxp1aH8TkRedQ7v_l6yac", "reference": "ChIJmVAxp1aH8TkRedQ7v_l6yac", "scope": "GOOGLE", "types": ["school", "point_of_interest", "establishment"], "vicinity": "X734+VVH, Katauna"}, {"business_status": "OPERATIONAL", "geometry": {"location": {"lat": 24.9538868, "lng": 86.23956009999999}, "viewport": {"northeast": {"lat": 24.9547486802915, "lng": 86.2408466302915}, "southwest": {"lat": 24.9520507197085, "lng": 86.2381486697085}}}, "icon": "https://maps.gstatic.com/mapfiles/place_api/icons/v1/png_71/school-71.png", "icon_background_color": "#7B9EB0", "icon_mask_base_uri": "https://maps.gstatic.com/mapfiles/place_api/icons/v2/school_pinlet", "name": "Amit Raj Digital Studio Khairma Jamui", "photos": [{"height": 1080, "html_attributions": ["<a href=\"https://maps.google.com/maps/contrib/103691354623430126425\">Niraj Raj</a>"], "photo_reference": "Aap_uEBAJr6yXyYjaVAugaUnEWIWhlEMyRCBtw34HM_Y0cEU02R14StH994xH5gpI7Wb8A4jIQvPQ7hd5l-0ZgJlWlIE1L9DBWe7pdXfVMACe2Vf3N03KHDiND10BKLYsG5mE3SfxpePRSYi3DksuklvmljkAe6gUHRP5JW8eCtc1w2e-OS-", "width": 1920}], "place_id": "ChIJjw2xu_Up8jkR-UoAKeFKqGk", "plus_code": {"compound_code": "X63Q+HR Jamui, Bihar, India", "global_code": "7MP8X63Q+HR"}, "reference": "ChIJjw2xu_Up8jkR-UoAKeFKqGk", "scope": "GOOGLE", "types": ["school", "point_of_interest", "establishment"], "vicinity": "Jamui"}, {"business_status": "OPERATIONAL", "geometry": {"location": {"lat": 24.9552702, "lng": 86.2386847}, "viewport": {"northeast": {"lat": 24.95644900000001, "lng": 86.24044343029149}, "southwest": {"lat": 24.95173379999999, "lng": 86.23774546970849}}}, "icon": "https://maps.gstatic.com/mapfiles/place_api/icons/v1/png_71/school-71.png", "icon_background_color": "#7B9EB0", "icon_mask_base_uri": "https://maps.gstatic.com/mapfiles/place_api/icons/v2/school_pinlet", "name": "SONU RAJ Computer Repairing Centre", "place_id": "ChIJjWPJ3Xcp8jkRCYJVe4cT6qY", "reference": "ChIJjWPJ3Xcp8jkRCYJVe4cT6qY", "scope": "GOOGLE", "types": ["school", "point_of_interest", "establishment"], "vicinity": "X64Q+4F3, Khaira"}, {"business_status": "OPERATIONAL", "geometry": {"location": {"lat": 24.9682818, "lng": 86.24585719999999}, "viewport": {"northeast": {"lat": 24.9694131302915, "lng": 86.2473263302915}, "southwest": {"lat": 24.9667151697085, "lng": 86.2446283697085}}}, "icon": "https://maps.gstatic.com/mapfiles/place_api/icons/v1/png_71/school-71.png", "icon_background_color": "#7B9EB0", "icon_mask_base_uri": "https://maps.gstatic.com/mapfiles/place_api/icons/v2/school_pinlet", "name": "Kirtyanand Middle School Malaypur Booth No- 162", "opening_hours": {"open_now": false}, "photos": [{"height": 4128, "html_attributions": ["<a href=\"https://maps.google.com/maps/contrib/114918656606480787546\">Banty kumar</a>"], "photo_reference": "Aap_uEDbNOM7u17CzjUjp6iLkHFMS0FbEvq6OaR6sA8wce0o1HellXz3bgPx3VFP_dIVUC-GeTMh3czJadPCKGNum5tErY6RQTK9AHOPYOGrW_0ekDxpePiOcMbu3VujguLEN9c96nObLaSfPcAjgRGb4BhiM4vlN72xZRHCNELUr6AjZglD", "width": 2322}], "place_id": "ChIJC1WdZ-8p8jkRNretLIPEWlc", "rating": 4.7, "reference": "ChIJC1WdZ-8p8jkRNretLIPEWlc", "scope": "GOOGLE", "types": ["school", "point_of_interest", "establishment"], "user_ratings_total": 3, "vicinity": "X69W+889, Narsota"}, {"business_status": "OPERATIONAL", "geometry": {"location": {"lat": 24.9683483, "lng": 86.245828}, "viewport": {"northeast": {"lat": 24.96944773029151, "lng": 86.2473147302915}, "southwest": {"lat": 24.9667497697085, "lng": 86.2446167697085}}}, "icon": "https://maps.gstatic.com/mapfiles/place_api/icons/v1/png_71/school-71.png", "icon_background_color": "#7B9EB0", "icon_mask_base_uri": "https://maps.gstatic.com/mapfiles/place_api/icons/v2/school_pinlet", "name": "Government High School Narsota", "opening_hours": {"open_now": false}, "place_id": "ChIJT318Xe8p8jkRv4EPguPJlwA", "plus_code": {"compound_code": "X69W+88 Narsota, Bihar, India", "global_code": "7MP8X69W+88"}, "reference": "ChIJT318Xe8p8jkRv4EPguPJlwA", "scope": "GOOGLE", "types": ["school", "point_of_interest", "establishment"], "vicinity": "Railway station road, Narsota"}, {"business_status": "OPERATIONAL", "geometry": {"location": {"lat": 24.95038, "lng": 86.260967}, "viewport": {"northeast": {"lat": 24.9517654802915, "lng": 86.2623759302915}, "southwest": {"lat": 24.9490675197085, "lng": 86.25967796970849}}}, "icon": "https://maps.gstatic.com/mapfiles/place_api/icons/v1/png_71/school-71.png", "icon_background_color": "#7B9EB0", "icon_mask_base_uri": "https://maps.gstatic.com/mapfiles/place_api/icons/v2/school_pinlet", "name": "Black Diamond Public School, Jamui", "photos": [{"height": 1440, "html_attributions": ["<a href=\"https://maps.google.com/maps/contrib/106855993686307306278\">TM GAMING</a>"], "photo_reference": "Aap_uECw4sFPpQam0c5-1w1tDfAOLBTFeJfMfbnHOZR5HFefqR1X5oJtrGPmBs4GbrpFi3RpXwJql73AEdk7fp9LhPxV5txXdX14qJ9x0iN8KmzumSP1Z-dJMLGAIWjCawMh6-Y0-K23Z4Zo50As0scGN0nvm-V-m9tIxHAlnuZIRa4FY4g", "width": 2560}], "place_id": "ChIJqXd4ZauA8TkRR7dsaWviqPM", "plus_code": {"compound_code": "X726+59 Katauna, Bihar, India", "global_code": "7MP8X726+59"}, "rating": 4, "reference": "ChIJqXd4ZauA8TkRR7dsaWviqPM", "scope": "GOOGLE", "types": ["school", "point_of_interest", "establishment"], "user_ratings_total": 56, "vicinity": "GADI, Katauna"}, {"geometry": {"location": {"lat": 24.9681436, "lng": 86.2458576}, "viewport": {"northeast": {"lat": 24.96959609456147, "lng": 86.24734401757442}, "southwest": {"lat": 24.96689813397847, "lng": 86.24464605699141}}}, "icon": "https://maps.gstatic.com/mapfiles/place_api/icons/v1/png_71/school-71.png", "icon_background_color": "#7B9EB0", "icon_mask_base_uri": "https://maps.gstatic.com/mapfiles/place_api/icons/v2/school_pinlet", "name": "Govt. High School", "place_id": "ChIJtdasYO8p8jkR_WebOSBENwg", "reference": "ChIJtdasYO8p8jkR_WebOSBENwg", "scope": "GOOGLE", "types": ["secondary_school", "premise", "school", "establishment"], "vicinity": "Narsota"}], "status": "OK"}