{"html_attributions": [], "next_page_token": "Aap_uEAWJEdjFE7iIso7wRcgZvRSRKarSv1jkEGK4FP6yRsvWLF7Uhfw9RLmjF1QV_ZGvujyog6Zb871td1P4pDWc3ZBijhGom1PtiMKSsoQ7VV6YyJkGafWI9l_UoZOzXojF14aDPzVHSITZ053hj_jY_Bow43GnV3KizP4a-QLoG_whvDyNYJC_sXX7tWeyZZ1Vgv_axe4kekZ14Klx_k8d74wnmn3RW0ylCQhx4yUMZpyKW7AUgoYyQXSrGGeRUFJFaJlCJnsDrkb1lzH6OqQjg_8T1Xe-fRDzRutn1WuADtS7IKCI7mi8wDQsqrCSRyMRaHbuUBf_7MDlZJ0kg7TKQOzuN9ZGcBRB-WFUCF1bxhEKKLxbtTXGc4qFLSrgQTCpOhgyqAaLgvWqFFJhdUpddLYKdTBY2KAkO1RManj-uWF_UTz_zc", "results": [{"business_status": "OPERATIONAL", "geometry": {"location": {"lat": 24.9772787, "lng": 86.24982659999999}, "viewport": {"northeast": {"lat": 24.9785523802915, "lng": 86.2512723302915}, "southwest": {"lat": 24.9758544197085, "lng": 86.24857436970849}}}, "icon": "https://maps.gstatic.com/mapfiles/place_api/icons/v1/png_71/school-71.png", "icon_background_color": "#7B9EB0", "icon_mask_base_uri": "https://maps.gstatic.com/mapfiles/place_api/icons/v2/school_pinlet", "name": "Malaypur Upgraded Middle School", "opening_hours": {"open_now": false}, "photos": [{"height": 3264, "html_attributions": ["<a href=\"https://maps.google.com/maps/contrib/115620012006747136048\">Ashish Kumar</a>"], "photo_reference": "Aap_uEA0Y8dvHZ-kUQ8o5O4kpGfuQnFHNNTiSlxRRoc8bx1aNaYMAgOeGj8OqAIIQQavrRSJBICEI3E7x3UDr50JqroGAsfvrTTEdcn6YKNs9Wlh1BjdmW0FXMRX1l9sn1LT_1lD_o_PhLB5qcDfTcVqt2nnm_Idf-FpY-2SwUrE9miy3tS7", "width": 1836}], "place_id": "ChIJW3_9ld0p8jkR4tnZOxCbYJM", "plus_code": {"compound_code": "X6GX+WW Mallehpur, Bihar, India", "global_code": "7MP8X6GX+WW"}, "rating": 4.2, "reference": "ChIJW3_9ld0p8jkR4tnZOxCbYJM", "scope": "GOOGLE", "types": ["secondary_school", "school", "point_of_interest", "establishment"], "user_ratings_total": 13, "vicinity": "Malaypur - Kundar Road, Mallehpur"}, {"business_status": "OPERATIONAL", "geometry": {"location": {"lat": 24.9765466, "lng": 86.24845189999999}, "viewport": {"northeast": {"lat": 24.9778648802915, "lng": 86.24980938029151}, "southwest": {"lat": 24.9751669197085, "lng": 86.24711141970849}}}, "icon": "https://maps.gstatic.com/mapfiles/place_api/icons/v1/png_71/school-71.png", "icon_background_color": "#7B9EB0", "icon_mask_base_uri": "https://maps.gstatic.com/mapfiles/place_api/icons/v2/school_pinlet", "name": "Baby Grow Play School Malaypur", "opening_hours": {"open_now": false}, "place_id": "ChIJ_VyiPlEp8jkR0tBdQwYKis8", "plus_code": {"compound_code": "X6GX+J9 Mallehpur, Bihar, India", "global_code": "7MP8X6GX+J9"}, "reference": "ChIJ_VyiPlEp8jkR0tBdQwYKis8", "scope": "GOOGLE", "types": ["school", "point_of_interest", "establishment"], "vicinity": "SAROTRI NIVAS chauhangarh (Ashish Sarotri Kundar Rd Malaypur, Mallehpur"}, {"business_status": "OPERATIONAL", "geometry": {"location": {"lat": 24.9773127, "lng": 86.24784439999999}, "viewport": {"northeast": {"lat": 24.97857508029151, "lng": 86.2491385802915}, "southwest": {"lat": 24.9758771197085, "lng": 86.24644061970848}}}, "icon": "https://maps.gstatic.com/mapfiles/place_api/icons/v1/png_71/school-71.png", "icon_background_color": "#7B9EB0", "icon_mask_base_uri": "https://maps.gstatic.com/mapfiles/place_api/icons/v2/school_pinlet", "name": "Malaypur Project Girls High School", "opening_hours": {"open_now": false}, "photos": [{"height": 3264, "html_attributions": ["<a href=\"https://maps.google.com/maps/contrib/107916816682051748495\">samay ab tak</a>"], "photo_reference": "Aap_uEA3qx3cO6OwQVTcDCZBoDYwNiFuX4DwUH3tOU_itpbpEKgO_V2MW4onhBmVwga5h_aJhySnykbOPOPrRPhJTrYrGYQzLZLwwxzVKIpQEhsoDJmOQnL-6I7wppBxJy6GwKm3uztKot5zDurjlMtbp1Byy97e0yST0Vi3PuOArfkbK-49", "width": 2448}], "place_id": "ChIJlxq4FN0p8jkR9YxO1lwAxvM", "plus_code": {"compound_code": "X6GX+W4 Mallehpur, Bihar, India", "global_code": "7MP8X6GX+W4"}, "rating": 4, "reference": "ChIJlxq4FN0p8jkR9YxO1lwAxvM", "scope": "GOOGLE", "types": ["secondary_school", "school", "point_of_interest", "establishment"], "user_ratings_total": 8, "vicinity": "Malaypur - Kundar Road, Mallehpur"}, {"business_status": "OPERATIONAL", "geometry": {"location": {"lat": 24.9802455, "lng": 86.24844019999999}, "viewport": {"northeast": {"lat": 24.98133875, "lng": 86.25047435000002}, "southwest": {"lat": 24.97696575, "lng": 86.24776214999999}}}, "icon": "https://maps.gstatic.com/mapfiles/place_api/icons/v1/png_71/school-71.png", "icon_background_color": "#7B9EB0", "icon_mask_base_uri": "https://maps.gstatic.com/mapfiles/place_api/icons/v2/school_pinlet", "name": "Utkramit School Dewachak", "photos": [{"height": 2592, "html_attributions": ["<a href=\"https://maps.google.com/maps/contrib/106194428592404577781\">Ritesh kumar Raj</a>"], "photo_reference": "Aap_uED5WT4jyXguCwvXs_YtYZRhEKRrggiyRhKzDcAlpTXTHN3OlYS5W0XAR6J64PwiHtxqW7z5yosSs8TpIz7VcFprQtGF-s_n_aiXlQukkn0rT8_5Rf1xstCt0_UNixkOlKdkjIHXXVurt3r_cqjX2hJLvmqDTzAXxl4UiJr1-aFo6DBu", "width": 5184}], "place_id": "ChIJNULNjNwp8jkRqA9Cd3T8PcY", "rating": 4.5, "reference": "ChIJNULNjNwp8jkRqA9Cd3T8PcY", "scope": "GOOGLE", "types": ["school", "point_of_interest", "establishment"], "user_ratings_total": 4, "vicinity": "X6JX+39W, Mallehpur"}, {"business_status": "OPERATIONAL", "geometry": {"location": {"lat": 24.975471, "lng": 86.2525842}, "viewport": {"northeast": {"lat": 24.9768967802915, "lng": 86.25395788029151}, "southwest": {"lat": 24.9741988197085, "lng": 86.2512599197085}}}, "icon": "https://maps.gstatic.com/mapfiles/place_api/icons/v1/png_71/school-71.png", "icon_background_color": "#7B9EB0", "icon_mask_base_uri": "https://maps.gstatic.com/mapfiles/place_api/icons/v2/school_pinlet", "name": "Kanya madhya vidyalya", "opening_hours": {"open_now": false}, "place_id": "ChIJ86l8LQUp8jkR6de0EOXZeIA", "reference": "ChIJ86l8LQUp8jkR6de0EOXZeIA", "scope": "GOOGLE", "types": ["school", "point_of_interest", "establishment"], "vicinity": "X7G3+52P, Mallehpur"}, {"business_status": "OPERATIONAL", "geometry": {"location": {"lat": 24.9755178, "lng": 86.2526432}, "viewport": {"northeast": {"lat": 24.9769155802915, "lng": 86.25400598029151}, "southwest": {"lat": 24.9742176197085, "lng": 86.25130801970849}}}, "icon": "https://maps.gstatic.com/mapfiles/place_api/icons/v1/png_71/school-71.png", "icon_background_color": "#7B9EB0", "icon_mask_base_uri": "https://maps.gstatic.com/mapfiles/place_api/icons/v2/school_pinlet", "name": "Girl School Malaypur", "place_id": "ChIJATMDouAp8jkR4ij5740gMmw", "rating": 5, "reference": "ChIJATMDouAp8jkR4ij5740gMmw", "scope": "GOOGLE", "types": ["school", "point_of_interest", "establishment"], "user_ratings_total": 3, "vicinity": "X7G3+632, Mallehpur"}, {"business_status": "CLOSED_TEMPORARILY", "geometry": {"location": {"lat": 24.9748479, "lng": 86.25314279999999}, "viewport": {"northeast": {"lat": 24.9762021802915, "lng": 86.25445168029151}, "southwest": {"lat": 24.97350421970849, "lng": 86.2517537197085}}}, "icon": "https://maps.gstatic.com/mapfiles/place_api/icons/v1/png_71/school-71.png", "icon_background_color": "#7B9EB0", "icon_mask_base_uri": "https://maps.gstatic.com/mapfiles/place_api/icons/v2/school_pinlet", "name": "Sunshine Play School", "permanently_closed": true, "place_id": "ChIJQWUWBdYp8jkRuVEnFMOBnGM", "plus_code": {"compound_code": "X7F3+W7 Mallehpur, Bihar, India", "global_code": "7MP8X7F3+W7"}, "rating": 2, "reference": "ChIJQWUWBdYp8jkRuVEnFMOBnGM", "scope": "GOOGLE", "types": ["school", "point_of_interest", "establishment"], "user_ratings_total": 1, "vicinity": "State Highway 72, Mallehpur"}, {"business_status": "OPERATIONAL", "geometry": {"location": {"lat": 24.9817821, "lng": 86.2550823}, "viewport": {"northeast": {"lat": 24.9831835802915, "lng": 86.2563547302915}, "southwest": {"lat": 24.9804856197085, "lng": 86.25365676970848}}}, "icon": "https://maps.gstatic.com/mapfiles/place_api/icons/v1/png_71/school-71.png", "icon_background_color": "#7B9EB0", "icon_mask_base_uri": "https://maps.gstatic.com/mapfiles/place_api/icons/v2/school_pinlet", "name": "Thokrimati , Anganwadi", "place_id": "ChIJCwtRtI8p8jkRwUsNU_yToDo", "plus_code": {"compound_code": "X7J4+P2 Mallehpur, Bihar, India", "global_code": "7MP8X7J4+P2"}, "reference": "ChIJCwtRtI8p8jkRwUsNU_yToDo", "scope": "GOOGLE", "types": ["school", "point_of_interest", "establishment"], "vicinity": "Unnamed Road, Mallehpur"}, {"business_status": "OPERATIONAL", "geometry": {"location": {"lat": 24.9718646, "lng": 86.2507006}, "viewport": {"northeast": {"lat": 24.9736156802915, "lng": 86.25247118029151}, "southwest": {"lat": 24.9709177197085, "lng": 86.24977321970849}}}, "icon": "https://maps.gstatic.com/mapfiles/place_api/icons/v1/png_71/school-71.png", "icon_background_color": "#7B9EB0", "icon_mask_base_uri": "https://maps.gstatic.com/mapfiles/place_api/icons/v2/school_pinlet", "name": "Malaypur Public School", "photos": [{"height": 3120, "html_attributions": ["<a href=\"https://maps.google.com/maps/contrib/106363059649512958417\">MANISH KUMAR YADAV</a>"], "photo_reference": "Aap_uEDz3ymNk8dnNZxrCbTuQHQOK0-28vf6EA2YGYCiygDA7k5pyhYYGHA8EBzgl64eMYpPQdXyWDTXbwov3mzuZ1bm4xLo6nctYNRfWThxXWQ-kLaktqHINt1eIT-ZX4uBc2w-bXZJ9UstA2qWoPllX82MCKuxKO1HhFT_LMtqXiJcPcIg", "width": 4160}], "place_id": "ChIJdYbqxeYp8jkRg1gRyS5O9lk", "rating": 3.7, "reference": "ChIJdYbqxeYp8jkRg1gRyS5O9lk", "scope": "GOOGLE", "types": ["school", "point_of_interest", "establishment"], "user_ratings_total": 3, "vicinity": "X7C2+P7W, Balwadih, Mallehpur"}, {"business_status": "OPERATIONAL", "geometry": {"location": {"lat": 24.9810625, "lng": 86.2427731}, "viewport": {"northeast": {"lat": 24.9824667302915, "lng": 86.2440682802915}, "southwest": {"lat": 24.9797687697085, "lng": 86.2413703197085}}}, "icon": "https://maps.gstatic.com/mapfiles/place_api/icons/v1/png_71/school-71.png", "icon_background_color": "#7B9EB0", "icon_mask_base_uri": "https://maps.gstatic.com/mapfiles/place_api/icons/v2/school_pinlet", "name": "U.M.S. Baryarpur Booth No-152", "place_id": "ChIJpeVIjMMp8jkR3JYw8PG5bls", "reference": "ChIJpeVIjMMp8jkR3JYw8PG5bls", "scope": "GOOGLE", "types": ["school", "point_of_interest", "establishment"], "vicinity": "X6JV+C4C, Bariarpur"}, {"business_status": "OPERATIONAL", "geometry": {"location": {"lat": 24.97067500000001, "lng": 86.2512213}, "viewport": {"northeast": {"lat": 24.9718082802915, "lng": 86.2526888302915}, "southwest": {"lat": 24.9691103197085, "lng": 86.2499908697085}}}, "icon": "https://maps.gstatic.com/mapfiles/place_api/icons/v1/png_71/school-71.png", "icon_background_color": "#7B9EB0", "icon_mask_base_uri": "https://maps.gstatic.com/mapfiles/place_api/icons/v2/school_pinlet", "name": "Primery School Narsutta", "place_id": "ChIJr0qD4BEp8jkRKiIgSCw-Gak", "reference": "ChIJr0qD4BEp8jkRKiIgSCw-Gak", "scope": "GOOGLE", "types": ["primary_school", "school", "point_of_interest", "establishment"], "vicinity": "X7C2+7F9, Mallehpur"}, {"business_status": "OPERATIONAL", "geometry": {"location": {"lat": 24.9787871, "lng": 86.2592626}, "viewport": {"northeast": {"lat": 24.9802269802915, "lng": 86.2607146802915}, "southwest": {"lat": 24.97752901970849, "lng": 86.2580167197085}}}, "icon": "https://maps.gstatic.com/mapfiles/place_api/icons/v1/png_71/school-71.png", "icon_background_color": "#7B9EB0", "icon_mask_base_uri": "https://maps.gstatic.com/mapfiles/place_api/icons/v2/school_pinlet", "name": "U.M.S. Nagdawa Booth No.- 159", "opening_hours": {"open_now": false}, "place_id": "ChIJ-eDs_mCH8TkR4_ElAnNwh2s", "plus_code": {"compound_code": "X7H5+GP Mallehpur, Bihar, India", "global_code": "7MP8X7H5+GP"}, "reference": "ChIJ-eDs_mCH8TkR4_ElAnNwh2s", "scope": "GOOGLE", "types": ["school", "point_of_interest", "establishment"], "vicinity": "Mallehpur"}, {"business_status": "OPERATIONAL", "geometry": {"location": {"lat": 24.97229099999999, "lng": 86.256886}, "viewport": {"northeast": {"lat": 24.9735612302915, "lng": 86.2582698302915}, "southwest": {"lat": 24.9708632697085, "lng": 86.25557186970849}}}, "icon": "https://maps.gstatic.com/mapfiles/place_api/icons/v1/png_71/school-71.png", "icon_background_color": "#7B9EB0", "icon_mask_base_uri": "https://maps.gstatic.com/mapfiles/place_api/icons/v2/school_pinlet", "name": "Anupam play school", "place_id": "ChIJYcoLPmWH8TkRYFaiKhiVl5g", "plus_code": {"compound_code": "X7C4+WQ Mallehpur, Bihar, India", "global_code": "7MP8X7C4+WQ"}, "rating": 5, "reference": "ChIJYcoLPmWH8TkRYFaiKhiVl5g", "scope": "GOOGLE", "types": ["school", "point_of_interest", "establishment"], "user_ratings_total": 1, "vicinity": "Jamui, National Highway 333, Mallehpur"}, {"business_status": "CLOSED_TEMPORARILY", "geometry": {"location": {"lat": 24.9833484, "lng": 86.2427965}, "viewport": {"northeast": {"lat": 24.9847096302915, "lng": 86.24409398029151}, "southwest": {"lat": 24.9820116697085, "lng": 86.2413960197085}}}, "icon": "https://maps.gstatic.com/mapfiles/place_api/icons/v1/png_71/school-71.png", "icon_background_color": "#7B9EB0", "icon_mask_base_uri": "https://maps.gstatic.com/mapfiles/place_api/icons/v2/school_pinlet", "name": "Bariyarpur Middle School", "permanently_closed": true, "place_id": "ChIJ3-BCQcQp8jkRQ3iudK6eVyU", "plus_code": {"compound_code": "X6MV+84 Bariarpur, Bihar, India", "global_code": "7MP8X6MV+84"}, "rating": 2.3, "reference": "ChIJ3-BCQcQp8jkRQ3iudK6eVyU", "scope": "GOOGLE", "types": ["secondary_school", "school", "point_of_interest", "establishment"], "user_ratings_total": 3, "vicinity": "Devachak, Malaypur - Kundar Road, Bariarpur"}, {"business_status": "OPERATIONAL", "geometry": {"location": {"lat": 24.9787415, "lng": 86.2592921}, "viewport": {"northeast": {"lat": 24.9802041802915, "lng": 86.2607294302915}, "southwest": {"lat": 24.9775062197085, "lng": 86.2580314697085}}}, "icon": "https://maps.gstatic.com/mapfiles/place_api/icons/v1/png_71/school-71.png", "icon_background_color": "#7B9EB0", "icon_mask_base_uri": "https://maps.gstatic.com/mapfiles/place_api/icons/v2/school_pinlet", "name": "Prathmic vidyalay Nagdeva", "place_id": "ChIJyXwe_GCH8TkROPubYA94aqs", "rating": 5, "reference": "ChIJyXwe_GCH8TkROPubYA94aqs", "scope": "GOOGLE", "types": ["school", "point_of_interest", "establishment"], "user_ratings_total": 1, "vicinity": "X7H5+FPV, Mallehpur"}, {"business_status": "OPERATIONAL", "geometry": {"location": {"lat": 24.979788, "lng": 86.259793}, "viewport": {"northeast": {"lat": 24.9811669802915, "lng": 86.26115373029151}, "southwest": {"lat": 24.9784690197085, "lng": 86.25845576970849}}}, "icon": "https://maps.gstatic.com/mapfiles/place_api/icons/v1/png_71/school-71.png", "icon_background_color": "#7B9EB0", "icon_mask_base_uri": "https://maps.gstatic.com/mapfiles/place_api/icons/v2/school_pinlet", "name": "\u0917\u094b\u091f\u0938\u0947 \u091a\u094c\u0930\u093e\u0939\u093e", "photos": [{"height": 4160, "html_attributions": ["<a href=\"https://maps.google.com/maps/contrib/116294753188631137094\">\u0938\u0941\u092e\u0928 \u0938\u093f\u0902\u0939</a>"], "photo_reference": "Aap_uEAoqeQWYQAk1w8oIjpa0WRRqKHDvgds2VWYGDCry8CePxGiZaiZXUQ6hUVzlpdCreGBDuEJcI4H5I25nm_L7GAr7uyH5QayAFueTfDDRqxv9s4gP3WAQSLV8ansZa0vHCMDKeJXjsqQhUXHZSnkHwEa8UQuA4W5Cd5Uvtv5zeQhsae3", "width": 3120}], "place_id": "ChIJP4qNXPeH8TkRIrFqYQOkkvc", "plus_code": {"compound_code": "X7H5+WW Mallehpur, Bihar, India", "global_code": "7MP8X7H5+WW"}, "reference": "ChIJP4qNXPeH8TkRIrFqYQOkkvc", "scope": "GOOGLE", "types": ["school", "point_of_interest", "establishment"], "vicinity": "Malaypur - Barhat Road, Mallehpur"}, {"business_status": "OPERATIONAL", "geometry": {"location": {"lat": 24.97698, "lng": 86.26092489999999}, "viewport": {"northeast": {"lat": 24.9785170302915, "lng": 86.26232313029152}, "southwest": {"lat": 24.9758190697085, "lng": 86.2596251697085}}}, "icon": "https://maps.gstatic.com/mapfiles/place_api/icons/v1/png_71/school-71.png", "icon_background_color": "#7B9EB0", "icon_mask_base_uri": "https://maps.gstatic.com/mapfiles/place_api/icons/v2/school_pinlet", "name": "Kiran Heart Academy Malaypur School", "opening_hours": {"open_now": false}, "photos": [{"height": 1080, "html_attributions": ["<a href=\"https://maps.google.com/maps/contrib/102728372878994427988\">Nitish Kumar ,</a>"], "photo_reference": "Aap_uEAcp-PUEITANJis6gpm_uYkWitQ3HeA8Lkci4lhEBWorovA4B3fOm-bKkw3H7TVKwTMSuiCIt8H-2b61wi01mDVUsxQGmuO5qqvOkLTPsmvOzcaXaLnP4hP0l6d7LodtGBZ_2W03wtUDYIrP_1kCisMNLBWZL-jYHtE0ykPF4FKAbkv", "width": 1920}], "place_id": "ChIJ6eh6XzSH8TkRLd20X4B32l0", "rating": 5, "reference": "ChIJ6eh6XzSH8TkRLd20X4B32l0", "scope": "GOOGLE", "types": ["school", "point_of_interest", "establishment"], "user_ratings_total": 2, "vicinity": "X7G6+Q9V, Nagdeva Colony"}, {"business_status": "OPERATIONAL", "geometry": {"location": {"lat": 24.9788967, "lng": 86.2609725}, "viewport": {"northeast": {"lat": 24.9801964802915, "lng": 86.2623494302915}, "southwest": {"lat": 24.9774985197085, "lng": 86.25965146970849}}}, "icon": "https://maps.gstatic.com/mapfiles/place_api/icons/v1/png_71/school-71.png", "icon_background_color": "#7B9EB0", "icon_mask_base_uri": "https://maps.gstatic.com/mapfiles/place_api/icons/v2/school_pinlet", "name": "maurya school", "opening_hours": {"open_now": true}, "place_id": "ChIJlYRL2maH8TkRGfyH6AEfSW8", "plus_code": {"compound_code": "X7H6+H9 Mallehpur, Bihar, India", "global_code": "7MP8X7H6+H9"}, "rating": 5, "reference": "ChIJlYRL2maH8TkRGfyH6AEfSW8", "scope": "GOOGLE", "types": ["school", "point_of_interest", "establishment"], "user_ratings_total": 4, "vicinity": "nagdeva malaypur, baharat road, jamui , bihar"}, {"business_status": "OPERATIONAL", "geometry": {"location": {"lat": 24.97112970000001, "lng": 86.25836129999999}, "viewport": {"northeast": {"lat": 24.9724679802915, "lng": 86.2597431302915}, "southwest": {"lat": 24.9697700197085, "lng": 86.25704516970849}}}, "icon": "https://maps.gstatic.com/mapfiles/place_api/icons/v1/png_71/school-71.png", "icon_background_color": "#7B9EB0", "icon_mask_base_uri": "https://maps.gstatic.com/mapfiles/place_api/icons/v2/school_pinlet", "name": "+2 Mallehpur High School", "opening_hours": {"open_now": false}, "photos": [{"height": 536, "html_attributions": ["<a href=\"https://maps.google.com/maps/contrib/105104903115574126185\">Manish Singh</a>"], "photo_reference": "Aap_uEBo_ICT8xOTyaHLBPt3qng0iu5AoVC-394n1imgmpOvKI7GFsWh8iTu3SAj7dyl-5WfmP0gMYRqYX6vLa22oEbJ06ACEyCP_Vse5KTLOEt0l0hIjzJ7Rt94BpCdNcIC0TDC0mZkMSpOHJ44faEnX6Do0epIWinLMO3mok_g6gHnyh0e", "width": 720}], "place_id": "ChIJhaA3O1-H8TkRpQdj8Zudp-g", "plus_code": {"compound_code": "X7C5+F8 Mallehpur, Bihar, India", "global_code": "7MP8X7C5+F8"}, "rating": 3.1, "reference": "ChIJhaA3O1-H8TkRpQdj8Zudp-g", "scope": "GOOGLE", "types": ["secondary_school", "school", "point_of_interest", "establishment"], "user_ratings_total": 13, "vicinity": "State Highway 72, Mallehpur"}, {"business_status": "OPERATIONAL", "geometry": {"location": {"lat": 24.9683483, "lng": 86.245828}, "viewport": {"northeast": {"lat": 24.96944773029151, "lng": 86.2473147302915}, "southwest": {"lat": 24.9667497697085, "lng": 86.2446167697085}}}, "icon": "https://maps.gstatic.com/mapfiles/place_api/icons/v1/png_71/school-71.png", "icon_background_color": "#7B9EB0", "icon_mask_base_uri": "https://maps.gstatic.com/mapfiles/place_api/icons/v2/school_pinlet", "name": "Government High School Narsota", "opening_hours": {"open_now": false}, "place_id": "ChIJT318Xe8p8jkRv4EPguPJlwA", "plus_code": {"compound_code": "X69W+88 Narsota, Bihar, India", "global_code": "7MP8X69W+88"}, "reference": "ChIJT318Xe8p8jkRv4EPguPJlwA", "scope": "GOOGLE", "types": ["school", "point_of_interest", "establishment"], "vicinity": "Railway station road, Narsota"}], "status": "OK"}