{"html_attributions": [], "results": [{"business_status": "OPERATIONAL", "geometry": {"location": {"lat": 24.7763569, "lng": 86.2694204}, "viewport": {"northeast": {"lat": 24.7777891302915, "lng": 86.27073013029151}, "southwest": {"lat": 24.7750911697085, "lng": 86.2680321697085}}}, "icon": "https://maps.gstatic.com/mapfiles/place_api/icons/v1/png_71/school-71.png", "icon_background_color": "#7B9EB0", "icon_mask_base_uri": "https://maps.gstatic.com/mapfiles/place_api/icons/v2/school_pinlet", "name": "Middle school sonel", "place_id": "ChIJK2rzSZ5_8TkRbA0pAFLL2Xw", "plus_code": {"compound_code": "Q7G9+GQ Jhundo, Bihar, India", "global_code": "7MP8Q7G9+GQ"}, "reference": "ChIJK2rzSZ5_8TkRbA0pAFLL2Xw", "scope": "GOOGLE", "types": ["school", "point_of_interest", "establishment"], "vicinity": "\u0917\u095d\u0940 \u092c\u093f\u0936\u0928\u092a\u0941\u0930 - \u0915\u0947\u0928\u094d\u0926\u0941\u0906 \u0930\u094b\u0921, Jhundo"}, {"business_status": "OPERATIONAL", "geometry": {"location": {"lat": 24.775433, "lng": 86.2763295}, "viewport": {"northeast": {"lat": 24.7768188802915, "lng": 86.27758663029151}, "southwest": {"lat": 24.7741209197085, "lng": 86.2748886697085}}}, "icon": "https://maps.gstatic.com/mapfiles/place_api/icons/v1/png_71/school-71.png", "icon_background_color": "#7B9EB0", "icon_mask_base_uri": "https://maps.gstatic.com/mapfiles/place_api/icons/v2/school_pinlet", "name": "UHS DAHUA", "opening_hours": {"open_now": true}, "photos": [{"height": 3264, "html_attributions": ["<a href=\"https://maps.google.com/maps/contrib/103457141181477337373\">AHSANUL HAQUE</a>"], "photo_reference": "Aap_uED3G-LqMbH7BngoLxZH_B665-cBZbM7NzLA6wx7ya5DFJY-LNfqKkeukTjZiWrqBK6tCNSFfl3MnEbJEjjBWkPY_zW90BWcx6JhzfINvGobYgJVJnTg6zUZ1H9KGJLsLrlaTywN7mEBkrH9sa4vePhaX-dq9suBdPHtXiEvVSzIHLqb", "width": 1836}], "place_id": "ChIJWSAUPOd_8TkRWKoK4_GVW9s", "rating": 5, "reference": "ChIJWSAUPOd_8TkRWKoK4_GVW9s", "scope": "GOOGLE", "types": ["school", "point_of_interest", "establishment"], "user_ratings_total": 1, "vicinity": "Q7GG+5GG, Jhundo"}, {"business_status": "OPERATIONAL", "geometry": {"location": {"lat": 24.7805967, "lng": 86.2615689}, "viewport": {"northeast": {"lat": 24.7813577802915, "lng": 86.26269413029151}, "southwest": {"lat": 24.77865981970849, "lng": 86.2599961697085}}}, "icon": "https://maps.gstatic.com/mapfiles/place_api/icons/v1/png_71/school-71.png", "icon_background_color": "#7B9EB0", "icon_mask_base_uri": "https://maps.gstatic.com/mapfiles/place_api/icons/v2/school_pinlet", "name": "Utkramit madhya vidyalay Jhundo", "place_id": "ChIJHYmi1VB_8TkRJZQSTzFtjd0", "reference": "ChIJHYmi1VB_8TkRJZQSTzFtjd0", "scope": "GOOGLE", "types": ["school", "point_of_interest", "establishment"], "vicinity": "Q7J6+6JP, Jhundo"}, {"business_status": "OPERATIONAL", "geometry": {"location": {"lat": 24.781568, "lng": 86.26163460000001}, "viewport": {"northeast": {"lat": 24.78261945, "lng": 86.2626565802915}, "southwest": {"lat": 24.77841365, "lng": 86.2599586197085}}}, "icon": "https://maps.gstatic.com/mapfiles/place_api/icons/v1/png_71/school-71.png", "icon_background_color": "#7B9EB0", "icon_mask_base_uri": "https://maps.gstatic.com/mapfiles/place_api/icons/v2/school_pinlet", "name": "A S CREATIVE SCHOOL JHUNDO", "photos": [{"height": 680, "html_attributions": ["<a href=\"https://maps.google.com/maps/contrib/109585960018902280932\">HIMANSHU KUMAR DUBEY</a>"], "photo_reference": "Aap_uEAjhxfJXWlfO2Nr2CM4qvrJ9zBth3qJxQo2E1aFhR3bHhtFyVljzaX3EGG0hQxCto_LzSHeWczlYqniJvrogKrf2QcfnzmCXI6XC7B5jAhTAqXjjcBPd5H471DQdp-nOijQNUrW4nWYamJ9bwsELpb8qsH1-QXNPiSYO1hzkgnXlsGp", "width": 1024}], "place_id": "ChIJIZK_GOl_8TkR37UpOobxWBo", "rating": 5, "reference": "ChIJIZK_GOl_8TkR37UpOobxWBo", "scope": "GOOGLE", "types": ["school", "point_of_interest", "establishment"], "user_ratings_total": 3, "vicinity": "Q7J6+JMC, Jhundo"}, {"business_status": "OPERATIONAL", "geometry": {"location": {"lat": 24.7862183, "lng": 86.2794783}, "viewport": {"northeast": {"lat": 24.7874845802915, "lng": 86.2808011802915}, "southwest": {"lat": 24.78478661970849, "lng": 86.27810321970848}}}, "icon": "https://maps.gstatic.com/mapfiles/place_api/icons/v1/png_71/school-71.png", "icon_background_color": "#7B9EB0", "icon_mask_base_uri": "https://maps.gstatic.com/mapfiles/place_api/icons/v2/school_pinlet", "name": "Sumit kumar", "place_id": "ChIJjya6HWd_8TkRT9vzD4-WHpk", "reference": "ChIJjya6HWd_8TkRT9vzD4-WHpk", "scope": "GOOGLE", "types": ["school", "point_of_interest", "establishment"], "vicinity": "Q7PH+FQQ, \u091f\u094b\u0932\u093e \u092c\u093e\u0918\u092e\u093e\u0930\u093e"}], "status": "OK"}