{"html_attributions": [], "results": [{"business_status": "OPERATIONAL", "geometry": {"location": {"lat": 24.8983952, "lng": 86.2720834}, "viewport": {"northeast": {"lat": 24.8995608802915, "lng": 86.2737355302915}, "southwest": {"lat": 24.8968629197085, "lng": 86.2710375697085}}}, "icon": "https://maps.gstatic.com/mapfiles/place_api/icons/v1/png_71/school-71.png", "icon_background_color": "#7B9EB0", "icon_mask_base_uri": "https://maps.gstatic.com/mapfiles/place_api/icons/v2/school_pinlet", "name": "\u092e\u0939\u093f\u092a\u0932 \u092e\u0927\u094d\u092f \u092c\u093f\u0926\u094d\u092f\u093e\u0932\u092f \u092c\u0941\u0915\u0930", "place_id": "ChIJgWDY85uB8TkRXkyyey-QNGM", "reference": "ChIJgWDY85uB8TkRXkyyey-QNGM", "scope": "GOOGLE", "types": ["school", "point_of_interest", "establishment"], "vicinity": "V7XC+9R4, Bukar"}, {"business_status": "OPERATIONAL", "geometry": {"location": {"lat": 24.8985834, "lng": 86.2722733}, "viewport": {"northeast": {"lat": 24.8997626802915, "lng": 86.2739083802915}, "southwest": {"lat": 24.8970647197085, "lng": 86.2712104197085}}}, "icon": "https://maps.gstatic.com/mapfiles/place_api/icons/v1/png_71/school-71.png", "icon_background_color": "#7B9EB0", "icon_mask_base_uri": "https://maps.gstatic.com/mapfiles/place_api/icons/v2/school_pinlet", "name": "Middle school bukar", "place_id": "ChIJCdWqexKB8TkRhjDnINHJaIU", "plus_code": {"compound_code": "V7XC+CW Bukar, Bihar, India", "global_code": "7MP8V7XC+CW"}, "reference": "ChIJCdWqexKB8TkRhjDnINHJaIU", "scope": "GOOGLE", "types": ["school", "point_of_interest", "establishment"], "vicinity": "Middle School, Bukar"}, {"business_status": "OPERATIONAL", "geometry": {"location": {"lat": 24.8989127, "lng": 86.2722354}, "viewport": {"northeast": {"lat": 24.9004696802915, "lng": 86.2737733802915}, "southwest": {"lat": 24.8977717197085, "lng": 86.2710754197085}}}, "icon": "https://maps.gstatic.com/mapfiles/place_api/icons/v1/png_71/school-71.png", "icon_background_color": "#7B9EB0", "icon_mask_base_uri": "https://maps.gstatic.com/mapfiles/place_api/icons/v2/school_pinlet", "name": "High school bukar Jamui Bihar", "place_id": "ChIJ2b0xJgaB8TkRoJ7bdGlIDqk", "plus_code": {"compound_code": "V7XC+HV Bukar, Bihar, India", "global_code": "7MP8V7XC+HV"}, "rating": 5, "reference": "ChIJ2b0xJgaB8TkRoJ7bdGlIDqk", "scope": "GOOGLE", "types": ["school", "point_of_interest", "establishment"], "user_ratings_total": 1, "vicinity": "High school, Bukar"}, {"business_status": "OPERATIONAL", "geometry": {"location": {"lat": 24.9010072, "lng": 86.270778}, "viewport": {"northeast": {"lat": 24.9022863302915, "lng": 86.27208103029152}, "southwest": {"lat": 24.8995883697085, "lng": 86.2693830697085}}}, "icon": "https://maps.gstatic.com/mapfiles/place_api/icons/v1/png_71/school-71.png", "icon_background_color": "#7B9EB0", "icon_mask_base_uri": "https://maps.gstatic.com/mapfiles/place_api/icons/v2/school_pinlet", "name": "\u0906\u0902\u0917\u0928\u0935\u093e\u0921\u093c\u0940", "place_id": "ChIJX86GcPWB8TkRKzM6CpFYVX8", "plus_code": {"compound_code": "W72C+C8 Bukar, Bihar, India", "global_code": "7MP8W72C+C8"}, "reference": "ChIJX86GcPWB8TkRKzM6CpFYVX8", "scope": "GOOGLE", "types": ["school", "point_of_interest", "establishment"], "vicinity": "Aaganbhare Navkadih, Bukar"}, {"business_status": "OPERATIONAL", "geometry": {"location": {"lat": 24.9028096, "lng": 86.2628027}, "viewport": {"northeast": {"lat": 24.9041371802915, "lng": 86.2642044302915}, "southwest": {"lat": 24.9014392197085, "lng": 86.2615064697085}}}, "icon": "https://maps.gstatic.com/mapfiles/place_api/icons/v1/png_71/school-71.png", "icon_background_color": "#7B9EB0", "icon_mask_base_uri": "https://maps.gstatic.com/mapfiles/place_api/icons/v2/school_pinlet", "name": "Navin primary school kanaulitanr booth 157", "place_id": "ChIJIZyiOFeB8TkR0k8o2gSYC0k", "plus_code": {"compound_code": "W737+44 Sonpai, Bihar, India", "global_code": "7MP8W737+44"}, "reference": "ChIJIZyiOFeB8TkR0k8o2gSYC0k", "scope": "GOOGLE", "types": ["school", "point_of_interest", "establishment"], "vicinity": "Unnamed Road, Sonpai"}, {"business_status": "OPERATIONAL", "geometry": {"location": {"lat": 24.8913453, "lng": 86.2809935}, "viewport": {"northeast": {"lat": 24.8927028302915, "lng": 86.2823779802915}, "southwest": {"lat": 24.8900048697085, "lng": 86.2796800197085}}}, "icon": "https://maps.gstatic.com/mapfiles/place_api/icons/v1/png_71/school-71.png", "icon_background_color": "#7B9EB0", "icon_mask_base_uri": "https://maps.gstatic.com/mapfiles/place_api/icons/v2/school_pinlet", "name": "Primary School Dhenkdih", "photos": [{"height": 1080, "html_attributions": ["<a href=\"https://maps.google.com/maps/contrib/102561121935241609248\">Kundan Kumar</a>"], "photo_reference": "Aap_uEC8FFCNpgwwSkOBng-2_J03Awd0ladbkjlYbGZ8m3Am-itdVErBLnwn42fvO0wTEqX0v3ocfI5tITzJyZL7aapX6V1j28-n2MvHuaZtN0i2V76cXiyMgCrEB4-gVRhIlADjRVfrvqTRmTTJ3xYP0M98Q6MHvj72t3z_FirYbnNauGo2", "width": 1920}], "place_id": "ChIJ57a6eXSB8TkRc07DeLl3Wuo", "rating": 5, "reference": "ChIJ57a6eXSB8TkRc07DeLl3Wuo", "scope": "GOOGLE", "types": ["school", "point_of_interest", "establishment"], "user_ratings_total": 1, "vicinity": "V7RJ+G9Q, Dhenkdih"}], "status": "OK"}