{"html_attributions": [], "results": [{"business_status": "OPERATIONAL", "geometry": {"location": {"lat": 25.0002977, "lng": 86.2945989}, "viewport": {"northeast": {"lat": 25.0018680802915, "lng": 86.2959422302915}, "southwest": {"lat": 24.9991701197085, "lng": 86.2932442697085}}}, "icon": "https://maps.gstatic.com/mapfiles/place_api/icons/v1/png_71/school-71.png", "icon_background_color": "#7B9EB0", "icon_mask_base_uri": "https://maps.gstatic.com/mapfiles/place_api/icons/v2/school_pinlet", "name": "Jawahar Navodaya Vidyalaya, Barhat ,Jamui", "opening_hours": {"open_now": true}, "photos": [{"height": 3008, "html_attributions": ["<a href=\"https://maps.google.com/maps/contrib/116478795886414068138\">Bipul Infotech</a>"], "photo_reference": "Aap_uECsuvIfcA6tMxH5Spbk_1hwO6C-XSzXVl_hU7tKbMjKg9CdvjsSOl_qk9LOdXDy8m7sULRUpfe_6DnF2bunHLC8GD-uWC48IAqyQthfOBGj926D5Na3LpHQ6Fefan0FSztTD5JEOD4zBmA77VJtKafArl6VKlwCO22omsOWI0v_bcvB", "width": 4016}], "place_id": "ChIJld1b9qqH8TkRX6FmcSeikbc", "plus_code": {"compound_code": "272V+4R Barhat, Bihar, India", "global_code": "7MQ8272V+4R"}, "rating": 4.4, "reference": "ChIJld1b9qqH8TkRX6FmcSeikbc", "scope": "GOOGLE", "types": ["school", "point_of_interest", "establishment"], "user_ratings_total": 39, "vicinity": "Barhat - Lalmatia Khadigram Road, Raod, Barhat"}, {"business_status": "OPERATIONAL", "geometry": {"location": {"lat": 24.9998244, "lng": 86.29455779999999}, "viewport": {"northeast": {"lat": 25.0016308802915, "lng": 86.2958950802915}, "southwest": {"lat": 24.99893291970849, "lng": 86.2931971197085}}}, "icon": "https://maps.gstatic.com/mapfiles/place_api/icons/v1/png_71/school-71.png", "icon_background_color": "#7B9EB0", "icon_mask_base_uri": "https://maps.gstatic.com/mapfiles/place_api/icons/v2/school_pinlet", "name": "J.N.V. BARHAT", "photos": [{"height": 2448, "html_attributions": ["<a href=\"https://maps.google.com/maps/contrib/105040987023267007909\">Little prince</a>"], "photo_reference": "Aap_uEBfbJxTxwKeUrSpAAuNh2QCYdyCD0NIjlYtBOPYJsFEoTdZ_3OuJyw_X9NHvgvSPcOyjcJQSvyqAbUpn2RM4glP4gIj-1QOcbQPpQldrZqsgQKPzEpq8ZkkAdOsOIjPAhvQ1OSSoezpDXhBGKL0DbuWK0qdVIWAhwkJGqsEerDn-14A", "width": 3264}], "place_id": "ChIJoTgeiACH8TkRXBC1e3Zc8lc", "rating": 4.6, "reference": "ChIJoTgeiACH8TkRXBC1e3Zc8lc", "scope": "GOOGLE", "types": ["school", "point_of_interest", "establishment"], "user_ratings_total": 15, "vicinity": "X7XV+WRF, Barhat"}, {"business_status": "OPERATIONAL", "geometry": {"location": {"lat": 25.0043518, "lng": 86.2874265}, "viewport": {"northeast": {"lat": 25.00552598029151, "lng": 86.28877548029149}, "southwest": {"lat": 25.0028280197085, "lng": 86.28607751970848}}}, "icon": "https://maps.gstatic.com/mapfiles/place_api/icons/v1/png_71/school-71.png", "icon_background_color": "#7B9EB0", "icon_mask_base_uri": "https://maps.gstatic.com/mapfiles/place_api/icons/v2/school_pinlet", "name": "Government Basic School", "photos": [{"height": 4128, "html_attributions": ["<a href=\"https://maps.google.com/maps/contrib/118368125358301433705\">Upendra Yadav</a>"], "photo_reference": "Aap_uECMTQLtUlaX3xqriSoM21ZsjQeNfInUXe5UX4ZpYFSZjoU2P-QLE_INeomO_csaxnBDMSSajg1HiiHqyVFlssj3HFp1lDs_MJtHaRo0VduVQLnaUxKdVYI_JUmHsMKARixDlG-7_AhdJMKE9WNDCoSZtPakp0OEcmYE4D95oKybF2M2", "width": 2322}], "place_id": "ChIJpx9Am6iH8TkRXoZWpDPgibQ", "rating": 4, "reference": "ChIJpx9Am6iH8TkRXoZWpDPgibQ", "scope": "GOOGLE", "types": ["secondary_school", "school", "point_of_interest", "establishment"], "user_ratings_total": 2, "vicinity": "273P+PXV, Barhat"}, {"business_status": "OPERATIONAL", "geometry": {"location": {"lat": 25.0042711, "lng": 86.2871716}, "viewport": {"northeast": {"lat": 25.0054856302915, "lng": 86.2885343302915}, "southwest": {"lat": 25.0027876697085, "lng": 86.28583636970849}}}, "icon": "https://maps.gstatic.com/mapfiles/place_api/icons/v1/png_71/school-71.png", "icon_background_color": "#7B9EB0", "icon_mask_base_uri": "https://maps.gstatic.com/mapfiles/place_api/icons/v2/school_pinlet", "name": "R.B.V.Barhat Booth No- 150", "photos": [{"height": 1944, "html_attributions": ["<a href=\"https://maps.google.com/maps/contrib/103437892881345548510\">Jayesh Jayesh</a>"], "photo_reference": "Aap_uEDYZw6IZ7_oZ24L_3e0oeb0us6Vq9_GtdEUIgiJR7oWx28oCD3PUbUdgg8X88bvE-KDP7aPoKgSzxJyYtza3CcZuXzTIxzGFxiyueKe1kksNDlR7X831P-3e7v0qwMP8j1HOIOdtuRabFxBePD5wvppPt9McmEtU-z61fySAbSussOA", "width": 2592}], "place_id": "ChIJ8ejrnKiH8TkRKVJDysDSld8", "reference": "ChIJ8ejrnKiH8TkRKVJDysDSld8", "scope": "GOOGLE", "types": ["school", "point_of_interest", "establishment"], "vicinity": "273P+PV3, Barhat"}, {"business_status": "OPERATIONAL", "geometry": {"location": {"lat": 24.99766799999999, "lng": 86.2808447}, "viewport": {"northeast": {"lat": 24.9992851802915, "lng": 86.2823088802915}, "southwest": {"lat": 24.99658721970849, "lng": 86.27961091970849}}}, "icon": "https://maps.gstatic.com/mapfiles/place_api/icons/v1/png_71/school-71.png", "icon_background_color": "#7B9EB0", "icon_mask_base_uri": "https://maps.gstatic.com/mapfiles/place_api/icons/v2/school_pinlet", "name": "\u092a\u094d\u0930\u093e\u0966 \u0935\u093f\u0966 \u0938\u0932\u0948\u092f\u093e Booth No- 148", "opening_hours": {"open_now": false}, "place_id": "ChIJU_xFNAqH8TkRCEiJH7MOirY", "reference": "ChIJU_xFNAqH8TkRCEiJH7MOirY", "scope": "GOOGLE", "types": ["school", "point_of_interest", "establishment"], "vicinity": "X7XJ+389, Mallehpur"}, {"business_status": "OPERATIONAL", "geometry": {"location": {"lat": 25.0069239, "lng": 86.2922571}, "viewport": {"northeast": {"lat": 25.0081854802915, "lng": 86.2935901802915}, "southwest": {"lat": 25.0054875197085, "lng": 86.2908922197085}}}, "icon": "https://maps.gstatic.com/mapfiles/place_api/icons/v1/png_71/school-71.png", "icon_background_color": "#7B9EB0", "icon_mask_base_uri": "https://maps.gstatic.com/mapfiles/place_api/icons/v2/school_pinlet", "name": "High school", "place_id": "ChIJ_SWVA6yH8TkRcVoljbRckEg", "reference": "ChIJ_SWVA6yH8TkRcVoljbRckEg", "scope": "GOOGLE", "types": ["school", "point_of_interest", "establishment"], "vicinity": "274R+QW6, Barhat"}, {"business_status": "OPERATIONAL", "geometry": {"location": {"lat": 25.0069239, "lng": 86.2922574}, "viewport": {"northeast": {"lat": 25.0081854802915, "lng": 86.2935904302915}, "southwest": {"lat": 25.0054875197085, "lng": 86.2908924697085}}}, "icon": "https://maps.gstatic.com/mapfiles/place_api/icons/v1/png_71/school-71.png", "icon_background_color": "#7B9EB0", "icon_mask_base_uri": "https://maps.gstatic.com/mapfiles/place_api/icons/v2/school_pinlet", "name": "HIGH SCHOOL OF BARHAT", "opening_hours": {"open_now": false}, "photos": [{"height": 3096, "html_attributions": ["<a href=\"https://maps.google.com/maps/contrib/108142851281075600539\">Amod kumar yadav</a>"], "photo_reference": "Aap_uEAb2vGQSW2CXp18ZWLrtdd1aI0K0sz_kvQYcgwemsnH_SxJyNmHzkJk9M2GMgBEC7gn3YeogyNbvme6cU5BfQ63abgHsk8zxldIa05Tnm6I_bkIX7lkgJv-8IaTvLphN7gIqMLaKaC2U1lFLE9KsFTnova8rJsF1r3Ecj4Cn5a5omCO", "width": 4128}], "place_id": "ChIJ0y6VA6yH8TkRo3XW_LidofA", "rating": 3, "reference": "ChIJ0y6VA6yH8TkRo3XW_LidofA", "scope": "GOOGLE", "types": ["school", "point_of_interest", "establishment"], "user_ratings_total": 2, "vicinity": "274R+QW6, Barhat"}, {"business_status": "OPERATIONAL", "geometry": {"location": {"lat": 24.9890877, "lng": 86.2927479}, "viewport": {"northeast": {"lat": 24.99036828029151, "lng": 86.2943253302915}, "southwest": {"lat": 24.9876703197085, "lng": 86.2916273697085}}}, "icon": "https://maps.gstatic.com/mapfiles/place_api/icons/v1/png_71/school-71.png", "icon_background_color": "#7B9EB0", "icon_mask_base_uri": "https://maps.gstatic.com/mapfiles/place_api/icons/v2/school_pinlet", "name": "Kasturba Vidyalay Barhat Jamui", "photos": [{"height": 3096, "html_attributions": ["<a href=\"https://maps.google.com/maps/contrib/115276877293846566145\">Anshu Priya</a>"], "photo_reference": "Aap_uEBrGuSoQ1NMtHCKQqBvhym7h5XX40zFLmBsh_sPqKffvHJk2_F_sVrDQfHTM8-1trrCH64jM2oTObYSXgQkGZVVFaqD7GQls1RUK5Kj96axno4SKp9usXHEq7-wTcBqqXE_JymzrxSbUjuWllmZAnknXiFEfae-bF7tEwnH3DLju4Q", "width": 4128}], "place_id": "ChIJeTHbTQOH8TkRDapRWoIYo70", "rating": 4.5, "reference": "ChIJeTHbTQOH8TkRDapRWoIYo70", "scope": "GOOGLE", "types": ["school", "point_of_interest", "establishment"], "user_ratings_total": 2, "vicinity": "X7QV+J3Q, Kolhua"}, {"business_status": "OPERATIONAL", "geometry": {"location": {"lat": 24.9882237, "lng": 86.29230369999999}, "viewport": {"northeast": {"lat": 24.9895253302915, "lng": 86.2936557802915}, "southwest": {"lat": 24.9868273697085, "lng": 86.29095781970848}}}, "icon": "https://maps.gstatic.com/mapfiles/place_api/icons/v1/png_71/school-71.png", "icon_background_color": "#7B9EB0", "icon_mask_base_uri": "https://maps.gstatic.com/mapfiles/place_api/icons/v2/school_pinlet", "name": "Pachesari Gov School", "photos": [{"height": 1920, "html_attributions": ["<a href=\"https://maps.google.com/maps/contrib/105125329410414734613\">Subodh Y</a>"], "photo_reference": "Aap_uEC59K_8bZTTdGbfhNa47y1Jhy8aPuKx6UZJITIN5RUMiBs6SDiMTjhQ9_t4-kf5JWiVi2trtM27u6WyprjuML19uROXbjB9O-G8wFAKfsemVoh0a3QMztSF4F56sv-SRq_Kg47qI2F69eduN1ssBQrmstkRt9iiu5g7zczmmjj83dMu", "width": 1080}], "place_id": "ChIJQ1n5pqKH8TkRtYGR8Cr9yr0", "reference": "ChIJQ1n5pqKH8TkRtYGR8Cr9yr0", "scope": "GOOGLE", "types": ["school", "point_of_interest", "establishment"], "vicinity": "X7QR+7WM, pachesari"}, {"business_status": "OPERATIONAL", "geometry": {"location": {"lat": 24.9905331, "lng": 86.28014089999999}, "viewport": {"northeast": {"lat": 24.9919578302915, "lng": 86.28149403029151}, "southwest": {"lat": 24.9892598697085, "lng": 86.27879606970849}}}, "icon": "https://maps.gstatic.com/mapfiles/place_api/icons/v1/png_71/school-71.png", "icon_background_color": "#7B9EB0", "icon_mask_base_uri": "https://maps.gstatic.com/mapfiles/place_api/icons/v2/school_pinlet", "name": "\u0936\u0941\u0915\u094d\u0930\u0926\u093e\u0938 \u092f\u093e\u0926\u0935 \u092e\u0947\u092e\u094b\u0930\u093f\u092f\u0932 \u0930\u093e\u091c\u0915\u0940\u092f \u0909\u091a\u094d\u091a \u0935\u093f\u0926\u094d\u092f\u093e\u0932\u092f- \u092c\u0930\u0939\u091f \u091c\u092e\u0941\u0908", "opening_hours": {"open_now": false}, "photos": [{"height": 600, "html_attributions": ["<a href=\"https://maps.google.com/maps/contrib/105104903115574126185\">Manish Singh</a>"], "photo_reference": "Aap_uEAufxT0ykOsl-uT900MpXf3LE752eYrxGbHLYaP4ku3KuaSlChYkJ3yKgiDK7S7bsrGV0HfOoJTnaONbn1Y0rxO0rSQWKZpE1DISU651M5in6Lr7GW8vpTY9qkW2ZwnQ3IJZGnlSxGZ2qQx1sgiqmQsf8RHQVcIw64RQr5dOMx3FbF9", "width": 1520}], "place_id": "ChIJG0ZB0rWH8TkRwhwjauuz5uY", "plus_code": {"compound_code": "X7RJ+63 Mallehpur, Bihar, India", "global_code": "7MP8X7RJ+63"}, "rating": 4.3, "reference": "ChIJG0ZB0rWH8TkRwhwjauuz5uY", "scope": "GOOGLE", "types": ["school", "point_of_interest", "establishment"], "user_ratings_total": 3, "vicinity": "Mallehpur"}, {"business_status": "OPERATIONAL", "geometry": {"location": {"lat": 24.9905459, "lng": 86.28011070000001}, "viewport": {"northeast": {"lat": 24.9919648802915, "lng": 86.2814635302915}, "southwest": {"lat": 24.98926691970849, "lng": 86.2787655697085}}}, "icon": "https://maps.gstatic.com/mapfiles/place_api/icons/v1/png_71/school-71.png", "icon_background_color": "#7B9EB0", "icon_mask_base_uri": "https://maps.gstatic.com/mapfiles/place_api/icons/v2/school_pinlet", "name": "+2 S.Y.M.G HIGH SCHOOL (BARHAT)", "place_id": "ChIJCUSjiY-H8TkRKlL7rMpnwyw", "reference": "ChIJCUSjiY-H8TkRKlL7rMpnwyw", "scope": "GOOGLE", "types": ["school", "point_of_interest", "establishment"], "vicinity": "X7RJ+629, Mallehpur"}], "status": "OK"}