{"html_attributions": [], "results": [{"business_status": "OPERATIONAL", "geometry": {"location": {"lat": 24.4837535, "lng": 86.307791}, "viewport": {"northeast": {"lat": 24.48513138029151, "lng": 86.3091687802915}, "southwest": {"lat": 24.4824334197085, "lng": 86.3064708197085}}}, "icon": "https://maps.gstatic.com/mapfiles/place_api/icons/v1/png_71/school-71.png", "icon_background_color": "#7B9EB0", "icon_mask_base_uri": "https://maps.gstatic.com/mapfiles/place_api/icons/v2/school_pinlet", "name": "Saroun English Public School", "place_id": "ChIJtw3M_hJh8TkRtAmofGjoshs", "plus_code": {"compound_code": "F8M5+G4 Tola Saran Marwa, Bihar, India", "global_code": "7MP8F8M5+G4"}, "rating": 5, "reference": "ChIJtw3M_hJh8TkRtAmofGjoshs", "scope": "GOOGLE", "types": ["school", "point_of_interest", "establishment"], "user_ratings_total": 3, "vicinity": "near Kali manda, Tola Saran Marwa"}, {"business_status": "OPERATIONAL", "geometry": {"location": {"lat": 24.4694909, "lng": 86.30727379999999}, "viewport": {"northeast": {"lat": 24.4706117302915, "lng": 86.3085579802915}, "southwest": {"lat": 24.4679137697085, "lng": 86.30586001970849}}}, "icon": "https://maps.gstatic.com/mapfiles/place_api/icons/v1/png_71/school-71.png", "icon_background_color": "#7B9EB0", "icon_mask_base_uri": "https://maps.gstatic.com/mapfiles/place_api/icons/v2/school_pinlet", "name": "Anganvadi centre", "place_id": "ChIJFdUvf31f8TkRTrHVLOolL9k", "rating": 5, "reference": "ChIJFdUvf31f8TkRTrHVLOolL9k", "scope": "GOOGLE", "types": ["school", "point_of_interest", "establishment"], "user_ratings_total": 1, "vicinity": "F894+QWR, Ghutia"}, {"business_status": "OPERATIONAL", "geometry": {"location": {"lat": 24.4682905, "lng": 86.3071997}, "viewport": {"northeast": {"lat": 24.4697559802915, "lng": 86.30860433029152}, "southwest": {"lat": 24.4670580197085, "lng": 86.3059063697085}}}, "icon": "https://maps.gstatic.com/mapfiles/place_api/icons/v1/png_71/school-71.png", "icon_background_color": "#7B9EB0", "icon_mask_base_uri": "https://maps.gstatic.com/mapfiles/place_api/icons/v2/school_pinlet", "name": "Polestar Public School Saroun", "opening_hours": {"open_now": false}, "photos": [{"height": 2448, "html_attributions": ["<a href=\"https://maps.google.com/maps/contrib/102079970730130745575\">Ranjeet Kumar</a>"], "photo_reference": "Aap_uECI5MMAtNDHWiPekdEUYZ1nWEmTCyQu_N2nnU-h-8xgwVx7fT9YVXZgFCXeVEEJWPTMUoRxjVq7Tv-TD9rOBXIR2ifDveBt-bjMRX6v0c6us76OB0UqCdPn8k-ArUJ6E96Ng3jqasCql8E4jDeNqnkfvsDTRlYT3sX1Ei2dXYHfI_uE", "width": 3264}], "place_id": "ChIJSa_m-cFf8TkRCB5qHi88tnY", "plus_code": {"compound_code": "F894+8V Ghutia, Bihar, India", "global_code": "7MP8F894+8V"}, "reference": "ChIJSa_m-cFf8TkRCB5qHi88tnY", "scope": "GOOGLE", "types": ["school", "point_of_interest", "establishment"], "vicinity": "saroun ,chakai"}, {"business_status": "OPERATIONAL", "geometry": {"location": {"lat": 24.4671362, "lng": 86.3109415}, "viewport": {"northeast": {"lat": 24.4685359302915, "lng": 86.31233888029149}, "southwest": {"lat": 24.4658379697085, "lng": 86.30964091970849}}}, "icon": "https://maps.gstatic.com/mapfiles/place_api/icons/v1/png_71/school-71.png", "icon_background_color": "#7B9EB0", "icon_mask_base_uri": "https://maps.gstatic.com/mapfiles/place_api/icons/v2/school_pinlet", "name": "Ghutiya Upgraded Middle School", "place_id": "ChIJ5SVuNjte8TkRcGdULBt87q0", "reference": "ChIJ5SVuNjte8TkRcGdULBt87q0", "scope": "GOOGLE", "types": ["school", "point_of_interest", "establishment"], "vicinity": "F886+V94, Ghutia"}, {"business_status": "OPERATIONAL", "geometry": {"location": {"lat": 24.467104, "lng": 86.3109514}, "viewport": {"northeast": {"lat": 24.4685106802915, "lng": 86.3123554302915}, "southwest": {"lat": 24.4658127197085, "lng": 86.3096574697085}}}, "icon": "https://maps.gstatic.com/mapfiles/place_api/icons/v1/png_71/school-71.png", "icon_background_color": "#7B9EB0", "icon_mask_base_uri": "https://maps.gstatic.com/mapfiles/place_api/icons/v2/school_pinlet", "name": "U.M.S. Ghuthiya", "place_id": "ChIJteQ48Dhf8TkRsWtDUDZSHkQ", "reference": "ChIJteQ48Dhf8TkRsWtDUDZSHkQ", "scope": "GOOGLE", "types": ["school", "point_of_interest", "establishment"], "vicinity": "F886+R9W, Ghutia"}, {"business_status": "OPERATIONAL", "geometry": {"location": {"lat": 24.4881609, "lng": 86.30471039999999}, "viewport": {"northeast": {"lat": 24.4895828302915, "lng": 86.30591014999999}, "southwest": {"lat": 24.4868848697085, "lng": 86.30111114999998}}}, "icon": "https://maps.gstatic.com/mapfiles/place_api/icons/v1/png_71/school-71.png", "icon_background_color": "#7B9EB0", "icon_mask_base_uri": "https://maps.gstatic.com/mapfiles/place_api/icons/v2/school_pinlet", "name": "Oxford Coaching Center", "place_id": "ChIJM5xk4PFh8TkRzCk6yvZuj-E", "plus_code": {"compound_code": "F8Q3+7V Tola Saran Marwa, Bihar, India", "global_code": "7MP8F8Q3+7V"}, "reference": "ChIJM5xk4PFh8TkRzCk6yvZuj-E", "scope": "GOOGLE", "types": ["school", "point_of_interest", "establishment"], "vicinity": "tola, saroun, Charghara"}, {"business_status": "OPERATIONAL", "geometry": {"location": {"lat": 24.4891071, "lng": 86.31306699999999}, "viewport": {"northeast": {"lat": 24.4905340302915, "lng": 86.31453933029151}, "southwest": {"lat": 24.4878360697085, "lng": 86.31184136970849}}}, "icon": "https://maps.gstatic.com/mapfiles/place_api/icons/v1/png_71/school-71.png", "icon_background_color": "#7B9EB0", "icon_mask_base_uri": "https://maps.gstatic.com/mapfiles/place_api/icons/v2/school_pinlet", "name": "Madhya Vidyalaya,saroun,\u092e\u0927\u094d\u092f \u0935\u093f\u0927\u093e\u0932\u092f,\u0938\u0930\u094c\u0928", "opening_hours": {"open_now": false}, "place_id": "ChIJg953kJlg8TkRokJdBgDKcJk", "rating": 5, "reference": "ChIJg953kJlg8TkRokJdBgDKcJk", "scope": "GOOGLE", "types": ["school", "point_of_interest", "establishment"], "user_ratings_total": 2, "vicinity": "F8Q7+J6W, Tola Saran Marwa"}, {"geometry": {"location": {"lat": 24.4889668, "lng": 86.31307269999999}, "viewport": {"northeast": {"lat": 24.49034783838622, "lng": 86.31443001235057}, "southwest": {"lat": 24.48764987780322, "lng": 86.31173205176756}}}, "icon": "https://maps.gstatic.com/mapfiles/place_api/icons/v1/png_71/school-71.png", "icon_background_color": "#7B9EB0", "icon_mask_base_uri": "https://maps.gstatic.com/mapfiles/place_api/icons/v2/school_pinlet", "name": "Saraun Upgraded Middle School", "place_id": "ChIJDe_omplg8TkR_5K6y1ZsW9s", "reference": "ChIJDe_omplg8TkR_5K6y1ZsW9s", "scope": "GOOGLE", "types": ["secondary_school", "premise", "school", "establishment"], "vicinity": "Tola Saran Marwa"}], "status": "OK"}