{"html_attributions": [], "results": [{"business_status": "OPERATIONAL", "geometry": {"location": {"lat": 24.6930798, "lng": 86.3249223}, "viewport": {"northeast": {"lat": 24.6945637802915, "lng": 86.3263460802915}, "southwest": {"lat": 24.6918658197085, "lng": 86.3236481197085}}}, "icon": "https://maps.gstatic.com/mapfiles/place_api/icons/v1/png_71/school-71.png", "icon_background_color": "#7B9EB0", "icon_mask_base_uri": "https://maps.gstatic.com/mapfiles/place_api/icons/v2/school_pinlet", "name": "De Nobili Public School", "opening_hours": {"open_now": false}, "photos": [{"height": 3000, "html_attributions": ["<a href=\"https://maps.google.com/maps/contrib/114935288753562690547\">Suprabhat kumar</a>"], "photo_reference": "Aap_uEAqKmR1xp9pDg8yr_5zRuPWmRxvQ7NZY-6eLG2XZ34_7qosVWmc4Ng-owodBQ97U07GttXnHFvXaY-m1tZfz8vmuG0Fn8DLvllwwn9M5ITAMfylF5aTcXaqIzuZZVQY2nIT7pi78LX-KFxnBMdjetRsWqYzhy6VePb6_71cIe5wbRXT", "width": 4000}], "place_id": "ChIJTdOkHQV98TkRejZ_dzBVQUQ", "reference": "ChIJTdOkHQV98TkRejZ_dzBVQUQ", "scope": "GOOGLE", "types": ["school", "point_of_interest", "establishment"], "vicinity": "M8VF+6XM, Khaparia"}, {"business_status": "OPERATIONAL", "geometry": {"location": {"lat": 24.69782339999999, "lng": 86.3224396}, "viewport": {"northeast": {"lat": 24.6991389302915, "lng": 86.3238228302915}, "southwest": {"lat": 24.69644096970849, "lng": 86.3211248697085}}}, "icon": "https://maps.gstatic.com/mapfiles/place_api/icons/v1/png_71/school-71.png", "icon_background_color": "#7B9EB0", "icon_mask_base_uri": "https://maps.gstatic.com/mapfiles/place_api/icons/v2/school_pinlet", "name": "Radheshyam Music Shop", "place_id": "ChIJFRowU-J98TkRU1o8FRq0UaE", "reference": "ChIJFRowU-J98TkRU1o8FRq0UaE", "scope": "GOOGLE", "types": ["school", "point_of_interest", "establishment"], "vicinity": "M8XC+4XG, Tola Rajpur"}, {"business_status": "OPERATIONAL", "geometry": {"location": {"lat": 24.6993592, "lng": 86.3223277}, "viewport": {"northeast": {"lat": 24.7006641302915, "lng": 86.3234512302915}, "southwest": {"lat": 24.6979661697085, "lng": 86.32075326970849}}}, "icon": "https://maps.gstatic.com/mapfiles/place_api/icons/v1/png_71/school-71.png", "icon_background_color": "#7B9EB0", "icon_mask_base_uri": "https://maps.gstatic.com/mapfiles/place_api/icons/v2/school_pinlet", "name": "Kailash stor", "place_id": "ChIJHarYwfh98TkRU0UZR03JczQ", "reference": "ChIJHarYwfh98TkRU0UZR03JczQ", "scope": "GOOGLE", "types": ["school", "point_of_interest", "establishment"], "vicinity": "M8XC+PWW, Tola Dumri Khas"}, {"business_status": "OPERATIONAL", "geometry": {"location": {"lat": 24.6994844, "lng": 86.3222636}, "viewport": {"northeast": {"lat": 24.7007267302915, "lng": 86.32341918029151}, "southwest": {"lat": 24.6980287697085, "lng": 86.32072121970849}}}, "icon": "https://maps.gstatic.com/mapfiles/place_api/icons/v1/png_71/school-71.png", "icon_background_color": "#7B9EB0", "icon_mask_base_uri": "https://maps.gstatic.com/mapfiles/place_api/icons/v2/school_pinlet", "name": "mahendra das home harwpari", "place_id": "ChIJ_YDLOlx98TkR0hDr7jZmu4w", "reference": "ChIJ_YDLOlx98TkR0hDr7jZmu4w", "scope": "GOOGLE", "types": ["school", "point_of_interest", "establishment"], "vicinity": "M8XC+QWR, Tola Dumri Khas"}, {"business_status": "OPERATIONAL", "geometry": {"location": {"lat": 24.7008926, "lng": 86.32177879999999}, "viewport": {"northeast": {"lat": 24.7021567302915, "lng": 86.3231785802915}, "southwest": {"lat": 24.6994587697085, "lng": 86.32048061970849}}}, "icon": "https://maps.gstatic.com/mapfiles/place_api/icons/v1/png_71/school-71.png", "icon_background_color": "#7B9EB0", "icon_mask_base_uri": "https://maps.gstatic.com/mapfiles/place_api/icons/v2/school_pinlet", "name": "Shri Jageshwar Yadav Bhavan", "place_id": "ChIJx4z5Ecd98TkRHqTUl5Sy2X0", "reference": "ChIJx4z5Ecd98TkRHqTUl5Sy2X0", "scope": "GOOGLE", "types": ["school", "point_of_interest", "establishment"], "vicinity": "P82C+9P2, Tola Dumri Khas"}, {"business_status": "OPERATIONAL", "geometry": {"location": {"lat": 24.6941281, "lng": 86.3198718}, "viewport": {"northeast": {"lat": 24.6953116302915, "lng": 86.32119853029151}, "southwest": {"lat": 24.6926136697085, "lng": 86.31850056970849}}}, "icon": "https://maps.gstatic.com/mapfiles/place_api/icons/v1/png_71/school-71.png", "icon_background_color": "#7B9EB0", "icon_mask_base_uri": "https://maps.gstatic.com/mapfiles/place_api/icons/v2/school_pinlet", "name": "\u0909\u0924\u094d\u0915\u094d\u0930\u092e\u093f\u0924 \u092e\u0927\u094d\u092f \u0935\u093f\u0926\u094d\u092f\u093e\u0932\u092f,\u091a\u093e\u0928\u0928\u091f\u093e\u0901\u0921\u093c", "opening_hours": {"open_now": true}, "place_id": "ChIJCeQApL598TkRy0IbcAmLsa4", "plus_code": {"compound_code": "M8V9+MW Tola Silauna, Bihar, India", "global_code": "7MP8M8V9+MW"}, "rating": 4.5, "reference": "ChIJCeQApL598TkRy0IbcAmLsa4", "scope": "GOOGLE", "types": ["school", "point_of_interest", "establishment"], "user_ratings_total": 2, "vicinity": "National Highway 333, Tola Silauna"}, {"business_status": "OPERATIONAL", "geometry": {"location": {"lat": 24.691718, "lng": 86.3180026}, "viewport": {"northeast": {"lat": 24.6950951, "lng": 86.3195073302915}, "southwest": {"lat": 24.6905923, "lng": 86.3168093697085}}}, "icon": "https://maps.gstatic.com/mapfiles/place_api/icons/v1/png_71/school-71.png", "icon_background_color": "#7B9EB0", "icon_mask_base_uri": "https://maps.gstatic.com/mapfiles/place_api/icons/v2/school_pinlet", "name": "Samsan Ghat Chanantar", "photos": [{"height": 1363, "html_attributions": ["<a href=\"https://maps.google.com/maps/contrib/107995645219590660381\">Govind Kumar</a>"], "photo_reference": "Aap_uEDmPLtc91QJtvKk-4fczkC120F2Je5OIJ3BqJ3on6Fmy-fM63MhWYFUhpOHGfMSuM_bmsUS0L86Aj1F4fp3OytenNU9MK2BSSR3K_ZFqpVGg9Q0WXjMoZGY3iPXrRaikOwQN5gZ07NAJkfDe4yrStyJ2aXerI1r8SuCXIUIZjQOc0fh", "width": 640}], "place_id": "ChIJ99GYEN998TkRexPCp7QUyco", "reference": "ChIJ99GYEN998TkRexPCp7QUyco", "scope": "GOOGLE", "types": ["school", "point_of_interest", "establishment"], "vicinity": "M8R9+M6J, Tola Rajpur"}], "status": "OK"}