{"html_attributions": [], "results": [{"business_status": "OPERATIONAL", "geometry": {"location": {"lat": 24.8932447, "lng": 86.3237317}, "viewport": {"northeast": {"lat": 24.89450513029151, "lng": 86.32470735}, "southwest": {"lat": 24.8918071697085, "lng": 86.32080475}}}, "icon": "https://maps.gstatic.com/mapfiles/place_api/icons/v1/png_71/school-71.png", "icon_background_color": "#7B9EB0", "icon_mask_base_uri": "https://maps.gstatic.com/mapfiles/place_api/icons/v2/school_pinlet", "name": "Genadih sri ram pandal", "photos": [{"height": 479, "html_attributions": ["<a href=\"https://maps.google.com/maps/contrib/105604245523735729763\">yadav Dharmendar Kumar</a>"], "photo_reference": "Aap_uEAzRTNA7LaG14Y3bMvT3_iLu8kRom3d4nO4WQEBWMN-tKQ6kcoaXTG744m_vfqcng_3dQPOb8CF7B8qs2_WASxQ9ICroey3lY-opRVKcu_RqJfzD1Qo13JgqbzjqtA7TPeWwgMYlTa8Fdxu1ZcUgBudyNEDJoymRYqNrv9NkEwRI0eP", "width": 480}], "place_id": "ChIJVwSlYQaB8TkRbMQ6QeiOAkE", "reference": "ChIJVwSlYQaB8TkRbMQ6QeiOAkE", "scope": "GOOGLE", "types": ["school", "point_of_interest", "establishment"], "vicinity": "V8VF+7FX, Genadih"}, {"business_status": "OPERATIONAL", "geometry": {"location": {"lat": 24.89382239999999, "lng": 86.3215049}, "viewport": {"northeast": {"lat": 24.8951133802915, "lng": 86.32285633029151}, "southwest": {"lat": 24.8924154197085, "lng": 86.32015836970851}}}, "icon": "https://maps.gstatic.com/mapfiles/place_api/icons/v1/png_71/school-71.png", "icon_background_color": "#7B9EB0", "icon_mask_base_uri": "https://maps.gstatic.com/mapfiles/place_api/icons/v2/school_pinlet", "name": "Prathmik Vidyalya, Ramakurab", "opening_hours": {"open_now": false}, "place_id": "ChIJFx5sTKWB8TkR6SSpon_t3pQ", "reference": "ChIJFx5sTKWB8TkR6SSpon_t3pQ", "scope": "GOOGLE", "types": ["school", "point_of_interest", "establishment"], "vicinity": "V8VC+GJC, Ramakurab"}, {"business_status": "OPERATIONAL", "geometry": {"location": {"lat": 24.889001, "lng": 86.3256938}, "viewport": {"northeast": {"lat": 24.8903571302915, "lng": 86.3270448802915}, "southwest": {"lat": 24.8876591697085, "lng": 86.32434691970849}}}, "icon": "https://maps.gstatic.com/mapfiles/place_api/icons/v1/png_71/school-71.png", "icon_background_color": "#7B9EB0", "icon_mask_base_uri": "https://maps.gstatic.com/mapfiles/place_api/icons/v2/school_pinlet", "name": "UTKRAMIT MADHY VIDYAALAY KURAW", "place_id": "ChIJXajVc-iB8TkR9J9jF_3Ap20", "reference": "ChIJXajVc-iB8TkR9J9jF_3Ap20", "scope": "GOOGLE", "types": ["primary_school", "school", "point_of_interest", "establishment"], "vicinity": "V8QG+J74, Ratanpur"}, {"business_status": "OPERATIONAL", "geometry": {"location": {"lat": 24.88895399999999, "lng": 86.3256112}, "viewport": {"northeast": {"lat": 24.8903530302915, "lng": 86.3269748302915}, "southwest": {"lat": 24.88765506970849, "lng": 86.3242768697085}}}, "icon": "https://maps.gstatic.com/mapfiles/place_api/icons/v1/png_71/school-71.png", "icon_background_color": "#7B9EB0", "icon_mask_base_uri": "https://maps.gstatic.com/mapfiles/place_api/icons/v2/school_pinlet", "name": "Middle school kuraw", "place_id": "ChIJiftoWCOB8TkR14j8j57DH1Y", "plus_code": {"compound_code": "V8QG+H6 Ratanpur, Bihar, India", "global_code": "7MP8V8QG+H6"}, "rating": 3, "reference": "ChIJiftoWCOB8TkR14j8j57DH1Y", "scope": "GOOGLE", "types": ["school", "point_of_interest", "establishment"], "user_ratings_total": 1, "vicinity": "Unnamed Road, Ratanpur"}, {"business_status": "OPERATIONAL", "geometry": {"location": {"lat": 24.9079056, "lng": 86.32580109999999}, "viewport": {"northeast": {"lat": 24.9090595802915, "lng": 86.3268748302915}, "southwest": {"lat": 24.9063616197085, "lng": 86.3241768697085}}}, "icon": "https://maps.gstatic.com/mapfiles/place_api/icons/v1/png_71/school-71.png", "icon_background_color": "#7B9EB0", "icon_mask_base_uri": "https://maps.gstatic.com/mapfiles/place_api/icons/v2/school_pinlet", "name": "\u0909\u092a\u0947\u0902\u0926\u094d\u0930 \u092e\u0902\u0921\u0932 (\u092a\u0932\u0902\u0935\u0930 \u092e\u093f\u0938\u094d\u0930\u0940)", "place_id": "ChIJgxfR60yB8TkRH8x53t9zo8w", "reference": "ChIJgxfR60yB8TkRH8x53t9zo8w", "scope": "GOOGLE", "types": ["school", "point_of_interest", "establishment"], "vicinity": "W85G+587, Purbi Guguldih"}, {"business_status": "OPERATIONAL", "geometry": {"location": {"lat": 24.9053704, "lng": 86.3211985}, "viewport": {"northeast": {"lat": 24.9067467302915, "lng": 86.3225623802915}, "southwest": {"lat": 24.9040487697085, "lng": 86.31986441970848}}}, "icon": "https://maps.gstatic.com/mapfiles/place_api/icons/v1/png_71/school-71.png", "icon_background_color": "#7B9EB0", "icon_mask_base_uri": "https://maps.gstatic.com/mapfiles/place_api/icons/v2/school_pinlet", "name": "UPGRADE URDU MIDDLE SCHOOL GUGULDIH", "place_id": "ChIJMTpfcZ6B8TkRHWYutSdHZe4", "plus_code": {"compound_code": "W84C+4F Purbi Guguldih, Bihar, India", "global_code": "7MP8W84C+4F"}, "reference": "ChIJMTpfcZ6B8TkRHWYutSdHZe4", "scope": "GOOGLE", "types": ["school", "point_of_interest", "establishment"], "vicinity": "Chandrasekhar Road, Purbi Guguldih"}], "status": "OK"}