{"html_attributions": [], "results": [{"business_status": "OPERATIONAL", "geometry": {"location": {"lat": 24.5443125, "lng": 86.35850429999999}, "viewport": {"northeast": {"lat": 24.54577813029151, "lng": 86.35939609999998}, "southwest": {"lat": 24.5430801697085, "lng": 86.3558289}}}, "icon": "https://maps.gstatic.com/mapfiles/place_api/icons/v1/png_71/school-71.png", "icon_background_color": "#7B9EB0", "icon_mask_base_uri": "https://maps.gstatic.com/mapfiles/place_api/icons/v2/school_pinlet", "name": "Madhya Vidyalaya,Tola Simaria", "place_id": "ChIJV6iM5-lm8TkRdcNR0f7272k", "plus_code": {"compound_code": "G9V5+PC Tola Simaria, Bihar, India", "global_code": "7MP8G9V5+PC"}, "rating": 1, "reference": "ChIJV6iM5-lm8TkRdcNR0f7272k", "scope": "GOOGLE", "types": ["school", "point_of_interest", "establishment"], "user_ratings_total": 2, "vicinity": "Jamua - Deoghar Road, Tola Simaria"}, {"business_status": "OPERATIONAL", "geometry": {"location": {"lat": 24.5346571, "lng": 86.3507188}, "viewport": {"northeast": {"lat": 24.5359143302915, "lng": 86.3520616302915}, "southwest": {"lat": 24.5332163697085, "lng": 86.3493636697085}}}, "icon": "https://maps.gstatic.com/mapfiles/place_api/icons/v1/png_71/school-71.png", "icon_background_color": "#7B9EB0", "icon_mask_base_uri": "https://maps.gstatic.com/mapfiles/place_api/icons/v2/school_pinlet", "name": "Nawada government school", "place_id": "ChIJwzptRz1n8TkRBEsD49TEDaQ", "plus_code": {"compound_code": "G9M2+V7 Tola Nawada, Bihar, India", "global_code": "7MP8G9M2+V7"}, "rating": 5, "reference": "ChIJwzptRz1n8TkRBEsD49TEDaQ", "scope": "GOOGLE", "types": ["school", "point_of_interest", "establishment"], "user_ratings_total": 1, "vicinity": "Unnamed Road, Tola Nawada"}, {"business_status": "OPERATIONAL", "geometry": {"location": {"lat": 24.5341874, "lng": 86.3423262}, "viewport": {"northeast": {"lat": 24.5355691302915, "lng": 86.3437019302915}, "southwest": {"lat": 24.5328711697085, "lng": 86.3410039697085}}}, "icon": "https://maps.gstatic.com/mapfiles/place_api/icons/v1/png_71/school-71.png", "icon_background_color": "#7B9EB0", "icon_mask_base_uri": "https://maps.gstatic.com/mapfiles/place_api/icons/v2/school_pinlet", "name": "Madhy Vidyalay Batpar", "place_id": "ChIJibkW-9Nm8TkRt4cfAH14UIs", "rating": 5, "reference": "ChIJibkW-9Nm8TkRt4cfAH14UIs", "scope": "GOOGLE", "types": ["school", "point_of_interest", "establishment"], "user_ratings_total": 1, "vicinity": "G8MR+MWG, Tola Nawadih"}, {"business_status": "OPERATIONAL", "geometry": {"location": {"lat": 24.53432459999999, "lng": 86.34212740000001}, "viewport": {"northeast": {"lat": 24.5357053802915, "lng": 86.34350238029151}, "southwest": {"lat": 24.53300741970849, "lng": 86.3408044197085}}}, "icon": "https://maps.gstatic.com/mapfiles/place_api/icons/v1/png_71/school-71.png", "icon_background_color": "#7B9EB0", "icon_mask_base_uri": "https://maps.gstatic.com/mapfiles/place_api/icons/v2/school_pinlet", "name": "\u0938\u0902\u0915\u0941\u0932 \u0938\u0902\u0938\u093e\u0927\u0928 \u092e\u0927\u094d\u092f \u0935\u093f\u0926\u094d\u092f\u093e\u0932\u092f \u0938\u0930\u0938\u094d\u0935\u0924\u0940 \u092c\u091f\u092a\u093e\u0930", "photos": [{"height": 770, "html_attributions": ["<a href=\"https://maps.google.com/maps/contrib/108503480120912431505\">UNIQUE NATION ACADEMY</a>"], "photo_reference": "Aap_uEBkaOgDe5LpxLZhYAcQV2mxkWpcuN3SZPbxOLe3GBJdegUJA0hEl1gw111kLyGBL9tBLw2RD5nryZvbAkySC5gEKgAPZojkY13mkW_R5_R7s5vhz5Us9Jk-HY_Qm5bhxko_f1thmrFviclmEon-Py7HZv1G_3nvQnBWGazJi1C13dfs", "width": 2140}], "place_id": "ChIJnZxMhBFn8TkRgfiWwNVWA0o", "rating": 4, "reference": "ChIJnZxMhBFn8TkRgfiWwNVWA0o", "scope": "GOOGLE", "types": ["school", "point_of_interest", "establishment"], "user_ratings_total": 1, "vicinity": "G8MR+PVC, Tola Nawadih"}, {"business_status": "OPERATIONAL", "geometry": {"location": {"lat": 24.5278794, "lng": 86.35541979999999}, "viewport": {"northeast": {"lat": 24.52915073029151, "lng": 86.3567985802915}, "southwest": {"lat": 24.5264527697085, "lng": 86.35410061970849}}}, "icon": "https://maps.gstatic.com/mapfiles/place_api/icons/v1/png_71/school-71.png", "icon_background_color": "#7B9EB0", "icon_mask_base_uri": "https://maps.gstatic.com/mapfiles/place_api/icons/v2/school_pinlet", "name": "U K M SCHOOL RAHMANPUR PAKRI", "place_id": "ChIJDUysHZxn8TkRgntlPdQjgGs", "plus_code": {"compound_code": "G9H4+55 Tola Nawada, Bihar, India", "global_code": "7MP8G9H4+55"}, "rating": 5, "reference": "ChIJDUysHZxn8TkRgntlPdQjgGs", "scope": "GOOGLE", "types": ["school", "point_of_interest", "establishment"], "user_ratings_total": 1, "vicinity": "Unnamed Road, Tola Nawada"}, {"business_status": "OPERATIONAL", "geometry": {"location": {"lat": 24.5434488, "lng": 86.3617927}, "viewport": {"northeast": {"lat": 24.5448559802915, "lng": 86.3629942302915}, "southwest": {"lat": 24.5421580197085, "lng": 86.36029626970848}}}, "icon": "https://maps.gstatic.com/mapfiles/place_api/icons/v1/png_71/school-71.png", "icon_background_color": "#7B9EB0", "icon_mask_base_uri": "https://maps.gstatic.com/mapfiles/place_api/icons/v2/school_pinlet", "name": "High School Simariya Bishnupur", "place_id": "ChIJCdfjOwNn8TkRwDPD5nhFXzk", "rating": 5, "reference": "ChIJCdfjOwNn8TkRwDPD5nhFXzk", "scope": "GOOGLE", "types": ["school", "point_of_interest", "establishment"], "user_ratings_total": 1, "vicinity": "G9V6+9PF, Tola Simaria"}], "status": "OK"}