{"html_attributions": [], "results": [{"business_status": "OPERATIONAL", "geometry": {"location": {"lat": 24.831342, "lng": 86.3557376}, "viewport": {"northeast": {"lat": 24.8326921302915, "lng": 86.35707138029152}, "southwest": {"lat": 24.8299941697085, "lng": 86.3543734197085}}}, "icon": "https://maps.gstatic.com/mapfiles/place_api/icons/v1/png_71/school-71.png", "icon_background_color": "#7B9EB0", "icon_mask_base_uri": "https://maps.gstatic.com/mapfiles/place_api/icons/v2/school_pinlet", "name": "Rajkot is Uchch Vidyalay", "place_id": "ChIJgXQs6-d58TkRbFpeRkT992k", "reference": "ChIJgXQs6-d58TkRbFpeRkT992k", "scope": "GOOGLE", "types": ["school", "point_of_interest", "establishment"], "vicinity": "R9J4+G7Q, Machhendra"}, {"business_status": "OPERATIONAL", "geometry": {"location": {"lat": 24.8353213, "lng": 86.3396759}, "viewport": {"northeast": {"lat": 24.8367294302915, "lng": 86.3410788802915}, "southwest": {"lat": 24.8340314697085, "lng": 86.3383809197085}}}, "icon": "https://maps.gstatic.com/mapfiles/place_api/icons/v1/png_71/school-71.png", "icon_background_color": "#7B9EB0", "icon_mask_base_uri": "https://maps.gstatic.com/mapfiles/place_api/icons/v2/school_pinlet", "name": "Hanuman Mandir", "place_id": "ChIJe8DCBrV58TkREIk5djnOem8", "rating": 3, "reference": "ChIJe8DCBrV58TkREIk5djnOem8", "scope": "GOOGLE", "types": ["school", "point_of_interest", "establishment"], "user_ratings_total": 1, "vicinity": "R8PQ+4VF, Ramdaspur"}, {"business_status": "OPERATIONAL", "geometry": {"location": {"lat": 24.834542, "lng": 86.339662}, "viewport": {"northeast": {"lat": 24.8359413802915, "lng": 86.34103283029151}, "southwest": {"lat": 24.8332434197085, "lng": 86.33833486970849}}}, "icon": "https://maps.gstatic.com/mapfiles/place_api/icons/v1/png_71/school-71.png", "icon_background_color": "#7B9EB0", "icon_mask_base_uri": "https://maps.gstatic.com/mapfiles/place_api/icons/v2/school_pinlet", "name": "Government High School", "opening_hours": {"open_now": false}, "place_id": "ChIJe2gLjcp48TkRb13L0ZpA_Wo", "plus_code": {"compound_code": "R8MQ+RV Sansarpur, Bihar, India", "global_code": "7MP8R8MQ+RV"}, "reference": "ChIJe2gLjcp48TkRb13L0ZpA_Wo", "scope": "GOOGLE", "types": ["secondary_school", "school", "point_of_interest", "establishment"], "vicinity": "Kaisopur, Dadpur, Jamui, NH-333, Jamui Road, Jamui, Jamui"}, {"business_status": "OPERATIONAL", "geometry": {"location": {"lat": 24.8341212, "lng": 86.3392796}, "viewport": {"northeast": {"lat": 24.8355110802915, "lng": 86.3403634302915}, "southwest": {"lat": 24.8328131197085, "lng": 86.3376654697085}}}, "icon": "https://maps.gstatic.com/mapfiles/place_api/icons/v1/png_71/school-71.png", "icon_background_color": "#7B9EB0", "icon_mask_base_uri": "https://maps.gstatic.com/mapfiles/place_api/icons/v2/school_pinlet", "name": "K. H. B. High School Keshopur", "opening_hours": {"open_now": false}, "place_id": "ChIJoc127Mp48TkRbiiRqo7KtL4", "rating": 4.8, "reference": "ChIJoc127Mp48TkRbiiRqo7KtL4", "scope": "GOOGLE", "types": ["school", "point_of_interest", "establishment"], "user_ratings_total": 6, "vicinity": "R8MQ+JPR, Sansarpur"}, {"business_status": "OPERATIONAL", "geometry": {"location": {"lat": 24.8346638, "lng": 86.33859590000002}, "viewport": {"northeast": {"lat": 24.8359975802915, "lng": 86.33989608029152}, "southwest": {"lat": 24.83329961970849, "lng": 86.3371981197085}}}, "icon": "https://maps.gstatic.com/mapfiles/place_api/icons/v1/png_71/school-71.png", "icon_background_color": "#7B9EB0", "icon_mask_base_uri": "https://maps.gstatic.com/mapfiles/place_api/icons/v2/school_pinlet", "name": "Keshavpur middle school", "photos": [{"height": 4000, "html_attributions": ["<a href=\"https://maps.google.com/maps/contrib/101396964445404937248\">Rishi Kumar</a>"], "photo_reference": "Aap_uEAHDQHIGkZ4swLvrqJzDV7gSe_u09nzKI2na84cAnr_l5sJZlhOV8xA1G07DIlcVP6F7wem6__hL1pwRoGxG9O5RTOP5iHiyhGedcMst71VhSC1RJexzIobmzxw1shDCRUAMYHxP35V2i0FcyliTm3ZFJhtrI0e7g-ydl5o5rgfy_T7", "width": 3000}], "place_id": "ChIJzQkfn0F58TkReMKXnzmECN8", "plus_code": {"compound_code": "R8MQ+VC Ketru Nawada, Bihar, India", "global_code": "7MP8R8MQ+VC"}, "reference": "ChIJzQkfn0F58TkReMKXnzmECN8", "scope": "GOOGLE", "types": ["school", "point_of_interest", "establishment"], "vicinity": "State Highway 18, Ketru Nawada"}], "status": "OK"}