{"html_attributions": [], "results": [{"business_status": "OPERATIONAL", "geometry": {"location": {"lat": 24.477579, "lng": 86.3608083}, "viewport": {"northeast": {"lat": 24.4788586802915, "lng": 86.36215273029151}, "southwest": {"lat": 24.4761607197085, "lng": 86.35945476970849}}}, "icon": "https://maps.gstatic.com/mapfiles/place_api/icons/v1/png_71/school-71.png", "icon_background_color": "#7B9EB0", "icon_mask_base_uri": "https://maps.gstatic.com/mapfiles/place_api/icons/v2/school_pinlet", "name": "N.p.school Nawadih", "photos": [{"height": 774, "html_attributions": ["<a href=\"https://maps.google.com/maps/contrib/118160106638787617819\">Anil kumar verma</a>"], "photo_reference": "Aap_uEAladV-I9qgvUbdU9eLQ0tfufBqjaGbg_nW1NYEymyTDJeSED8hjllYRMT1-Y9Xj9K_BlL2_uNRbqHJIWt9aFn-c799MFPflvEyvVhdCZPgCq0uck1TPyzzYPn5vY24zJqVASLKk2dfQ5hXyWtYU6AfyXBrvZPkR27gCJLiVxqp88l9", "width": 1032}], "place_id": "ChIJd_u9rItd8TkRDp7vUVPziZQ", "rating": 3, "reference": "ChIJd_u9rItd8TkRDp7vUVPziZQ", "scope": "GOOGLE", "types": ["school", "point_of_interest", "establishment"], "user_ratings_total": 2, "vicinity": "F9H6+28M, Tola Nawadih"}, {"business_status": "OPERATIONAL", "geometry": {"location": {"lat": 24.4720037, "lng": 86.36052699999999}, "viewport": {"northeast": {"lat": 24.4732247302915, "lng": 86.3619479302915}, "southwest": {"lat": 24.4705267697085, "lng": 86.3592499697085}}}, "icon": "https://maps.gstatic.com/mapfiles/place_api/icons/v1/png_71/school-71.png", "icon_background_color": "#7B9EB0", "icon_mask_base_uri": "https://maps.gstatic.com/mapfiles/place_api/icons/v2/school_pinlet", "name": "Marhi secondary high school", "place_id": "ChIJlyuIp11d8TkRASrbA2WCJlM", "plus_code": {"compound_code": "F9C6+R6 Tola Nawadih, Bihar, India", "global_code": "7MP8F9C6+R6"}, "reference": "ChIJlyuIp11d8TkRASrbA2WCJlM", "scope": "GOOGLE", "types": ["school", "point_of_interest", "establishment"], "vicinity": "Chakia - Basbutti Road, Tola Nawadih"}, {"geometry": {"location": {"lat": 24.4723718, "lng": 86.3608818}, "viewport": {"northeast": {"lat": 24.47371915246418, "lng": 86.36221356581234}, "southwest": {"lat": 24.47102119188118, "lng": 86.35951560522933}}}, "icon": "https://maps.gstatic.com/mapfiles/place_api/icons/v1/png_71/school-71.png", "icon_background_color": "#7B9EB0", "icon_mask_base_uri": "https://maps.gstatic.com/mapfiles/place_api/icons/v2/school_pinlet", "name": "Basbutti Middle School", "place_id": "ChIJH1udUIxd8TkRmsWtVuTtalA", "reference": "ChIJH1udUIxd8TkRmsWtVuTtalA", "scope": "GOOGLE", "types": ["secondary_school", "premise", "school", "establishment"], "vicinity": "Tola Basbutti"}], "status": "OK"}