{"html_attributions": [], "next_page_token": "Aap_uEDcIaUejWq2mVtHx3NAfWqVf2eYr7gT8PzTavJGImq_tfLq-DI0I0TT691y_udYI8YtJANbAZvW0wqLThbMyRxrUH5h_a0nVqVuiOb4zdT8vNY7GKql73TTkIDi464-m7UsTp7kt6qUUd9UBMTtK3rQ4CdDlYXlpHBAjvE-QOp8xbgnzGSOgH-t5Kcfscp6xTNE050C4mq0VW7QgLa97Hpf3ufM2_SBHyYDcmLyiEyU7J9XG1v7WTuYdyjuWBd6SNnwdqar2b62Hrtq-Y4cFlRypzsKNi5rHdfqzFBd-Dk54l3tjlX_T_-SxjyjHYyIW0Y3SKirq8HCwB6JFJpKJ_Bxez7NzCWaZzxhSQUnLyNyvyFOJ0gnLT0hW7aSTEPYjBrFdk4p82xDbsy9Sk7efRPX_jbo1YcWyjPfac_foB3nPM1VlVFmLsIlVkEsIKKdmKlWdcXrgxgrAP1SttnJCTsK7MvkvCTbqZpm3NCCsmlVqMrSLHUYxdO0nrJtL8llMT4Cp42WKGkvEutr0AeZa7mu23sHwsl0wBxVrR1eoi9xdu77-XWOkyXZxUuwE9rj4SMAEbRXDP66natU_oOafvbsMVRAK5UOuXWvHkl1hWyVF5ZzYWu5lpU59k50EYFIJIiP3fzr", "results": [{"business_status": "OPERATIONAL", "geometry": {"location": {"lat": 24.7744999, "lng": 86.3756867}, "viewport": {"northeast": {"lat": 24.7758536802915, "lng": 86.37704198029151}, "southwest": {"lat": 24.77315571970849, "lng": 86.3743440197085}}}, "icon": "https://maps.gstatic.com/mapfiles/place_api/icons/v1/png_71/school-71.png", "icon_background_color": "#7B9EB0", "icon_mask_base_uri": "https://maps.gstatic.com/mapfiles/place_api/icons/v2/school_pinlet", "name": "BASUDEV SHUP STORE NARGANJO", "place_id": "ChIJZRRaUYt58TkRdD8VGfftktc", "reference": "ChIJZRRaUYt58TkRdD8VGfftktc", "scope": "GOOGLE", "types": ["school", "point_of_interest", "establishment"], "vicinity": "Q9FG+Q7V, Narganjo, Jhajha"}, {"business_status": "CLOSED_TEMPORARILY", "geometry": {"location": {"lat": 24.7744999, "lng": 86.3756867}, "viewport": {"northeast": {"lat": 24.7758536802915, "lng": 86.37704198029151}, "southwest": {"lat": 24.77315571970849, "lng": 86.3743440197085}}}, "icon": "https://maps.gstatic.com/mapfiles/place_api/icons/v1/png_71/school-71.png", "icon_background_color": "#7B9EB0", "icon_mask_base_uri": "https://maps.gstatic.com/mapfiles/place_api/icons/v2/school_pinlet", "name": "International Public School", "permanently_closed": true, "place_id": "ChIJq6qqqnl58TkRphpc5n9_jME", "reference": "ChIJq6qqqnl58TkRphpc5n9_jME", "scope": "GOOGLE", "types": ["school", "point_of_interest", "establishment"], "vicinity": "NEAR POST OFFICE KARHARA, Jhajha"}, {"business_status": "OPERATIONAL", "geometry": {"location": {"lat": 24.7744999, "lng": 86.3756867}, "viewport": {"northeast": {"lat": 24.7758536802915, "lng": 86.37704198029151}, "southwest": {"lat": 24.77315571970849, "lng": 86.3743440197085}}}, "icon": "https://maps.gstatic.com/mapfiles/place_api/icons/v1/png_71/school-71.png", "icon_background_color": "#7B9EB0", "icon_mask_base_uri": "https://maps.gstatic.com/mapfiles/place_api/icons/v2/school_pinlet", "name": "Ranjeet premi Official", "place_id": "ChIJvdvoA0p58TkRYvTiUXCgFlE", "plus_code": {"compound_code": "Q9FG+Q7 Jhajha, Bihar, India", "global_code": "7MP8Q9FG+Q7"}, "reference": "ChIJvdvoA0p58TkRYvTiUXCgFlE", "scope": "GOOGLE", "types": ["school", "point_of_interest", "establishment"], "vicinity": "baijalpura, Jhajha"}, {"business_status": "OPERATIONAL", "geometry": {"location": {"lat": 24.7744999, "lng": 86.3756867}, "viewport": {"northeast": {"lat": 24.7758536802915, "lng": 86.37704198029151}, "southwest": {"lat": 24.77315571970849, "lng": 86.3743440197085}}}, "icon": "https://maps.gstatic.com/mapfiles/place_api/icons/v1/png_71/school-71.png", "icon_background_color": "#7B9EB0", "icon_mask_base_uri": "https://maps.gstatic.com/mapfiles/place_api/icons/v2/school_pinlet", "name": "Lalchand shekh", "place_id": "ChIJbYlF98Z58TkRXz0y1HpNP3I", "reference": "ChIJbYlF98Z58TkRXz0y1HpNP3I", "scope": "GOOGLE", "types": ["school", "point_of_interest", "establishment"], "vicinity": "Q9FG+Q7V, Jhajha"}, {"business_status": "OPERATIONAL", "geometry": {"location": {"lat": 24.7744999, "lng": 86.3756867}, "viewport": {"northeast": {"lat": 24.7758536802915, "lng": 86.37704198029151}, "southwest": {"lat": 24.77315571970849, "lng": 86.3743440197085}}}, "icon": "https://maps.gstatic.com/mapfiles/place_api/icons/v1/png_71/school-71.png", "icon_background_color": "#7B9EB0", "icon_mask_base_uri": "https://maps.gstatic.com/mapfiles/place_api/icons/v2/school_pinlet", "name": "Ajit kr", "photos": [{"height": 980, "html_attributions": ["<a href=\"https://maps.google.com/maps/contrib/106022038276851576807\">AJIT KUMAR</a>"], "photo_reference": "Aap_uEB6nCZA1WbQqPf5BQ5Y6syDEIMEu44_K_2mLm84DIRxYRzhc4UB5x4ikAXO2izNuxs8cmLMVOysgcJsaH7NOnF1smRzJzSxottqSjo1cqrTsnImIT69WERc0Gbr-BzU7vW75ZQCJSg80QRmHozG2w-10QVroxa-Ew6Rp6hBYNGtGMrv", "width": 736}], "place_id": "ChIJF8lQODl58TkRsKkkv3fcBXg", "rating": 2, "reference": "ChIJF8lQODl58TkRsKkkv3fcBXg", "scope": "GOOGLE", "types": ["school", "point_of_interest", "establishment"], "user_ratings_total": 1, "vicinity": "Q9FG+Q7V, Gidhko, Jhajha"}, {"business_status": "OPERATIONAL", "geometry": {"location": {"lat": 24.7744999, "lng": 86.3756867}, "viewport": {"northeast": {"lat": 24.7758536802915, "lng": 86.37704198029151}, "southwest": {"lat": 24.77315571970849, "lng": 86.3743440197085}}}, "icon": "https://maps.gstatic.com/mapfiles/place_api/icons/v1/png_71/school-71.png", "icon_background_color": "#7B9EB0", "icon_mask_base_uri": "https://maps.gstatic.com/mapfiles/place_api/icons/v2/school_pinlet", "name": "Aman Book Store, Jhajha", "opening_hours": {"open_now": true}, "photos": [{"height": 774, "html_attributions": ["<a href=\"https://maps.google.com/maps/contrib/109620168213906186260\">Amisha Rani</a>"], "photo_reference": "Aap_uEBO1Jx-Ky4DuA8wYEaHx3N3D6YK69OlJYozlQQOfaCSktq28iruA72uFR2OLD1_4dqul57QAzLAS6in2KeILvxoO0xNgOJaR5Aaw2hvHtUVaCJXDCHdD91iN3avNupc5iAL-2aJeNNMTcSfbNpznCocQPFpujjw5norrnLb7C--yPfA", "width": 1032}], "place_id": "ChIJyYXLz7x58TkRQAgfz5TP9qo", "plus_code": {"compound_code": "Q9FG+Q7 Jhajha, Bihar, India", "global_code": "7MP8Q9FG+Q7"}, "rating": 4.5, "reference": "ChIJyYXLz7x58TkRQAgfz5TP9qo", "scope": "GOOGLE", "types": ["school", "point_of_interest", "establishment"], "user_ratings_total": 2, "vicinity": "Near Mahatma Gandhi High School, Jhajha"}, {"business_status": "OPERATIONAL", "geometry": {"location": {"lat": 24.7744999, "lng": 86.3756867}, "viewport": {"northeast": {"lat": 24.7758536802915, "lng": 86.37704198029151}, "southwest": {"lat": 24.77315571970849, "lng": 86.3743440197085}}}, "icon": "https://maps.gstatic.com/mapfiles/place_api/icons/v1/png_71/school-71.png", "icon_background_color": "#7B9EB0", "icon_mask_base_uri": "https://maps.gstatic.com/mapfiles/place_api/icons/v2/school_pinlet", "name": "GN.Enterprises Shyam Baba", "opening_hours": {"open_now": true}, "photos": [{"height": 2126, "html_attributions": ["<a href=\"https://maps.google.com/maps/contrib/111089826971592011053\">Subham Pathak</a>"], "photo_reference": "Aap_uED68T3GcWuy6WMOmCiC_s6QImCBUSlkXW8iwMDlaNZfToKCfstY6SYgRPkAUGxFo-xsRezxzxnvMqDI0MECalNLUdQQKEjXSWEPTiG9OM45oEynvhvazr_Tp_gA5_hYSQHiyK6JsEOMwpoB9FETWcldyR6-eK0B3y5rzvARAfTaP-eH", "width": 4608}], "place_id": "ChIJi32rLU158TkRyODqCuvC3Gs", "plus_code": {"compound_code": "Q9FG+Q7 Jhajha, Bihar, India", "global_code": "7MP8Q9FG+Q7"}, "rating": 5, "reference": "ChIJi32rLU158TkRyODqCuvC3Gs", "scope": "GOOGLE", "types": ["school", "point_of_interest", "establishment"], "user_ratings_total": 1, "vicinity": "maa Tara market, jhajha near dsm college, road, Jhajha"}, {"business_status": "OPERATIONAL", "geometry": {"location": {"lat": 24.7744999, "lng": 86.3756867}, "viewport": {"northeast": {"lat": 24.7758895802915, "lng": 86.37699933029153}, "southwest": {"lat": 24.77319161970849, "lng": 86.3743013697085}}}, "icon": "https://maps.gstatic.com/mapfiles/place_api/icons/v1/png_71/school-71.png", "icon_background_color": "#7B9EB0", "icon_mask_base_uri": "https://maps.gstatic.com/mapfiles/place_api/icons/v2/school_pinlet", "name": "Model school jhajha", "place_id": "ChIJq6qqqnl58TkRBEheoj8MeIo", "plus_code": {"compound_code": "Q9FG+Q7 Jhajha, Bihar, India", "global_code": "7MP8Q9FG+Q7"}, "rating": 5, "reference": "ChIJq6qqqnl58TkRBEheoj8MeIo", "scope": "GOOGLE", "types": ["school", "point_of_interest", "establishment"], "user_ratings_total": 2, "vicinity": "Laxmipur-Jinhara-Dhamna-Jhajha Road, Jhajha"}, {"business_status": "OPERATIONAL", "geometry": {"location": {"lat": 24.7744999, "lng": 86.3756867}, "viewport": {"northeast": {"lat": 24.7758536802915, "lng": 86.37704198029151}, "southwest": {"lat": 24.77315571970849, "lng": 86.3743440197085}}}, "icon": "https://maps.gstatic.com/mapfiles/place_api/icons/v1/png_71/school-71.png", "icon_background_color": "#7B9EB0", "icon_mask_base_uri": "https://maps.gstatic.com/mapfiles/place_api/icons/v2/school_pinlet", "name": "Pintu yaduwansi sewa sadan", "place_id": "ChIJEV94yBl58TkR8hzsxht4wes", "reference": "ChIJEV94yBl58TkR8hzsxht4wes", "scope": "GOOGLE", "types": ["school", "point_of_interest", "establishment"], "vicinity": "Q9FG+Q7V, Jhajha"}, {"business_status": "OPERATIONAL", "geometry": {"location": {"lat": 24.7744999, "lng": 86.3756867}, "viewport": {"northeast": {"lat": 24.7758536802915, "lng": 86.37704198029151}, "southwest": {"lat": 24.77315571970849, "lng": 86.3743440197085}}}, "icon": "https://maps.gstatic.com/mapfiles/place_api/icons/v1/png_71/school-71.png", "icon_background_color": "#7B9EB0", "icon_mask_base_uri": "https://maps.gstatic.com/mapfiles/place_api/icons/v2/school_pinlet", "name": "Kerla", "place_id": "ChIJs8F8fxd58TkRcJNZWL8Oigc", "reference": "ChIJs8F8fxd58TkRcJNZWL8Oigc", "scope": "GOOGLE", "types": ["school", "point_of_interest", "establishment"], "vicinity": "Q9FG+Q7V, Jhajha"}, {"business_status": "OPERATIONAL", "geometry": {"location": {"lat": 24.7744999, "lng": 86.3756867}, "viewport": {"northeast": {"lat": 24.7758536802915, "lng": 86.37704198029151}, "southwest": {"lat": 24.77315571970849, "lng": 86.3743440197085}}}, "icon": "https://maps.gstatic.com/mapfiles/place_api/icons/v1/png_71/school-71.png", "icon_background_color": "#7B9EB0", "icon_mask_base_uri": "https://maps.gstatic.com/mapfiles/place_api/icons/v2/school_pinlet", "name": "Nimare", "photos": [{"height": 1280, "html_attributions": ["<a href=\"https://maps.google.com/maps/contrib/111364185306019895339\">Nirajkumar Nirajkumar</a>"], "photo_reference": "Aap_uECCL_4tQ73NjjUOlt16oaJyIx0gAZ0FQc7JlH4HdAXVpUjxLKHfGo-qcssOzz28W8FpLLUkfOXWbHrUJwCb3MqBSuTJKnJsYtFk4Wv489wSruNeb-tciw40OY7peDxdhOCKWFN-iqyqOvCK3jcDNqZiz8gnd0fZH0IVTgYspB5pDgky", "width": 959}], "place_id": "ChIJFU312xN58TkRMMzqSICsS_g", "plus_code": {"compound_code": "Q9FG+Q7 Jhajha, Bihar, India", "global_code": "7MP8Q9FG+Q7"}, "reference": "ChIJFU312xN58TkRMMzqSICsS_g", "scope": "GOOGLE", "types": ["school", "point_of_interest", "establishment"], "vicinity": "Unnamed Road, Jhajha"}, {"business_status": "OPERATIONAL", "geometry": {"location": {"lat": 24.7744999, "lng": 86.3756867}, "viewport": {"northeast": {"lat": 24.7758536802915, "lng": 86.37704198029151}, "southwest": {"lat": 24.77315571970849, "lng": 86.3743440197085}}}, "icon": "https://maps.gstatic.com/mapfiles/place_api/icons/v1/png_71/school-71.png", "icon_background_color": "#7B9EB0", "icon_mask_base_uri": "https://maps.gstatic.com/mapfiles/place_api/icons/v2/school_pinlet", "name": "GB English school Bosebagan Jhajha", "opening_hours": {"open_now": false}, "photos": [{"height": 3264, "html_attributions": ["<a href=\"https://maps.google.com/maps/contrib/108570832947816304383\">Aashish Kumar Sinha</a>"], "photo_reference": "Aap_uEAkuLbkOw_0PK_uZpq_6m4haVHVDlkmKIhpLJIAajOREmv_siesa36I2Klut1uDvuoRbC-wBzl10RIQalP2kRo06vlOrnYEMUTrkg0zboao5t-PToVj9_NxSWrSlIU4GskdmjH69hEBaroTOf_3qqrG0o1fdnsknfi3P1df80MOXrH1", "width": 1836}], "place_id": "ChIJ0WMsUa158TkRdYYPMl9ZUtc", "rating": 3, "reference": "ChIJ0WMsUa158TkRdYYPMl9ZUtc", "scope": "GOOGLE", "types": ["school", "point_of_interest", "establishment"], "user_ratings_total": 1, "vicinity": "Q9FG+Q7V, Bosebagan, Jhajha"}, {"business_status": "OPERATIONAL", "geometry": {"location": {"lat": 24.7744999, "lng": 86.3756867}, "viewport": {"northeast": {"lat": 24.7758536802915, "lng": 86.37704198029151}, "southwest": {"lat": 24.77315571970849, "lng": 86.3743440197085}}}, "icon": "https://maps.gstatic.com/mapfiles/place_api/icons/v1/png_71/school-71.png", "icon_background_color": "#7B9EB0", "icon_mask_base_uri": "https://maps.gstatic.com/mapfiles/place_api/icons/v2/school_pinlet", "name": "Suman shoe", "place_id": "ChIJq6qqqnl58TkRQNHMC8MUXyc", "reference": "ChIJq6qqqnl58TkRQNHMC8MUXyc", "scope": "GOOGLE", "types": ["school", "point_of_interest", "establishment"], "vicinity": "Q9FG+Q7V, Jhajha"}, {"business_status": "OPERATIONAL", "geometry": {"location": {"lat": 24.7744999, "lng": 86.3756867}, "viewport": {"northeast": {"lat": 24.7758895802915, "lng": 86.37699933029153}, "southwest": {"lat": 24.77319161970849, "lng": 86.3743013697085}}}, "icon": "https://maps.gstatic.com/mapfiles/place_api/icons/v1/png_71/school-71.png", "icon_background_color": "#7B9EB0", "icon_mask_base_uri": "https://maps.gstatic.com/mapfiles/place_api/icons/v2/school_pinlet", "name": "education point jhajha", "opening_hours": {"open_now": false}, "photos": [{"height": 1440, "html_attributions": ["<a href=\"https://maps.google.com/maps/contrib/102326589915325807411\">education point jhajha</a>"], "photo_reference": "Aap_uEDG8wTCSXlD5D2tFS9pvaxh2iGuJTs8kSr7ploCaR2f8PNX6Z79GqogGU9Lsfg33on8LceFLROsdy7lhX64unvM5FoGKSYU59VxBCszJkRCV2lDJL9ZM6TRel4y-2m2Zyijqe6cZ2S1C731YLELfFFM7k8o5IurCUkjWU6Tb7s6FhUl", "width": 2560}], "place_id": "ChIJq6qqqnl58TkRzo-Ivi3Lf2c", "plus_code": {"compound_code": "Q9FG+Q7 Jhajha, Bihar, India", "global_code": "7MP8Q9FG+Q7"}, "reference": "ChIJq6qqqnl58TkRzo-Ivi3Lf2c", "scope": "GOOGLE", "types": ["school", "point_of_interest", "establishment"], "vicinity": "Laxmipur-Jinhara-Dhamna-Jhajha Road, Jhajha"}, {"business_status": "OPERATIONAL", "geometry": {"location": {"lat": 24.7724577, "lng": 86.3734813}, "viewport": {"northeast": {"lat": 24.7739260802915, "lng": 86.3747814802915}, "southwest": {"lat": 24.7712281197085, "lng": 86.37208351970848}}}, "icon": "https://maps.gstatic.com/mapfiles/place_api/icons/v1/png_71/school-71.png", "icon_background_color": "#7B9EB0", "icon_mask_base_uri": "https://maps.gstatic.com/mapfiles/place_api/icons/v2/school_pinlet", "name": "Mahatama", "place_id": "ChIJXUpbH9l58TkR_4sn7Cd3j5s", "plus_code": {"compound_code": "Q9CF+X9 Jhajha, Bihar, India", "global_code": "7MP8Q9CF+X9"}, "reference": "ChIJXUpbH9l58TkR_4sn7Cd3j5s", "scope": "GOOGLE", "types": ["school", "point_of_interest", "establishment"], "vicinity": "Hospital for bidi workers, Helajot Road, Jhajha"}, {"business_status": "OPERATIONAL", "geometry": {"location": {"lat": 24.7733024, "lng": 86.37504849999999}, "viewport": {"northeast": {"lat": 24.7745190802915, "lng": 86.37661773029151}, "southwest": {"lat": 24.7718211197085, "lng": 86.37391976970851}}}, "icon": "https://maps.gstatic.com/mapfiles/place_api/icons/v1/png_71/school-71.png", "icon_background_color": "#7B9EB0", "icon_mask_base_uri": "https://maps.gstatic.com/mapfiles/place_api/icons/v2/school_pinlet", "name": "Ashtray priya", "place_id": "ChIJR-89gy158TkRlD6hM0jYj5U", "plus_code": {"compound_code": "Q9FG+82 Jhajha, Bihar, India", "global_code": "7MP8Q9FG+82"}, "reference": "ChIJR-89gy158TkRlD6hM0jYj5U", "scope": "GOOGLE", "types": ["school", "point_of_interest", "establishment"], "vicinity": "Pipradih, Jhajha"}, {"business_status": "OPERATIONAL", "geometry": {"location": {"lat": 24.7740771, "lng": 86.37614049999999}, "viewport": {"northeast": {"lat": 24.7754327802915, "lng": 86.3774926302915}, "southwest": {"lat": 24.7727348197085, "lng": 86.37479466970849}}}, "icon": "https://maps.gstatic.com/mapfiles/place_api/icons/v1/png_71/school-71.png", "icon_background_color": "#7B9EB0", "icon_mask_base_uri": "https://maps.gstatic.com/mapfiles/place_api/icons/v2/school_pinlet", "name": "Suman Kumar Sharma loverkillarboy", "place_id": "ChIJL_1WGNZ58TkRXkRH9AkpVFE", "plus_code": {"compound_code": "Q9FG+JF Jhajha, Bihar, India", "global_code": "7MP8Q9FG+JF"}, "reference": "ChIJL_1WGNZ58TkRXkRH9AkpVFE", "scope": "GOOGLE", "types": ["school", "point_of_interest", "establishment"], "vicinity": "Jhajha"}, {"business_status": "OPERATIONAL", "geometry": {"location": {"lat": 24.770091, "lng": 86.3679738}, "viewport": {"northeast": {"lat": 24.7714602802915, "lng": 86.3692666802915}, "southwest": {"lat": 24.7687623197085, "lng": 86.3665687197085}}}, "icon": "https://maps.gstatic.com/mapfiles/place_api/icons/v1/png_71/school-71.png", "icon_background_color": "#7B9EB0", "icon_mask_base_uri": "https://maps.gstatic.com/mapfiles/place_api/icons/v2/school_pinlet", "name": "Charghara Middle Schools", "opening_hours": {"open_now": false}, "place_id": "ChIJKeYaS2N58TkRAoO-cl-fhVg", "rating": 4, "reference": "ChIJKeYaS2N58TkRAoO-cl-fhVg", "scope": "GOOGLE", "types": ["school", "point_of_interest", "establishment"], "user_ratings_total": 3, "vicinity": "Q9C9+25Q, Jhajha"}, {"business_status": "OPERATIONAL", "geometry": {"location": {"lat": 24.7714851, "lng": 86.3754888}, "viewport": {"northeast": {"lat": 24.7727784802915, "lng": 86.3767452802915}, "southwest": {"lat": 24.7700805197085, "lng": 86.37404731970848}}}, "icon": "https://maps.gstatic.com/mapfiles/place_api/icons/v1/png_71/school-71.png", "icon_background_color": "#7B9EB0", "icon_mask_base_uri": "https://maps.gstatic.com/mapfiles/place_api/icons/v2/school_pinlet", "name": "G.B English Residential school", "photos": [{"height": 2560, "html_attributions": ["<a href=\"https://maps.google.com/maps/contrib/118431748561780759505\">Binod Bihari</a>"], "photo_reference": "Aap_uEBrhFoVdPLXRYJT77U0zDSglatezo3eCM2nUZyMxHh9Xr1vLxSjp4g78EMaimRce9e50FG074Mzbz6FEw7h5sxjHKHq9OfTL-jVPjK1LlC6WZIbG3bOn7I77RwcyIhRuICu59SblFHYksrqWoawBvxSpzeG2TPwT2mpdkeKi0dKT7qp", "width": 1440}], "place_id": "ChIJx1XVzqB58TkR0dgfRnMd6zs", "reference": "ChIJx1XVzqB58TkR0dgfRnMd6zs", "scope": "GOOGLE", "types": ["school", "point_of_interest", "establishment"], "vicinity": "Q9CG+H5X, Jhajha"}, {"business_status": "OPERATIONAL", "geometry": {"location": {"lat": 24.7711391, "lng": 86.37545589999999}, "viewport": {"northeast": {"lat": 24.77247513029151, "lng": 86.3767786302915}, "southwest": {"lat": 24.7697771697085, "lng": 86.37408066970848}}}, "icon": "https://maps.gstatic.com/mapfiles/place_api/icons/v1/png_71/school-71.png", "icon_background_color": "#7B9EB0", "icon_mask_base_uri": "https://maps.gstatic.com/mapfiles/place_api/icons/v2/school_pinlet", "name": "Jhajha", "photos": [{"height": 3120, "html_attributions": ["<a href=\"https://maps.google.com/maps/contrib/116115627305342338892\">muskan das</a>"], "photo_reference": "Aap_uED5FO9nRmCffNKpyrZown4MaZGL_FGWcPm5fsqS3Wc7QcvqjjRXbKgQ6_J99Vsg0B6AvRo65meQlBSl_Z9-KbufvrmrYsMBenxMnpU0fpBbvR4hZL3fT-UH5vs0Zxyq4g0t5IIYE1r-oIyFJbM3n5yG4H-AVYMYE_PHFntFP5M-4ocE", "width": 4160}], "place_id": "ChIJ-TXsb1d58TkRNL35ASE3gAc", "reference": "ChIJ-TXsb1d58TkRNL35ASE3gAc", "scope": "GOOGLE", "types": ["secondary_school", "school", "point_of_interest", "establishment"], "vicinity": "Q9CG+F54, Jhajha"}], "status": "OK"}