{"html_attributions": [], "results": [{"business_status": "OPERATIONAL", "geometry": {"location": {"lat": 24.8547452, "lng": 86.36175680000001}, "viewport": {"northeast": {"lat": 24.8560683802915, "lng": 86.3631187802915}, "southwest": {"lat": 24.85337041970849, "lng": 86.36042081970848}}}, "icon": "https://maps.gstatic.com/mapfiles/place_api/icons/v1/png_71/school-71.png", "icon_background_color": "#7B9EB0", "icon_mask_base_uri": "https://maps.gstatic.com/mapfiles/place_api/icons/v2/school_pinlet", "name": "World pyare", "place_id": "ChIJUZfGHux58TkRQUXm0g2G1Ts", "plus_code": {"compound_code": "V936+VP Dhamna, Bihar, India", "global_code": "7MP8V936+VP"}, "reference": "ChIJUZfGHux58TkRQUXm0g2G1Ts", "scope": "GOOGLE", "types": ["school", "point_of_interest", "establishment"], "vicinity": "Dhamna Road, Dhamna"}, {"business_status": "OPERATIONAL", "geometry": {"location": {"lat": 24.8663021, "lng": 86.3731536}, "viewport": {"northeast": {"lat": 24.8674381802915, "lng": 86.3744005802915}, "southwest": {"lat": 24.86474021970849, "lng": 86.3717026197085}}}, "icon": "https://maps.gstatic.com/mapfiles/place_api/icons/v1/png_71/school-71.png", "icon_background_color": "#7B9EB0", "icon_mask_base_uri": "https://maps.gstatic.com/mapfiles/place_api/icons/v2/school_pinlet", "name": "Pawan farnitaure dhamna", "place_id": "ChIJdfkgWTaD8TkRpZ-TIoMeKBU", "plus_code": {"compound_code": "V98F+G7 Dhamna, Bihar, India", "global_code": "7MP8V98F+G7"}, "reference": "ChIJdfkgWTaD8TkRpZ-TIoMeKBU", "scope": "GOOGLE", "types": ["school", "point_of_interest", "establishment"], "vicinity": "Dhamna"}, {"business_status": "OPERATIONAL", "geometry": {"location": {"lat": 24.8542114, "lng": 86.3607653}, "viewport": {"northeast": {"lat": 24.8555295302915, "lng": 86.36213253029149}, "southwest": {"lat": 24.8528315697085, "lng": 86.35943456970848}}}, "icon": "https://maps.gstatic.com/mapfiles/place_api/icons/v1/png_71/school-71.png", "icon_background_color": "#7B9EB0", "icon_mask_base_uri": "https://maps.gstatic.com/mapfiles/place_api/icons/v2/school_pinlet", "name": "Govt Middle School Dhamna", "place_id": "ChIJ2-Gk1J548TkRTiqPi6NBhPE", "plus_code": {"compound_code": "V936+M8 Dhamna, Bihar, India", "global_code": "7MP8V936+M8"}, "rating": 4.5, "reference": "ChIJ2-Gk1J548TkRTiqPi6NBhPE", "scope": "GOOGLE", "types": ["school", "point_of_interest", "establishment"], "user_ratings_total": 2, "vicinity": "Unnamed Road, Dhamna"}, {"business_status": "OPERATIONAL", "geometry": {"location": {"lat": 24.8567432, "lng": 86.3579481}, "viewport": {"northeast": {"lat": 24.8580888802915, "lng": 86.35930553029151}, "southwest": {"lat": 24.85539091970849, "lng": 86.3566075697085}}}, "icon": "https://maps.gstatic.com/mapfiles/place_api/icons/v1/png_71/school-71.png", "icon_background_color": "#7B9EB0", "icon_mask_base_uri": "https://maps.gstatic.com/mapfiles/place_api/icons/v2/school_pinlet", "name": "Little flower academy", "place_id": "ChIJb_rDZ4R58TkRajW3Rujy9NA", "plus_code": {"compound_code": "V945+M5 Dhamna, Bihar, India", "global_code": "7MP8V945+M5"}, "reference": "ChIJb_rDZ4R58TkRajW3Rujy9NA", "scope": "GOOGLE", "types": ["school", "point_of_interest", "establishment"], "vicinity": "Unnamed Road, Dhamna"}], "status": "OK"}