{"html_attributions": [], "results": [{"business_status": "OPERATIONAL", "geometry": {"location": {"lat": 24.5162562, "lng": 86.3832223}, "viewport": {"northeast": {"lat": 24.5178177802915, "lng": 86.3845802302915}, "southwest": {"lat": 24.5151198197085, "lng": 86.3818822697085}}}, "icon": "https://maps.gstatic.com/mapfiles/place_api/icons/v1/png_71/school-71.png", "icon_background_color": "#7B9EB0", "icon_mask_base_uri": "https://maps.gstatic.com/mapfiles/place_api/icons/v2/school_pinlet", "name": "DILKHUSH ROY HOME", "place_id": "ChIJ1W-pMS5n8TkRL6uns3jkhRE", "reference": "ChIJ1W-pMS5n8TkRL6uns3jkhRE", "scope": "GOOGLE", "types": ["school", "point_of_interest", "establishment"], "vicinity": "G98M+G75, Tola Patjori"}, {"business_status": "OPERATIONAL", "geometry": {"location": {"lat": 24.5249488, "lng": 86.3851849}, "viewport": {"northeast": {"lat": 24.5264089802915, "lng": 86.38636638029149}, "southwest": {"lat": 24.5237110197085, "lng": 86.38366841970848}}}, "icon": "https://maps.gstatic.com/mapfiles/place_api/icons/v1/png_71/school-71.png", "icon_background_color": "#7B9EB0", "icon_mask_base_uri": "https://maps.gstatic.com/mapfiles/place_api/icons/v2/school_pinlet", "name": "School kalibank", "photos": [{"height": 3120, "html_attributions": ["<a href=\"https://maps.google.com/maps/contrib/103999564181520017182\">Deepak kumar kali bank</a>"], "photo_reference": "Aap_uEDJDpxqc3q18_jN-afCe9GS_9VJU1ynKVQebUVW3JYboCsz55qV026TnYSacsZKq3Geq15X_3pqlN6wE5R_vKpNlNmPIdv1R_qPc6fCiBgTg6SmxkcBxVWPMBNv3Ru3mBdDqSNELdYBeB-9GvU1RENMYQdiuJ1ctlYWqQI6f5foE8sA", "width": 4160}], "place_id": "ChIJywdruF9n8TkRfFcIc-pAUDs", "plus_code": {"compound_code": "G9FP+X3 Chakai, Bihar, India", "global_code": "7MP8G9FP+X3"}, "rating": 5, "reference": "ChIJywdruF9n8TkRfFcIc-pAUDs", "scope": "GOOGLE", "types": ["school", "point_of_interest", "establishment"], "user_ratings_total": 2, "vicinity": "At kalibank, Chakai"}, {"geometry": {"location": {"lat": 24.5168423, "lng": 86.3833646}, "viewport": {"northeast": {"lat": 24.51829562765975, "lng": 86.384572486743}, "southwest": {"lat": 24.51559766707675, "lng": 86.38187452615999}}}, "icon": "https://maps.gstatic.com/mapfiles/place_api/icons/v1/png_71/school-71.png", "icon_background_color": "#7B9EB0", "icon_mask_base_uri": "https://maps.gstatic.com/mapfiles/place_api/icons/v2/school_pinlet", "name": "Pathjori Upgraded Middle School", "place_id": "ChIJYfbNqqhn8TkRAVnRRKzwfDY", "reference": "ChIJYfbNqqhn8TkRAVnRRKzwfDY", "scope": "GOOGLE", "types": ["secondary_school", "premise", "school", "establishment"], "vicinity": "Tola Garhi"}], "status": "OK"}