{"html_attributions": [], "results": [{"business_status": "OPERATIONAL", "geometry": {"location": {"lat": 24.9602237, "lng": 86.38528649999999}, "viewport": {"northeast": {"lat": 24.9615676302915, "lng": 86.3862542302915}, "southwest": {"lat": 24.9588696697085, "lng": 86.38355626970849}}}, "icon": "https://maps.gstatic.com/mapfiles/place_api/icons/v1/png_71/school-71.png", "icon_background_color": "#7B9EB0", "icon_mask_base_uri": "https://maps.gstatic.com/mapfiles/place_api/icons/v2/school_pinlet", "name": "Gyan kumar home", "opening_hours": {"open_now": false}, "photos": [{"height": 3264, "html_attributions": ["<a href=\"https://maps.google.com/maps/contrib/107226749802516270302\">gyan kumar</a>"], "photo_reference": "Aap_uECGZZQj0DFIss-5hIPBVHLvofEiH0XGT6Bd0dkCt4U7C8B0YrbXsEDE-gUErtYJq18OTcZQQ4SCA3bI_8LQM9KFyGrBpf9gAwDeEK9K54aAyGNyZVoLQU30jpO6edisII1wFI6e0VfRaTB7JdwWRH8fJ7aQeLTMyftBJEdtaF_2hN57", "width": 1472}], "place_id": "ChIJuejuoo6F8TkRIIYIRNQZAT8", "reference": "ChIJuejuoo6F8TkRIIYIRNQZAT8", "scope": "GOOGLE", "types": ["school", "point_of_interest", "establishment"], "vicinity": "X96P+34M, Naukadih"}, {"business_status": "OPERATIONAL", "geometry": {"location": {"lat": 24.9608717, "lng": 86.38338279999999}, "viewport": {"northeast": {"lat": 24.96225138029151, "lng": 86.3846192302915}, "southwest": {"lat": 24.9595534197085, "lng": 86.38192126970849}}}, "icon": "https://maps.gstatic.com/mapfiles/place_api/icons/v1/png_71/school-71.png", "icon_background_color": "#7B9EB0", "icon_mask_base_uri": "https://maps.gstatic.com/mapfiles/place_api/icons/v2/school_pinlet", "name": "NAVIN NANI GHAR ( \u0928\u0935\u0940\u0928 \u0928\u093e\u0928\u0940 \u0918\u0930 )", "photos": [{"height": 5184, "html_attributions": ["<a href=\"https://maps.google.com/maps/contrib/110435073584358581350\">Siyaram Kumar</a>"], "photo_reference": "Aap_uEDrxUsfJt0r1ne2ygyLhfHDEQt-xcbJP6SKTEoftIJZl4Yt2o3GqrL4a5cN7PWAl7_6mURVFiY5kvzhra_Q6aujrZlRw6ojyUzR08eRfvo6oObUZNpvur0uHDtl41V3UzmQv2F7G_UxLkm2GOUtBipVami5Jqpa2Eq-lcQ_4rxkvC9d", "width": 3880}], "place_id": "ChIJ21stK7GF8TkRknpAogiW8XE", "plus_code": {"compound_code": "X96M+89 Naukadih, Bihar, India", "global_code": "7MP8X96M+89"}, "reference": "ChIJ21stK7GF8TkRknpAogiW8XE", "scope": "GOOGLE", "types": ["school", "point_of_interest", "establishment"], "vicinity": "Naukadih"}, {"business_status": "OPERATIONAL", "geometry": {"location": {"lat": 24.9600343, "lng": 86.3826881}, "viewport": {"northeast": {"lat": 24.9613968302915, "lng": 86.38404118029152}, "southwest": {"lat": 24.9586988697085, "lng": 86.38134321970851}}}, "icon": "https://maps.gstatic.com/mapfiles/place_api/icons/v1/png_71/school-71.png", "icon_background_color": "#7B9EB0", "icon_mask_base_uri": "https://maps.gstatic.com/mapfiles/place_api/icons/v2/school_pinlet", "name": "Ankit General Store", "place_id": "ChIJI-zSuxCF8TkRxAskIEcKfqg", "plus_code": {"compound_code": "X96M+23 Naukadih, Bihar, India", "global_code": "7MP8X96M+23"}, "reference": "ChIJI-zSuxCF8TkRxAskIEcKfqg", "scope": "GOOGLE", "types": ["primary_school", "school", "point_of_interest", "establishment"], "vicinity": "Nawkadih post gaura laxmipur"}, {"business_status": "OPERATIONAL", "geometry": {"location": {"lat": 24.9602498, "lng": 86.3814821}, "viewport": {"northeast": {"lat": 24.9616307802915, "lng": 86.38284243029152}, "southwest": {"lat": 24.9589328197085, "lng": 86.38014446970851}}}, "icon": "https://maps.gstatic.com/mapfiles/place_api/icons/v1/png_71/school-71.png", "icon_background_color": "#7B9EB0", "icon_mask_base_uri": "https://maps.gstatic.com/mapfiles/place_api/icons/v2/school_pinlet", "name": "Shishu Gyan Mandir Nawkadih,", "place_id": "ChIJl9poO4GE8TkRrN6n9cOzEjY", "rating": 5, "reference": "ChIJl9poO4GE8TkRrN6n9cOzEjY", "scope": "GOOGLE", "types": ["school", "point_of_interest", "establishment"], "user_ratings_total": 4, "vicinity": "X96J+3HX, nawkadih, laxmipur, Jamui"}, {"business_status": "OPERATIONAL", "geometry": {"location": {"lat": 24.9575023, "lng": 86.3809929}, "viewport": {"northeast": {"lat": 24.9583005302915, "lng": 86.3823720802915}, "southwest": {"lat": 24.95560256970849, "lng": 86.37967411970848}}}, "icon": "https://maps.gstatic.com/mapfiles/place_api/icons/v1/png_71/school-71.png", "icon_background_color": "#7B9EB0", "icon_mask_base_uri": "https://maps.gstatic.com/mapfiles/place_api/icons/v2/school_pinlet", "name": "Prince mishra", "photos": [{"height": 4160, "html_attributions": ["<a href=\"https://maps.google.com/maps/contrib/104555547743489993117\">ASHUTOSH KUMAR</a>"], "photo_reference": "Aap_uEDHZtU_Exlw556nNChCG6BREW7KlAPZfI6tZ_ka36t3Cl5JWp5IOXcTBIJqQAUrjtXdCriVpLpGmNtNvL27TdiIsFzgy3n6g7RC65PkKZh9sAqzllNF_8jPSXefCcsWqG45owpbxb1ol3UFhyU-8xhS1fOaRU8-teQDQIozMdxRzBc-", "width": 2340}], "place_id": "ChIJJ4ij2myF8TkRAT8Ik-1OraU", "plus_code": {"compound_code": "X95J+29 Naukadih, Bihar, India", "global_code": "7MP8X95J+29"}, "reference": "ChIJJ4ij2myF8TkRAT8Ik-1OraU", "scope": "GOOGLE", "types": ["school", "point_of_interest", "establishment"], "vicinity": "Unnamed Road"}], "status": "OK"}