{"html_attributions": [], "next_page_token": "Aap_uEC92v8p_-obPQwIdd2jCqM7J3bRotunWUtSxdRgyw8OSewgCm8C_Y5QQ-OKl0OOSJDsr4H-Lbm1q-rU0FSqpBnOQ2AkLqP-7I3RYvfuBkQsANHpnecXbjgG-_V_LqwzaphmlOjWrIRMYnmngXN_sXxCGv_6-pGBxohdIq6o4SsmpJ82hNXCMQru_FMw10WK8IYHDKaUgYSFJmDWLFESASJyZSq7dUsbKhBqRFZUThqpi0u9aR8BA1Im9k3NytyXwuWA9dv-zArPjbnxX-i5XxpP4LB1EcSOPQLboO8D2CE7sSfoqFfwR0tVT9wHr-uYa6JxJdjUvEw0JiTTCff3BQLVneqTS8k-SEPgGSB20NQfS4GvZ1BXsrGCgq6Y_D0JWHs7625MNMbBfoyHataMkZQyoWC3itIZwTvzsK6h4dqI0NSPpM4", "results": [{"business_status": "OPERATIONAL", "geometry": {"location": {"lat": 24.5580568, "lng": 86.4047171}, "viewport": {"northeast": {"lat": 24.5594867302915, "lng": 86.40606013029151}, "southwest": {"lat": 24.5567887697085, "lng": 86.4033621697085}}}, "icon": "https://maps.gstatic.com/mapfiles/place_api/icons/v1/png_71/school-71.png", "icon_background_color": "#7B9EB0", "icon_mask_base_uri": "https://maps.gstatic.com/mapfiles/place_api/icons/v2/school_pinlet", "name": "Sakhar,waldeg,work", "photos": [{"height": 3584, "html_attributions": ["<a href=\"https://maps.google.com/maps/contrib/100716796379157144772\">Pramod, Rana</a>"], "photo_reference": "Aap_uEDpNh6WSCvG58BjMI-29XwPCKQTrDMCE532I5Fw4MzD6k598czafA05m1qAWAp8XbqeYmBAj44InEXPQxXjOPG-6qQt2rLLUMHulopPy3ZZmsXRWuBnURgV_pekAD5tb-CQvvtYU-Cee353nFgaFhdCLo0yIylsZwqRMbaZLgeWCYEn", "width": 2016}], "place_id": "ChIJd0cX9sZn8TkRU7CH6KjSYG8", "plus_code": {"compound_code": "HC53+6V Tola Nawadih, Bihar, India", "global_code": "7MP8HC53+6V"}, "reference": "ChIJd0cX9sZn8TkRU7CH6KjSYG8", "scope": "GOOGLE", "types": ["school", "point_of_interest", "establishment"], "vicinity": "Chakia - Bishunpur Road, Tola Nawadih"}, {"business_status": "OPERATIONAL", "geometry": {"location": {"lat": 24.5581862, "lng": 86.404134}, "viewport": {"northeast": {"lat": 24.5595287302915, "lng": 86.40548803029151}, "southwest": {"lat": 24.5568307697085, "lng": 86.40279006970849}}}, "icon": "https://maps.gstatic.com/mapfiles/place_api/icons/v1/png_71/school-71.png", "icon_background_color": "#7B9EB0", "icon_mask_base_uri": "https://maps.gstatic.com/mapfiles/place_api/icons/v2/school_pinlet", "name": "Gulshan Tealrs", "photos": [{"height": 1584, "html_attributions": ["<a href=\"https://maps.google.com/maps/contrib/100716796379157144772\">Pramod, Rana</a>"], "photo_reference": "Aap_uEBNnmdHy8gceO0UmtcD93jEzcReB_qtcinLlA1XCoY8Q88TfZlr1WwZsmwYWrrI1_SxO-KOPAyG3DDEm2D2hNocj1NurXUdxba3VMSC3oGz7bWghY5f6GXvY93FbLtYxCOymcNW0kShJ8aqldY0vcFvERSbTtp-PS8h_cBH84CiiCJb", "width": 2816}], "place_id": "ChIJ0frNrxZm8TkR-WZ2bDGE2PI", "plus_code": {"compound_code": "HC53+7M Chakai, Bihar, India", "global_code": "7MP8HC53+7M"}, "reference": "ChIJ0frNrxZm8TkR-WZ2bDGE2PI", "scope": "GOOGLE", "types": ["school", "point_of_interest", "establishment"], "vicinity": "punchmukhi choak, Chakai"}, {"business_status": "OPERATIONAL", "geometry": {"location": {"lat": 24.5576426, "lng": 86.40265199999999}, "viewport": {"northeast": {"lat": 24.55896003029151, "lng": 86.4040120802915}, "southwest": {"lat": 24.5562620697085, "lng": 86.40131411970849}}}, "icon": "https://maps.gstatic.com/mapfiles/place_api/icons/v1/png_71/school-71.png", "icon_background_color": "#7B9EB0", "icon_mask_base_uri": "https://maps.gstatic.com/mapfiles/place_api/icons/v2/school_pinlet", "name": "Chandan dijital", "opening_hours": {"open_now": true}, "photos": [{"height": 1080, "html_attributions": ["<a href=\"https://maps.google.com/maps/contrib/100232873758739166529\">Chakai Chandan</a>"], "photo_reference": "Aap_uEBA9BtGHIXFy6eOfzy2s7AJclNlr43xyQmxPn5KqBEx-XFh2Jg3odKylUL2Z_7lB8I4jisuRN8_UQMM_HoEheyKOyeK_ryKcbKA7gVxD6BmbMa2p9Z08kz-t6A6nO6YQCBcLTaEtwJQ8j82M6_k1U-qfF71w4tfqYnXS8X6vTqPAPxm", "width": 1920}], "place_id": "ChIJdyW1Mvpn8TkRKelEKuFtPVw", "plus_code": {"compound_code": "HC53+33 Tola Chahbachcha, Bihar, India", "global_code": "7MP8HC53+33"}, "rating": 5, "reference": "ChIJdyW1Mvpn8TkRKelEKuFtPVw", "scope": "GOOGLE", "types": ["school", "point_of_interest", "establishment"], "user_ratings_total": 2, "vicinity": "State Highway 18, Tola Chahbachcha"}, {"business_status": "OPERATIONAL", "geometry": {"location": {"lat": 24.5536163, "lng": 86.4043319}, "viewport": {"northeast": {"lat": 24.5549459802915, "lng": 86.4056192802915}, "southwest": {"lat": 24.5522480197085, "lng": 86.4029213197085}}}, "icon": "https://maps.gstatic.com/mapfiles/place_api/icons/v1/png_71/school-71.png", "icon_background_color": "#7B9EB0", "icon_mask_base_uri": "https://maps.gstatic.com/mapfiles/place_api/icons/v2/school_pinlet", "name": "Islamiya chowk nagdi chakai", "photos": [{"height": 4160, "html_attributions": ["<a href=\"https://maps.google.com/maps/contrib/101109037860588085672\">Md Sawab</a>"], "photo_reference": "Aap_uEDjXOsqkek20ey38Yu1aaUEGLuh3jAZHdMkdlR0AjPrGj_LvEbsAUfsLGmfsmr9y0m5RH08Zb8uywYNiDgCctj1Gge1wfwEe6KhC4var66QcG52fO0wc3-UHZEEb1auqnle9HJbV6NkJMMyt88SsQeyB3teIc2lwEFH3GUpNYrNPL4z", "width": 3120}], "place_id": "ChIJKfrs-Mtn8TkRtqhQS_FI2zE", "plus_code": {"compound_code": "HC33+CP Chakai, Bihar, India", "global_code": "7MP8HC33+CP"}, "rating": 5, "reference": "ChIJKfrs-Mtn8TkRtqhQS_FI2zE", "scope": "GOOGLE", "types": ["school", "point_of_interest", "establishment"], "user_ratings_total": 1, "vicinity": "Islamiya chowk nagdi, Chakai"}, {"business_status": "OPERATIONAL", "geometry": {"location": {"lat": 24.5547839, "lng": 86.4034152}, "viewport": {"northeast": {"lat": 24.5561328802915, "lng": 86.4047641802915}, "southwest": {"lat": 24.55343491970849, "lng": 86.40206621970849}}}, "icon": "https://maps.gstatic.com/mapfiles/place_api/icons/v1/png_71/school-71.png", "icon_background_color": "#7B9EB0", "icon_mask_base_uri": "https://maps.gstatic.com/mapfiles/place_api/icons/v2/school_pinlet", "name": "Nagri Upgraded Middle School", "place_id": "ChIJE3_m2BVm8TkRhX8KL-7eZOk", "plus_code": {"compound_code": "HC33+W9 Tola Nagri, Bihar, India", "global_code": "7MP8HC33+W9"}, "reference": "ChIJE3_m2BVm8TkRhX8KL-7eZOk", "scope": "GOOGLE", "types": ["secondary_school", "school", "point_of_interest", "establishment"], "vicinity": "Chakia - Bishunpur Road, Tola Nagri"}, {"business_status": "OPERATIONAL", "geometry": {"location": {"lat": 24.5610241, "lng": 86.4171308}, "viewport": {"northeast": {"lat": 24.5623727302915, "lng": 86.41846928029152}, "southwest": {"lat": 24.5596747697085, "lng": 86.41577131970851}}}, "icon": "https://maps.gstatic.com/mapfiles/place_api/icons/v1/png_71/school-71.png", "icon_background_color": "#7B9EB0", "icon_mask_base_uri": "https://maps.gstatic.com/mapfiles/place_api/icons/v2/school_pinlet", "name": "Shiv Mandir Ghormo", "place_id": "ChIJSTemHzJn8TkRhZUtCgVA25s", "rating": 1, "reference": "ChIJSTemHzJn8TkRhZUtCgVA25s", "scope": "GOOGLE", "types": ["school", "point_of_interest", "establishment"], "user_ratings_total": 1, "vicinity": "HC68+CV2, Tola Ghormo"}, {"business_status": "OPERATIONAL", "geometry": {"location": {"lat": 24.5532368, "lng": 86.4163025}, "viewport": {"northeast": {"lat": 24.5546003802915, "lng": 86.4177513802915}, "southwest": {"lat": 24.5519024197085, "lng": 86.41505341970849}}}, "icon": "https://maps.gstatic.com/mapfiles/place_api/icons/v1/png_71/school-71.png", "icon_background_color": "#7B9EB0", "icon_mask_base_uri": "https://maps.gstatic.com/mapfiles/place_api/icons/v2/school_pinlet", "name": "Saint Joseph's school Chakai,Jamui(Bihar)", "photos": [{"height": 3120, "html_attributions": ["<a href=\"https://maps.google.com/maps/contrib/107189116923520078650\">Rounak tutorials</a>"], "photo_reference": "Aap_uECEFsRAnoE0tP5-IVWTgLeWFdrK-7xYAE_-Z_9EKwsICAULrmbv16khV9Yp2vXfX0c3Tr0yPKP_EZd3YNOtimHDrxdUSq5skH4oMhdpY-uj4FNj4981UQETfdbOnkl-0KV6F9QO5hNX0vZyBfG6RQndGvySS6EB-6eDBrbJAFkzuhWQ", "width": 3120}], "place_id": "ChIJw5qgBfZn8TkRG_vJpCi7Khs", "rating": 5, "reference": "ChIJw5qgBfZn8TkRG_vJpCi7Khs", "scope": "GOOGLE", "types": ["school", "point_of_interest", "establishment"], "user_ratings_total": 1, "vicinity": "HC38+7GV, Tola Nagri"}, {"business_status": "OPERATIONAL", "geometry": {"location": {"lat": 24.553671, "lng": 86.4027588}, "viewport": {"northeast": {"lat": 24.5550173802915, "lng": 86.40420553029149}, "southwest": {"lat": 24.5523194197085, "lng": 86.40150756970849}}}, "icon": "https://maps.gstatic.com/mapfiles/place_api/icons/v1/png_71/school-71.png", "icon_background_color": "#7B9EB0", "icon_mask_base_uri": "https://maps.gstatic.com/mapfiles/place_api/icons/v2/school_pinlet", "name": "Islamia Masjid", "place_id": "ChIJ0VRvD1Jn8TkRpDhtd5t-eOY", "plus_code": {"compound_code": "HC33+F4 Tola Bazar Chakai, Bihar, India", "global_code": "7MP8HC33+F4"}, "reference": "ChIJ0VRvD1Jn8TkRpDhtd5t-eOY", "scope": "GOOGLE", "types": ["school", "point_of_interest", "establishment"], "vicinity": "Unnamed Road, Tola Bazar Chakai"}, {"business_status": "OPERATIONAL", "geometry": {"location": {"lat": 24.5511323, "lng": 86.4143771}, "viewport": {"northeast": {"lat": 24.5525211302915, "lng": 86.4156921302915}, "southwest": {"lat": 24.54982316970849, "lng": 86.4129941697085}}}, "icon": "https://maps.gstatic.com/mapfiles/place_api/icons/v1/png_71/school-71.png", "icon_background_color": "#7B9EB0", "icon_mask_base_uri": "https://maps.gstatic.com/mapfiles/place_api/icons/v2/school_pinlet", "name": "Secred Heart Aadiwasi High School Chakai", "opening_hours": {"open_now": false}, "photos": [{"height": 640, "html_attributions": ["<a href=\"https://maps.google.com/maps/contrib/113683496324480265279\">Ankit Dubey</a>"], "photo_reference": "Aap_uEAM5WumGBYVe6yXqs2wug2bAP-7nNp2IFHsrXQLRnGHEYq_j6jpZTqoBtMK6hIPuSH-eWTnNTRjeziXJdl-UHeC0n0BEUaE23cgB3gKqllr4AXcWk83BJ87K-gLl86R2VJFSgAkiAgAawHi0Du982Z6iVrheMDBYaWWJjKgvLO50OU3", "width": 640}], "place_id": "ChIJc7vqkSFm8TkROHrhvCvKlO8", "rating": 4.5, "reference": "ChIJc7vqkSFm8TkROHrhvCvKlO8", "scope": "GOOGLE", "types": ["school", "point_of_interest", "establishment"], "user_ratings_total": 2, "vicinity": "HC27+FQ2, Tola Nagri"}, {"business_status": "OPERATIONAL", "geometry": {"location": {"lat": 24.5529383, "lng": 86.39931140000002}, "viewport": {"northeast": {"lat": 24.5543177302915, "lng": 86.40062258029153}, "southwest": {"lat": 24.55161976970849, "lng": 86.39792461970852}}}, "icon": "https://maps.gstatic.com/mapfiles/place_api/icons/v1/png_71/school-71.png", "icon_background_color": "#7B9EB0", "icon_mask_base_uri": "https://maps.gstatic.com/mapfiles/place_api/icons/v2/school_pinlet", "name": "Shubham Store", "place_id": "ChIJe04e_2Bn8TkRW6VuANYUUFw", "plus_code": {"compound_code": "H93X+5P Tola Chahbachcha, Bihar, India", "global_code": "7MP8H93X+5P"}, "reference": "ChIJe04e_2Bn8TkRW6VuANYUUFw", "scope": "GOOGLE", "types": ["school", "point_of_interest", "establishment"], "vicinity": "by paas"}, {"business_status": "OPERATIONAL", "geometry": {"location": {"lat": 24.5528741, "lng": 86.3992513}, "viewport": {"northeast": {"lat": 24.5542500302915, "lng": 86.40056053029151}, "southwest": {"lat": 24.5515520697085, "lng": 86.3978625697085}}}, "icon": "https://maps.gstatic.com/mapfiles/place_api/icons/v1/png_71/school-71.png", "icon_background_color": "#7B9EB0", "icon_mask_base_uri": "https://maps.gstatic.com/mapfiles/place_api/icons/v2/school_pinlet", "name": "Shubham store holsale", "place_id": "ChIJcQFykcVn8TkRjtoX_UfwFZo", "plus_code": {"compound_code": "H93X+4P Chakai, Bihar, India", "global_code": "7MP8H93X+4P"}, "reference": "ChIJcQFykcVn8TkRjtoX_UfwFZo", "scope": "GOOGLE", "types": ["school", "point_of_interest", "establishment"], "vicinity": "Bus Stand, Chakai"}, {"business_status": "OPERATIONAL", "geometry": {"location": {"lat": 24.5529071, "lng": 86.399098}, "viewport": {"northeast": {"lat": 24.5542501802915, "lng": 86.4004556302915}, "southwest": {"lat": 24.5515522197085, "lng": 86.39775766970848}}}, "icon": "https://maps.gstatic.com/mapfiles/place_api/icons/v1/png_71/school-71.png", "icon_background_color": "#7B9EB0", "icon_mask_base_uri": "https://maps.gstatic.com/mapfiles/place_api/icons/v2/school_pinlet", "name": "Shubham Store", "place_id": "ChIJJ6iRDpVn8TkRAMHsS_wribo", "plus_code": {"compound_code": "H93X+5J Chakai, Bihar, India", "global_code": "7MP8H93X+5J"}, "reference": "ChIJJ6iRDpVn8TkRAMHsS_wribo", "scope": "GOOGLE", "types": ["school", "point_of_interest", "establishment"], "vicinity": "Unnamed Road, Chakai"}, {"business_status": "OPERATIONAL", "geometry": {"location": {"lat": 24.557716, "lng": 86.4225269}, "viewport": {"northeast": {"lat": 24.5591528302915, "lng": 86.4237725}, "southwest": {"lat": 24.5564548697085, "lng": 86.41879010000001}}}, "icon": "https://maps.gstatic.com/mapfiles/place_api/icons/v1/png_71/school-71.png", "icon_background_color": "#7B9EB0", "icon_mask_base_uri": "https://maps.gstatic.com/mapfiles/place_api/icons/v2/school_pinlet", "name": "Durga Mandir Ghormo", "photos": [{"height": 1080, "html_attributions": ["<a href=\"https://maps.google.com/maps/contrib/101260780834230252577\">Abhijeet Sinha</a>"], "photo_reference": "Aap_uEBQKDqG62_jlxKeLzIf1A8NA4fFhy2s_5PXyrOefBqzHuwAMuYHyZxVFKLevwuYvNzJIEXXix8Mx9IQELCeXfEbcXC_keifquqnK1CFna7nD_czy5r25orNDfpwM2m0KGkF3HqueBbLZ2ECqKqnHJcBBY1LQW4hoFP18Nw-El4p5EXn", "width": 1920}], "place_id": "ChIJW0T9nOdp8TkRb2BHgZvTnA8", "plus_code": {"compound_code": "HC5F+32 Chakai, Bihar, India", "global_code": "7MP8HC5F+32"}, "reference": "ChIJW0T9nOdp8TkRb2BHgZvTnA8", "scope": "GOOGLE", "types": ["school", "point_of_interest", "establishment"], "vicinity": "Ghormo, Chakai"}, {"business_status": "OPERATIONAL", "geometry": {"location": {"lat": 24.5577161, "lng": 86.422527}, "viewport": {"northeast": {"lat": 24.55915288029151, "lng": 86.42377264999999}, "southwest": {"lat": 24.5564549197085, "lng": 86.41879005}}}, "icon": "https://maps.gstatic.com/mapfiles/place_api/icons/v1/png_71/school-71.png", "icon_background_color": "#7B9EB0", "icon_mask_base_uri": "https://maps.gstatic.com/mapfiles/place_api/icons/v2/school_pinlet", "name": "New st. Xavier high school", "opening_hours": {"open_now": false}, "photos": [{"height": 900, "html_attributions": ["<a href=\"https://maps.google.com/maps/contrib/106740755453692030561\">Richa Sinha</a>"], "photo_reference": "Aap_uECNu53GlxHnc5zHPMhpgvjiFk9Tk-zAsLih8POgPzSoxMWp1dS7nQMQDyH_38Y-MJfkKxOWNy6Xk-wdS6yNVbATm3YPp7rUjP5A4MzhSeBijvITXn8B9cc6CCdnbQZaWAMfSsVCogU7_s1q-JWaqslQ_jvPsw-2LyH0AHi8h80dBQM-", "width": 900}], "place_id": "ChIJi2rrXaFp8TkRXaw2MXXSPlI", "rating": 4.4, "reference": "ChIJi2rrXaFp8TkRXaw2MXXSPlI", "scope": "GOOGLE", "types": ["school", "point_of_interest", "establishment"], "user_ratings_total": 5, "vicinity": "HC5F+32J, Tola Ghormo"}, {"business_status": "OPERATIONAL", "geometry": {"location": {"lat": 24.55595, "lng": 86.39725759999999}, "viewport": {"northeast": {"lat": 24.5573016302915, "lng": 86.3984155802915}, "southwest": {"lat": 24.5546036697085, "lng": 86.39571761970849}}}, "icon": "https://maps.gstatic.com/mapfiles/place_api/icons/v1/png_71/school-71.png", "icon_background_color": "#7B9EB0", "icon_mask_base_uri": "https://maps.gstatic.com/mapfiles/place_api/icons/v2/school_pinlet", "name": "Chakay Border", "place_id": "ChIJceQcImtm8TkRAWWQ1HmOTFg", "reference": "ChIJceQcImtm8TkRAWWQ1HmOTFg", "scope": "GOOGLE", "types": ["school", "point_of_interest", "establishment"], "vicinity": "H94W+9WC, Tola Chahbachcha"}, {"business_status": "OPERATIONAL", "geometry": {"location": {"lat": 24.55069319999999, "lng": 86.3997349}, "viewport": {"northeast": {"lat": 24.5520392302915, "lng": 86.4010100802915}, "southwest": {"lat": 24.5493412697085, "lng": 86.39831211970849}}}, "icon": "https://maps.gstatic.com/mapfiles/place_api/icons/v1/png_71/school-71.png", "icon_background_color": "#7B9EB0", "icon_mask_base_uri": "https://maps.gstatic.com/mapfiles/place_api/icons/v2/school_pinlet", "name": "IMAM MANJIL", "place_id": "ChIJqVIbdHtn8TkRSssmNs9hisQ", "reference": "ChIJqVIbdHtn8TkRSssmNs9hisQ", "scope": "GOOGLE", "types": ["school", "point_of_interest", "establishment"], "vicinity": "H92X+7VH, Chakai"}, {"business_status": "OPERATIONAL", "geometry": {"location": {"lat": 24.5505407, "lng": 86.39931380000002}, "viewport": {"northeast": {"lat": 24.5519875802915, "lng": 86.40066938029152}, "southwest": {"lat": 24.5492896197085, "lng": 86.3979714197085}}}, "icon": "https://maps.gstatic.com/mapfiles/place_api/icons/v1/png_71/school-71.png", "icon_background_color": "#7B9EB0", "icon_mask_base_uri": "https://maps.gstatic.com/mapfiles/place_api/icons/v2/school_pinlet", "name": "Md nezam shamsi", "opening_hours": {"open_now": false}, "place_id": "ChIJwSkkKpJn8TkRYyRfA2PmqsI", "plus_code": {"compound_code": "H92X+6P Chakai, Bihar, India", "global_code": "7MP8H92X+6P"}, "rating": 5, "reference": "ChIJwSkkKpJn8TkRYyRfA2PmqsI", "scope": "GOOGLE", "types": ["school", "point_of_interest", "establishment"], "user_ratings_total": 1, "vicinity": "Chakai Bazar Road, Chakai"}, {"business_status": "OPERATIONAL", "geometry": {"location": {"lat": 24.5544951, "lng": 86.3969085}, "viewport": {"northeast": {"lat": 24.5558345802915, "lng": 86.3981880802915}, "southwest": {"lat": 24.5531366197085, "lng": 86.3954901197085}}}, "icon": "https://maps.gstatic.com/mapfiles/place_api/icons/v1/png_71/school-71.png", "icon_background_color": "#7B9EB0", "icon_mask_base_uri": "https://maps.gstatic.com/mapfiles/place_api/icons/v2/school_pinlet", "name": "Ritesh kumar", "opening_hours": {"open_now": false}, "place_id": "ChIJFaTd2vVn8TkRgX5IGeIaRMo", "reference": "ChIJFaTd2vVn8TkRgX5IGeIaRMo", "scope": "GOOGLE", "types": ["school", "point_of_interest", "establishment"], "vicinity": "H93W+QQV, Tola Chahbachcha"}, {"business_status": "OPERATIONAL", "geometry": {"location": {"lat": 24.55032509999999, "lng": 86.39922729999999}, "viewport": {"northeast": {"lat": 24.5516339802915, "lng": 86.4005229302915}, "southwest": {"lat": 24.5489360197085, "lng": 86.3978249697085}}}, "icon": "https://maps.gstatic.com/mapfiles/place_api/icons/v1/png_71/school-71.png", "icon_background_color": "#7B9EB0", "icon_mask_base_uri": "https://maps.gstatic.com/mapfiles/place_api/icons/v2/school_pinlet", "name": "Jama Masjid Chakai", "place_id": "ChIJ74aEyU1n8TkRDxYoYVTHepw", "plus_code": {"compound_code": "H92X+4M Chakai, Bihar, India", "global_code": "7MP8H92X+4M"}, "rating": 5, "reference": "ChIJ74aEyU1n8TkRDxYoYVTHepw", "scope": "GOOGLE", "types": ["school", "point_of_interest", "establishment"], "user_ratings_total": 1, "vicinity": "police station, \u091a\u0915\u0908"}, {"business_status": "OPERATIONAL", "geometry": {"location": {"lat": 24.5516898, "lng": 86.3980521}, "viewport": {"northeast": {"lat": 24.5530673302915, "lng": 86.3994359302915}, "southwest": {"lat": 24.55036936970849, "lng": 86.3967379697085}}}, "icon": "https://maps.gstatic.com/mapfiles/place_api/icons/v1/png_71/school-71.png", "icon_background_color": "#7B9EB0", "icon_mask_base_uri": "https://maps.gstatic.com/mapfiles/place_api/icons/v2/school_pinlet", "name": "Kohwaratand chakai", "place_id": "ChIJo_N69Lhn8TkR0BJCl1gesIs", "reference": "ChIJo_N69Lhn8TkR0BJCl1gesIs", "scope": "GOOGLE", "types": ["school", "point_of_interest", "establishment"], "vicinity": "H92X+M6F, Chakai"}], "status": "OK"}