{"html_attributions": [], "results": [{"business_status": "OPERATIONAL", "geometry": {"location": {"lat": 24.7627968, "lng": 86.40712669999999}, "viewport": {"northeast": {"lat": 24.7642205802915, "lng": 86.4085316302915}, "southwest": {"lat": 24.7615226197085, "lng": 86.40583366970849}}}, "icon": "https://maps.gstatic.com/mapfiles/place_api/icons/v1/png_71/school-71.png", "icon_background_color": "#7B9EB0", "icon_mask_base_uri": "https://maps.gstatic.com/mapfiles/place_api/icons/v2/school_pinlet", "name": "Utkarmit Madhiya bidayalaya harna jhajha", "photos": [{"height": 3024, "html_attributions": ["<a href=\"https://maps.google.com/maps/contrib/110905707116628790489\">SA vlogs</a>"], "photo_reference": "Aap_uECe5pIdIkEuB-ieGYSlvCRREvGpLPy9HjMCfMgJO7hVQg6W72fe0QnHhaEX4sVJG113PioRj7tTwjrA07aA8cmtNw2i6SeJcQsuDTCxtoM5eLD6E-g1UsLXe32lzPK4wgG8GiGaxxjwAS5TUW0HjspdoV7cXFzkxqk9eFbB2AbxzROM", "width": 4032}], "place_id": "ChIJ76cQEsR78TkRIoMOIwBonxc", "plus_code": {"compound_code": "QC74+4V Tola Harna, Bihar, India", "global_code": "7MP8QC74+4V"}, "reference": "ChIJ76cQEsR78TkRIoMOIwBonxc", "scope": "GOOGLE", "types": ["school", "point_of_interest", "establishment"], "vicinity": "Unnamed Road, Tola Harna"}, {"business_status": "OPERATIONAL", "geometry": {"location": {"lat": 24.761055, "lng": 86.403739}, "viewport": {"northeast": {"lat": 24.7623728802915, "lng": 86.4050055302915}, "southwest": {"lat": 24.7596749197085, "lng": 86.4023075697085}}}, "icon": "https://maps.gstatic.com/mapfiles/place_api/icons/v1/png_71/school-71.png", "icon_background_color": "#7B9EB0", "icon_mask_base_uri": "https://maps.gstatic.com/mapfiles/place_api/icons/v2/school_pinlet", "name": "Anganwadi Kendra Jhajha", "opening_hours": {"open_now": false}, "photos": [{"height": 3120, "html_attributions": ["<a href=\"https://maps.google.com/maps/contrib/109264940549951154248\">akash kumar</a>"], "photo_reference": "Aap_uED8Kyzr5SvVEoxfjszkIuOuuN3swBtbdJfpR02b2FpocHsdifI67p9WM6UEVKAOyVjSu5svCb0NHqEmvQ31-MGOTxJvIWOGGi6jCFJRYSLRA8BEnIImxFnxjeBc2gvj0pb_-brD-WthFktojNf1DKs7osBDTI0_NvT5NKmJpzj3woU7", "width": 4160}], "place_id": "ChIJo90vAxx68TkRZslf9RynRWE", "plus_code": {"compound_code": "QC63+CF Tola Satighat, Bihar, India", "global_code": "7MP8QC63+CF"}, "rating": 3, "reference": "ChIJo90vAxx68TkRZslf9RynRWE", "scope": "GOOGLE", "types": ["school", "point_of_interest", "establishment"], "user_ratings_total": 1, "vicinity": "Tola Satighat, Jamui, NH-333, Toala Sitan Jhaja Road, Jamui, Jamui"}, {"business_status": "OPERATIONAL", "geometry": {"location": {"lat": 24.7518607, "lng": 86.4069916}, "viewport": {"northeast": {"lat": 24.7531514302915, "lng": 86.4083599802915}, "southwest": {"lat": 24.7504534697085, "lng": 86.40566201970849}}}, "icon": "https://maps.gstatic.com/mapfiles/place_api/icons/v1/png_71/school-71.png", "icon_background_color": "#7B9EB0", "icon_mask_base_uri": "https://maps.gstatic.com/mapfiles/place_api/icons/v2/school_pinlet", "name": "JAMA MASJID BURHNAIR", "place_id": "ChIJFzPmU9l78TkRnpYq62iDVCk", "reference": "ChIJFzPmU9l78TkRnpYq62iDVCk", "scope": "GOOGLE", "types": ["school", "point_of_interest", "establishment"], "vicinity": "QC24+PQX, Tola Burhnair"}, {"business_status": "OPERATIONAL", "geometry": {"location": {"lat": 24.7618288, "lng": 86.4173563}, "viewport": {"northeast": {"lat": 24.7632320802915, "lng": 86.4186084802915}, "southwest": {"lat": 24.7605341197085, "lng": 86.41591051970849}}}, "icon": "https://maps.gstatic.com/mapfiles/place_api/icons/v1/png_71/school-71.png", "icon_background_color": "#7B9EB0", "icon_mask_base_uri": "https://maps.gstatic.com/mapfiles/place_api/icons/v2/school_pinlet", "name": "Utkarmit Middle School Harna", "photos": [{"height": 1920, "html_attributions": ["<a href=\"https://maps.google.com/maps/contrib/101752186539774909310\">YO GO</a>"], "photo_reference": "Aap_uECEn310a02CxUtmmPzkgqm1Shqk6l6-r-gcTwSBqRStynbOh3iXilcMx1_btbBG0Cu27x7V04m3g2CfmrV5ogVsS4lG_b0W7ZkT66EbluKknk-88x5x9o1CH0ASOysSr2r_sEdN5scTmRhcKvgfe52Mt8BL0FqUaop_5WAA2H6jGQ4q", "width": 2560}], "place_id": "ChIJnafPwAB68TkRmMqi28fjZVo", "rating": 5, "reference": "ChIJnafPwAB68TkRmMqi28fjZVo", "scope": "GOOGLE", "types": ["school", "point_of_interest", "establishment"], "user_ratings_total": 1, "vicinity": "QC68+PWQ, Tola Harna"}, {"business_status": "OPERATIONAL", "geometry": {"location": {"lat": 24.750094, "lng": 86.413331}, "viewport": {"northeast": {"lat": 24.7513931802915, "lng": 86.4146826302915}, "southwest": {"lat": 24.7486952197085, "lng": 86.41198466970849}}}, "icon": "https://maps.gstatic.com/mapfiles/place_api/icons/v1/png_71/school-71.png", "icon_background_color": "#7B9EB0", "icon_mask_base_uri": "https://maps.gstatic.com/mapfiles/place_api/icons/v2/school_pinlet", "name": "Government Primary School", "opening_hours": {"open_now": false}, "place_id": "ChIJyf1ztg568TkRpfEMtvSM4gE", "plus_code": {"compound_code": "QC27+28 Tola Auria, Bihar, India", "global_code": "7MP8QC27+28"}, "rating": 5, "reference": "ChIJyf1ztg568TkRpfEMtvSM4gE", "scope": "GOOGLE", "types": ["primary_school", "school", "point_of_interest", "establishment"], "user_ratings_total": 1, "vicinity": "Tola Satighat, Jamui, NH-333, Toala Sitan Jhaja Road, Jamui, Jamui"}, {"business_status": "OPERATIONAL", "geometry": {"location": {"lat": 24.7500844, "lng": 86.41378329999999}, "viewport": {"northeast": {"lat": 24.7514129302915, "lng": 86.41507303029151}, "southwest": {"lat": 24.7487149697085, "lng": 86.41237506970849}}}, "icon": "https://maps.gstatic.com/mapfiles/place_api/icons/v1/png_71/school-71.png", "icon_background_color": "#7B9EB0", "icon_mask_base_uri": "https://maps.gstatic.com/mapfiles/place_api/icons/v2/school_pinlet", "name": "Government Primary School Auria.", "place_id": "ChIJBzXdlTt78TkR6SmVb_0i2ng", "rating": 4, "reference": "ChIJBzXdlTt78TkR6SmVb_0i2ng", "scope": "GOOGLE", "types": ["school", "point_of_interest", "establishment"], "user_ratings_total": 1, "vicinity": "QC27+2GM, Tola Auria"}, {"business_status": "OPERATIONAL", "geometry": {"location": {"lat": 24.76425949999999, "lng": 86.4007863}, "viewport": {"northeast": {"lat": 24.76559028029151, "lng": 86.4021160302915}, "southwest": {"lat": 24.7628923197085, "lng": 86.39941806970847}}}, "icon": "https://maps.gstatic.com/mapfiles/place_api/icons/v1/png_71/school-71.png", "icon_background_color": "#7B9EB0", "icon_mask_base_uri": "https://maps.gstatic.com/mapfiles/place_api/icons/v2/school_pinlet", "name": "Upgrade Middle School (Urdu) Satighat", "place_id": "ChIJJ0a-sx968TkRTTl1LhGh41s", "plus_code": {"compound_code": "QC72+P8 Tola Satighat, Bihar, India", "global_code": "7MP8QC72+P8"}, "rating": 1, "reference": "ChIJJ0a-sx968TkRTTl1LhGh41s", "scope": "GOOGLE", "types": ["school", "point_of_interest", "establishment"], "user_ratings_total": 1, "vicinity": "National Highway 333A, Tola Satighat"}, {"business_status": "OPERATIONAL", "geometry": {"location": {"lat": 24.7534111, "lng": 86.4206655}, "viewport": {"northeast": {"lat": 24.7547860802915, "lng": 86.42202598029151}, "southwest": {"lat": 24.7520881197085, "lng": 86.41932801970849}}}, "icon": "https://maps.gstatic.com/mapfiles/place_api/icons/v1/png_71/school-71.png", "icon_background_color": "#7B9EB0", "icon_mask_base_uri": "https://maps.gstatic.com/mapfiles/place_api/icons/v2/school_pinlet", "name": "little flower english medium school", "opening_hours": {"open_now": false}, "place_id": "ChIJDT0OyKdw8TkRW8EHEGE81m0", "reference": "ChIJDT0OyKdw8TkRW8EHEGE81m0", "scope": "GOOGLE", "types": ["school", "point_of_interest", "establishment"], "vicinity": "QC3C+977, Rajla"}, {"business_status": "OPERATIONAL", "geometry": {"location": {"lat": 24.7646209, "lng": 86.40017139999999}, "viewport": {"northeast": {"lat": 24.7659966302915, "lng": 86.4015460302915}, "southwest": {"lat": 24.7632986697085, "lng": 86.39884806970849}}}, "icon": "https://maps.gstatic.com/mapfiles/place_api/icons/v1/png_71/school-71.png", "icon_background_color": "#7B9EB0", "icon_mask_base_uri": "https://maps.gstatic.com/mapfiles/place_api/icons/v2/school_pinlet", "name": "Al Falah Coachig Center", "place_id": "ChIJp5eXbLx78TkRqjksSu6O8MQ", "reference": "ChIJp5eXbLx78TkRqjksSu6O8MQ", "scope": "GOOGLE", "types": ["school", "point_of_interest", "establishment"], "vicinity": "QC72+R3V, Tola Satighat"}, {"business_status": "OPERATIONAL", "geometry": {"location": {"lat": 24.7507724, "lng": 86.4202368}, "viewport": {"northeast": {"lat": 24.7521212802915, "lng": 86.4215552802915}, "southwest": {"lat": 24.7494233197085, "lng": 86.4188573197085}}}, "icon": "https://maps.gstatic.com/mapfiles/place_api/icons/v1/png_71/school-71.png", "icon_background_color": "#7B9EB0", "icon_mask_base_uri": "https://maps.gstatic.com/mapfiles/place_api/icons/v2/school_pinlet", "name": "Vishwakrma work shop", "place_id": "ChIJzxWkx6xx8TkR69onCGyqU7s", "plus_code": {"compound_code": "QC2C+83 Rajla Kala, Bihar, India", "global_code": "7MP8QC2C+83"}, "reference": "ChIJzxWkx6xx8TkR69onCGyqU7s", "scope": "GOOGLE", "types": ["school", "point_of_interest", "establishment"], "vicinity": "Rajla Kalan Bus Stop, National Highway 333, Rajla Kala"}, {"business_status": "OPERATIONAL", "geometry": {"location": {"lat": 24.7510325, "lng": 86.4204883}, "viewport": {"northeast": {"lat": 24.7522774302915, "lng": 86.4218608802915}, "southwest": {"lat": 24.7495794697085, "lng": 86.4191629197085}}}, "icon": "https://maps.gstatic.com/mapfiles/place_api/icons/v1/png_71/school-71.png", "icon_background_color": "#7B9EB0", "icon_mask_base_uri": "https://maps.gstatic.com/mapfiles/place_api/icons/v2/school_pinlet", "name": "DULHAN SRINGAR STORE RAJLA", "place_id": "ChIJ_W-mvD1x8TkRLNXty9mmaAE", "plus_code": {"compound_code": "QC2C+C5 Rajla Kala, Bihar, India", "global_code": "7MP8QC2C+C5"}, "rating": 5, "reference": "ChIJ_W-mvD1x8TkRLNXty9mmaAE", "scope": "GOOGLE", "types": ["school", "point_of_interest", "establishment"], "user_ratings_total": 1, "vicinity": "Bus Stop, NH333, Rajla Kala"}, {"business_status": "OPERATIONAL", "geometry": {"location": {"lat": 24.76500369999999, "lng": 86.3995891}, "viewport": {"northeast": {"lat": 24.7663493802915, "lng": 86.4009365802915}, "southwest": {"lat": 24.7636514197085, "lng": 86.39823861970848}}}, "icon": "https://maps.gstatic.com/mapfiles/place_api/icons/v1/png_71/school-71.png", "icon_background_color": "#7B9EB0", "icon_mask_base_uri": "https://maps.gstatic.com/mapfiles/place_api/icons/v2/school_pinlet", "name": "Al Falah Satighat", "place_id": "ChIJpRndVbF78TkRqAf6Knio-bM", "plus_code": {"compound_code": "Q98X+2R Tola Satighat, Bihar, India", "global_code": "7MP8Q98X+2R"}, "reference": "ChIJpRndVbF78TkRqAf6Knio-bM", "scope": "GOOGLE", "types": ["school", "point_of_interest", "establishment"], "vicinity": "National Highway 333A, Tola Satighat"}, {"business_status": "OPERATIONAL", "geometry": {"location": {"lat": 24.7620767, "lng": 86.3970229}, "viewport": {"northeast": {"lat": 24.7633880302915, "lng": 86.3982663302915}, "southwest": {"lat": 24.7606900697085, "lng": 86.39556836970849}}}, "icon": "https://maps.gstatic.com/mapfiles/place_api/icons/v1/png_71/school-71.png", "icon_background_color": "#7B9EB0", "icon_mask_base_uri": "https://maps.gstatic.com/mapfiles/place_api/icons/v2/school_pinlet", "name": "New Prathmik Vidyalaya Garhi", "place_id": "ChIJffomuSF68TkRMwtm0Go8NCE", "reference": "ChIJffomuSF68TkRMwtm0Go8NCE", "scope": "GOOGLE", "types": ["school", "point_of_interest", "establishment"], "vicinity": "Q96W+RRJ, Garhi"}], "status": "OK"}