{"html_attributions": [], "results": [{"business_status": "OPERATIONAL", "geometry": {"location": {"lat": 25.0384349, "lng": 85.8729305}, "viewport": {"northeast": {"lat": 25.03918025, "lng": 85.87459488029151}, "southwest": {"lat": 25.03619884999999, "lng": 85.87189691970849}}}, "icon": "https://maps.gstatic.com/mapfiles/place_api/icons/v1/png_71/school-71.png", "icon_background_color": "#7B9EB0", "icon_mask_base_uri": "https://maps.gstatic.com/mapfiles/place_api/icons/v2/school_pinlet", "name": "Rakesh ray", "place_id": "ChIJ3aU5DUxH8jkRvgjo_Wq1jjY", "plus_code": {"compound_code": "2VQF+95 Gagaura, Bihar, India", "global_code": "7MQ72VQF+95"}, "reference": "ChIJ3aU5DUxH8jkRvgjo_Wq1jjY", "scope": "GOOGLE", "types": ["primary_school", "school", "point_of_interest", "establishment"], "vicinity": "Gagaura"}, {"business_status": "OPERATIONAL", "geometry": {"location": {"lat": 25.0384349, "lng": 85.8729305}, "viewport": {"northeast": {"lat": 25.0391798, "lng": 85.8745949802915}, "southwest": {"lat": 25.0362002, "lng": 85.8718970197085}}}, "icon": "https://maps.gstatic.com/mapfiles/place_api/icons/v1/png_71/school-71.png", "icon_background_color": "#7B9EB0", "icon_mask_base_uri": "https://maps.gstatic.com/mapfiles/place_api/icons/v2/school_pinlet", "name": "Siv mandeer aklesh", "place_id": "ChIJ1Y0u0uxH8jkR0r3b7t_ve_E", "reference": "ChIJ1Y0u0uxH8jkR0r3b7t_ve_E", "scope": "GOOGLE", "types": ["school", "point_of_interest", "establishment"], "vicinity": "2VQF+95F, Gagaura"}, {"business_status": "OPERATIONAL", "geometry": {"location": {"lat": 25.03822229999999, "lng": 85.8652559}, "viewport": {"northeast": {"lat": 25.0395681302915, "lng": 85.86663713029151}, "southwest": {"lat": 25.03687016970849, "lng": 85.8639391697085}}}, "icon": "https://maps.gstatic.com/mapfiles/place_api/icons/v1/png_71/school-71.png", "icon_background_color": "#7B9EB0", "icon_mask_base_uri": "https://maps.gstatic.com/mapfiles/place_api/icons/v2/school_pinlet", "name": "Balram you music class", "opening_hours": {"open_now": false}, "place_id": "ChIJU0Bid0pH8jkRq782ZdTz_AM", "plus_code": {"compound_code": "2VQ8+74 Ariari, Bihar, India", "global_code": "7MQ72VQ8+74"}, "rating": 3.5, "reference": "ChIJU0Bid0pH8jkRq782ZdTz_AM", "scope": "GOOGLE", "types": ["school", "point_of_interest", "establishment"], "user_ratings_total": 2, "vicinity": "Aruara, Ariari"}, {"business_status": "OPERATIONAL", "geometry": {"location": {"lat": 25.03822229999999, "lng": 85.8652559}, "viewport": {"northeast": {"lat": 25.0395681302915, "lng": 85.86663713029151}, "southwest": {"lat": 25.03687016970849, "lng": 85.8639391697085}}}, "icon": "https://maps.gstatic.com/mapfiles/place_api/icons/v1/png_71/school-71.png", "icon_background_color": "#7B9EB0", "icon_mask_base_uri": "https://maps.gstatic.com/mapfiles/place_api/icons/v2/school_pinlet", "name": "Sunil Yadav Siyaram Yadav Bhagwati Mandir", "place_id": "ChIJd-oF9-RH8jkRTtvXeGGFNzk", "reference": "ChIJd-oF9-RH8jkRTtvXeGGFNzk", "scope": "GOOGLE", "types": ["school", "point_of_interest", "establishment"], "vicinity": "2VQ8+74J, Aruara"}, {"business_status": "OPERATIONAL", "geometry": {"location": {"lat": 25.0392886, "lng": 85.86354759999999}, "viewport": {"northeast": {"lat": 25.0406940302915, "lng": 85.8649080302915}, "southwest": {"lat": 25.0379960697085, "lng": 85.86221006970848}}}, "icon": "https://maps.gstatic.com/mapfiles/place_api/icons/v1/png_71/school-71.png", "icon_background_color": "#7B9EB0", "icon_mask_base_uri": "https://maps.gstatic.com/mapfiles/place_api/icons/v2/school_pinlet", "name": "SHANTI DEVI U.M.S.ARUARA", "opening_hours": {"open_now": true}, "photos": [{"height": 1920, "html_attributions": ["<a href=\"https://maps.google.com/maps/contrib/116433997761742809899\">Srishtiraj Yadav</a>"], "photo_reference": "Aap_uECvG-j1ZdxfodPPDKsg-uzRgGwXaT0oKVt6_7ykNWZaVZnsj_1wYX-Tyf3fygULq1tUTSg3tMXv5vEp3F7drZW46DPlNYx2JonJ9WUtkcNaY4HFSd6hiPBfZccnE2QDV6SVLGbUrk6dzvok4W3uxGnKpbdD7hpsls1ryMgilGtO5aju", "width": 1080}], "place_id": "ChIJwTsdhFdH8jkRZtIOZe0fETM", "rating": 5, "reference": "ChIJwTsdhFdH8jkRZtIOZe0fETM", "scope": "GOOGLE", "types": ["school", "point_of_interest", "establishment"], "user_ratings_total": 1, "vicinity": "2VQ7+PC7, aruara, Araria"}, {"business_status": "OPERATIONAL", "geometry": {"location": {"lat": 25.0392885, "lng": 85.86354709999999}, "viewport": {"northeast": {"lat": 25.0406940302915, "lng": 85.8649075802915}, "southwest": {"lat": 25.03799606970849, "lng": 85.8622096197085}}}, "icon": "https://maps.gstatic.com/mapfiles/place_api/icons/v1/png_71/school-71.png", "icon_background_color": "#7B9EB0", "icon_mask_base_uri": "https://maps.gstatic.com/mapfiles/place_api/icons/v2/school_pinlet", "name": "\u0936\u093e\u0902\u0924\u093f \u0926\u0947\u0935\u0940 \u0909\u0924\u094d\u0915\u094d\u0930\u092e\u093f\u0924 \u092e\u0927\u094d\u092f \u0935\u093f\u0926\u094d\u092f\u093e\u0932\u092f \u0905\u0930\u0941\u0906\u0930\u093e", "place_id": "ChIJmz8bANdH8jkRmIB3E_ItmJ4", "reference": "ChIJmz8bANdH8jkRmIB3E_ItmJ4", "scope": "GOOGLE", "types": ["school", "point_of_interest", "establishment"], "vicinity": "2VQ7+PC7, aruara, Ariari"}], "status": "OK"}