{"html_attributions": [], "results": [{"business_status": "OPERATIONAL", "geometry": {"location": {"lat": 25.0213196, "lng": 86.4136687}, "viewport": {"northeast": {"lat": 25.0230345802915, "lng": 86.41445463029152}, "southwest": {"lat": 25.02033661970849, "lng": 86.4117566697085}}}, "icon": "https://maps.gstatic.com/mapfiles/place_api/icons/v1/png_71/school-71.png", "icon_background_color": "#7B9EB0", "icon_mask_base_uri": "https://maps.gstatic.com/mapfiles/place_api/icons/v2/school_pinlet", "name": "Sharma hardware", "place_id": "ChIJc83jEGSF8TkRyIsiYBtDFXM", "plus_code": {"compound_code": "2CC7+GF Najari, Bihar, India", "global_code": "7MQ82CC7+GF"}, "rating": 1, "reference": "ChIJc83jEGSF8TkRyIsiYBtDFXM", "scope": "GOOGLE", "types": ["school", "point_of_interest", "establishment"], "user_ratings_total": 1, "vicinity": "near, bihar gramin bank, Najari"}, {"business_status": "OPERATIONAL", "geometry": {"location": {"lat": 25.0192887, "lng": 86.401316}, "viewport": {"northeast": {"lat": 25.02063243029151, "lng": 86.40289983029149}, "southwest": {"lat": 25.0179344697085, "lng": 86.40020186970848}}}, "icon": "https://maps.gstatic.com/mapfiles/place_api/icons/v1/png_71/school-71.png", "icon_background_color": "#7B9EB0", "icon_mask_base_uri": "https://maps.gstatic.com/mapfiles/place_api/icons/v2/school_pinlet", "name": "Government Middle School, Yogiya", "opening_hours": {"open_now": false}, "place_id": "ChIJiS7ZSzyF8TkRy8QEKHCmgJw", "rating": 4.3, "reference": "ChIJiS7ZSzyF8TkRy8QEKHCmgJw", "scope": "GOOGLE", "types": ["school", "point_of_interest", "establishment"], "user_ratings_total": 3, "vicinity": "2C92+PG8, Najari"}, {"business_status": "OPERATIONAL", "geometry": {"location": {"lat": 25.0275009, "lng": 86.4136492}, "viewport": {"northeast": {"lat": 25.0288358802915, "lng": 86.4150543802915}, "southwest": {"lat": 25.0261379197085, "lng": 86.41235641970849}}}, "icon": "https://maps.gstatic.com/mapfiles/place_api/icons/v1/png_71/school-71.png", "icon_background_color": "#7B9EB0", "icon_mask_base_uri": "https://maps.gstatic.com/mapfiles/place_api/icons/v2/school_pinlet", "name": "Tetariya commands", "opening_hours": {"open_now": true}, "place_id": "ChIJ2xzPG8SF8TkR8aY_c3l7Q8Y", "plus_code": {"compound_code": "2CH7+2F Najari, Bihar, India", "global_code": "7MQ82CH7+2F"}, "rating": 4.6, "reference": "ChIJ2xzPG8SF8TkR8aY_c3l7Q8Y", "scope": "GOOGLE", "types": ["school", "point_of_interest", "establishment"], "user_ratings_total": 5, "vicinity": "Najari"}, {"business_status": "OPERATIONAL", "geometry": {"location": {"lat": 25.0282158, "lng": 86.4135426}, "viewport": {"northeast": {"lat": 25.0294751302915, "lng": 86.41512338029152}, "southwest": {"lat": 25.0267771697085, "lng": 86.4124254197085}}}, "icon": "https://maps.gstatic.com/mapfiles/place_api/icons/v1/png_71/school-71.png", "icon_background_color": "#7B9EB0", "icon_mask_base_uri": "https://maps.gstatic.com/mapfiles/place_api/icons/v2/school_pinlet", "name": "Middle School", "photos": [{"height": 3134, "html_attributions": ["<a href=\"https://maps.google.com/maps/contrib/104277322369955987427\">Smarty thanks</a>"], "photo_reference": "Aap_uECmLIPkNq9koU14-DlUcxcpTf9ojJljzWKG3PV433NQU35c3vq9sFnDuXHAf0S3CkMGM94DO2EFGpBzyQ8EBZ2GkNc4ogN6gAanYVdecZ3jXZGWj4wHysA2JqgCdSm3lSO-KeKFYoywUXSeWCZzICK7erZ-dd27iLEQ9NBoEwFU4CXp", "width": 2307}], "place_id": "ChIJDRxt9kmF8TkRPbF62yeOkz0", "plus_code": {"compound_code": "2CH7+7C Najari, Bihar, India", "global_code": "7MQ82CH7+7C"}, "rating": 3, "reference": "ChIJDRxt9kmF8TkRPbF62yeOkz0", "scope": "GOOGLE", "types": ["school", "point_of_interest", "establishment"], "user_ratings_total": 2, "vicinity": "Nawdiha, Najari"}, {"business_status": "OPERATIONAL", "geometry": {"location": {"lat": 25.0282628, "lng": 86.41359050000001}, "viewport": {"northeast": {"lat": 25.0295263302915, "lng": 86.41516038029151}, "southwest": {"lat": 25.0268283697085, "lng": 86.4124624197085}}}, "icon": "https://maps.gstatic.com/mapfiles/place_api/icons/v1/png_71/school-71.png", "icon_background_color": "#7B9EB0", "icon_mask_base_uri": "https://maps.gstatic.com/mapfiles/place_api/icons/v2/school_pinlet", "name": "\u0909\u0924\u094d\u0915\u094d\u0930\u092e\u093f\u0924 \u092e\u0927\u094d\u092f \u0935\u093f\u0926\u094d\u092f\u093e\u0932\u092f \u0924\u0947\u0924\u0930\u093f\u092f\u093e, \u0928\u094b\u0921\u093f\u092f\u093e", "place_id": "ChIJ3y_iBnuF8TkRV2no24ctjO8", "plus_code": {"compound_code": "2CH7+8C Najari, Bihar, India", "global_code": "7MQ82CH7+8C"}, "reference": "ChIJ3y_iBnuF8TkRV2no24ctjO8", "scope": "GOOGLE", "types": ["school", "point_of_interest", "establishment"], "vicinity": "Tetariya, Road, Najari"}, {"business_status": "OPERATIONAL", "geometry": {"location": {"lat": 25.0084533, "lng": 86.40222969999999}, "viewport": {"northeast": {"lat": 25.0097687802915, "lng": 86.4034543802915}, "southwest": {"lat": 25.0070708197085, "lng": 86.4007564197085}}}, "icon": "https://maps.gstatic.com/mapfiles/place_api/icons/v1/png_71/school-71.png", "icon_background_color": "#7B9EB0", "icon_mask_base_uri": "https://maps.gstatic.com/mapfiles/place_api/icons/v2/school_pinlet", "name": "A.N.M. SCHOOL, LAXMIPUR, JAMUI", "photos": [{"height": 2322, "html_attributions": ["<a href=\"https://maps.google.com/maps/contrib/106773789424801938376\">Rohit Raj</a>"], "photo_reference": "Aap_uEAKHWgh_R-9RbvUvgVKDWbZa1T9fMHrCgYdlV88A6GytLXWOxddAsX0tqqQiRMj-2aNt56hHn4lPhKCB_cfBCaEl4uc_Wd70QUQwZQHSaup57enIbx8cUwvFAm2HqmFgvsOMBtfilO55ow4ZOoJY47MIeEPiUu2KnhFxb7zMJcrDYkV", "width": 4128}], "place_id": "ChIJZ_V1iG2F8TkReWhDKJLytuE", "rating": 3, "reference": "ChIJZ_V1iG2F8TkReWhDKJLytuE", "scope": "GOOGLE", "types": ["secondary_school", "school", "point_of_interest", "establishment"], "user_ratings_total": 2, "vicinity": "2C52+9VQ, Tengahra"}], "status": "OK"}