{"html_attributions": [], "results": [{"business_status": "OPERATIONAL", "geometry": {"location": {"lat": 25.0632114, "lng": 85.86733919999999}, "viewport": {"northeast": {"lat": 25.0645060802915, "lng": 85.8686928802915}, "southwest": {"lat": 25.0618081197085, "lng": 85.8659949197085}}}, "icon": "https://maps.gstatic.com/mapfiles/place_api/icons/v1/png_71/school-71.png", "icon_background_color": "#7B9EB0", "icon_mask_base_uri": "https://maps.gstatic.com/mapfiles/place_api/icons/v2/school_pinlet", "name": "Primary school jodhanbigha", "opening_hours": {"open_now": false}, "place_id": "ChIJlxEcWMNH8jkR7nEFXztssAs", "plus_code": {"compound_code": "3V78+7W Diha, Bihar, India", "global_code": "7MQ73V78+7W"}, "rating": 5, "reference": "ChIJlxEcWMNH8jkR7nEFXztssAs", "scope": "GOOGLE", "types": ["school", "point_of_interest", "establishment"], "user_ratings_total": 1, "vicinity": "Diha"}, {"business_status": "OPERATIONAL", "geometry": {"location": {"lat": 25.0626076, "lng": 85.8650649}, "viewport": {"northeast": {"lat": 25.0638869302915, "lng": 85.8664138802915}, "southwest": {"lat": 25.0611889697085, "lng": 85.86371591970848}}}, "icon": "https://maps.gstatic.com/mapfiles/place_api/icons/v1/png_71/school-71.png", "icon_background_color": "#7B9EB0", "icon_mask_base_uri": "https://maps.gstatic.com/mapfiles/place_api/icons/v2/school_pinlet", "name": "Ramji bhawan", "place_id": "ChIJjU9sLapH8jkRhazhnt0IopA", "plus_code": {"compound_code": "3V78+22 Diha, Bihar, India", "global_code": "7MQ73V78+22"}, "reference": "ChIJjU9sLapH8jkRhazhnt0IopA", "scope": "GOOGLE", "types": ["secondary_school", "school", "point_of_interest", "establishment"], "vicinity": "Road, Diha"}, {"business_status": "OPERATIONAL", "geometry": {"location": {"lat": 25.06212439999999, "lng": 85.86432099999999}, "viewport": {"northeast": {"lat": 25.0634704302915, "lng": 85.8657200302915}, "southwest": {"lat": 25.0607724697085, "lng": 85.86302206970849}}}, "icon": "https://maps.gstatic.com/mapfiles/place_api/icons/v1/png_71/school-71.png", "icon_background_color": "#7B9EB0", "icon_mask_base_uri": "https://maps.gstatic.com/mapfiles/place_api/icons/v2/school_pinlet", "name": "P.s Jodhanbigha Chauhan Basti", "place_id": "ChIJzcHBy8FH8jkRLqQiMLP8ttU", "plus_code": {"compound_code": "3V67+RP Pharpar, Bihar, India", "global_code": "7MQ73V67+RP"}, "reference": "ChIJzcHBy8FH8jkRLqQiMLP8ttU", "scope": "GOOGLE", "types": ["school", "point_of_interest", "establishment"], "vicinity": "Chauhan Basti, Jodhan Bigha, Pharpar"}], "status": "OK"}