{"html_attributions": [], "results": [{"business_status": "OPERATIONAL", "geometry": {"location": {"lat": 24.9195965, "lng": 86.4451742}, "viewport": {"northeast": {"lat": 24.9209341802915, "lng": 86.4465442802915}, "southwest": {"lat": 24.9182362197085, "lng": 86.4438463197085}}}, "icon": "https://maps.gstatic.com/mapfiles/place_api/icons/v1/png_71/school-71.png", "icon_background_color": "#7B9EB0", "icon_mask_base_uri": "https://maps.gstatic.com/mapfiles/place_api/icons/v2/school_pinlet", "name": "GURUKUL PUBLIC SCHOOL MANGRAR JAMUI", "opening_hours": {"open_now": false}, "photos": [{"height": 540, "html_attributions": ["<a href=\"https://maps.google.com/maps/contrib/114432267658690430241\">cutee mangrar</a>"], "photo_reference": "Aap_uEAB7VuClmVT_7T2TJnCwFqS2WYF0taGHTAZ9fifl7ULqClbImExG6fTD3kAUKQSacecQdt8m5n8QpFnIekqOUj9lTSnWOEHHTSxWaQZAeOV682PZlhg2p7y1dnncvnaIXxUqC_gI0uxvcMdGtOLZE0O5kzQx0b2oP1XQpkmq8EQfZg", "width": 720}], "place_id": "ChIJIUXu8n6d8TkRUSQjpiyHKmY", "rating": 3.8, "reference": "ChIJIUXu8n6d8TkRUSQjpiyHKmY", "scope": "GOOGLE", "types": ["school", "point_of_interest", "establishment"], "user_ratings_total": 5, "vicinity": "WC9W+R3M, Tola Gadi Mangrar"}, {"business_status": "OPERATIONAL", "geometry": {"location": {"lat": 24.9238371, "lng": 86.4459225}, "viewport": {"northeast": {"lat": 24.92518028029151, "lng": 86.4473534302915}, "southwest": {"lat": 24.9224823197085, "lng": 86.4446554697085}}}, "icon": "https://maps.gstatic.com/mapfiles/place_api/icons/v1/png_71/school-71.png", "icon_background_color": "#7B9EB0", "icon_mask_base_uri": "https://maps.gstatic.com/mapfiles/place_api/icons/v2/school_pinlet", "name": "Middle school Mangrar", "opening_hours": {"open_now": false}, "photos": [{"height": 960, "html_attributions": ["<a href=\"https://maps.google.com/maps/contrib/116299808096996837276\">Rajiv kumar Ranjan</a>"], "photo_reference": "Aap_uEC_I-0nte0ThvNeSuPeviaikLKZB9XwPvV8mPBJtmoutiu1Q2SteLwdiVYwcDp9gPXl4uqfGWASkc9vM4CBXRQwl8lcZPyqNu37iZ6a6yheF07LMRvudnd6eF-3V6_ZLFND2EExRQcNlTy4A3yhkYT2e_J4MEsQhy2L6HhPF2Aj9BwN", "width": 1280}], "place_id": "ChIJVVVVVQGd8TkRb3Lw8GLbudc", "rating": 2, "reference": "ChIJVVVVVQGd8TkRb3Lw8GLbudc", "scope": "GOOGLE", "types": ["school", "point_of_interest", "establishment"], "user_ratings_total": 4, "vicinity": "WCFW+G9M, Tola Gadi Mangrar"}, {"business_status": "OPERATIONAL", "geometry": {"location": {"lat": 24.9178438, "lng": 86.4417876}, "viewport": {"northeast": {"lat": 24.9193852302915, "lng": 86.44320123029149}, "southwest": {"lat": 24.9166872697085, "lng": 86.44050326970849}}}, "icon": "https://maps.gstatic.com/mapfiles/place_api/icons/v1/png_71/school-71.png", "icon_background_color": "#7B9EB0", "icon_mask_base_uri": "https://maps.gstatic.com/mapfiles/place_api/icons/v2/school_pinlet", "name": "\u0928\u0935\u0940\u0928 \u092a\u094d\u0930\u093e\u0925\u092e\u093f\u0915 \u0935\u093f\u0926\u094d\u092f\u093e\u0932\u092f \u092e\u0902\u0917\u0930\u093e \u091f\u094b\u0932\u093e \u0928\u0935\u093e\u0926\u093e", "place_id": "ChIJ38e3BMad8TkRzVgMKa_oH9Y", "plus_code": {"compound_code": "WC9R+4P Tola Gadi Mangrar, Bihar, India", "global_code": "7MP8WC9R+4P"}, "reference": "ChIJ38e3BMad8TkRzVgMKa_oH9Y", "scope": "GOOGLE", "types": ["school", "point_of_interest", "establishment"], "vicinity": "Tola Gadi Mangrar"}, {"business_status": "OPERATIONAL", "geometry": {"location": {"lat": 24.9194343, "lng": 86.4365491}, "viewport": {"northeast": {"lat": 24.9207723802915, "lng": 86.4378934802915}, "southwest": {"lat": 24.9180744197085, "lng": 86.4351955197085}}}, "icon": "https://maps.gstatic.com/mapfiles/place_api/icons/v1/png_71/school-71.png", "icon_background_color": "#7B9EB0", "icon_mask_base_uri": "https://maps.gstatic.com/mapfiles/place_api/icons/v2/school_pinlet", "name": "Shalesh General Store", "photos": [{"height": 1920, "html_attributions": ["<a href=\"https://maps.google.com/maps/contrib/117922198448729007497\">Nitish Kumar</a>"], "photo_reference": "Aap_uEAyMrTUV1yuiVhX0VtbyUtVkGEmYiq2KbtRud9JU-I6UWZzhYEPJ9Ivy4hcOrgtZAjDoLeywEaEP8R4BgkaftE7YasOsILbZe7qzoFaYP5m9PrdOH2Y3ETOfIymKeURzlyax1M9V4eYVFcy7_ZSPE43hzXHM-wnTqRIWBwF9Fm4WMo3", "width": 1080}], "place_id": "ChIJoUSmj_qd8TkR5gA1tUqdlPI", "plus_code": {"compound_code": "WC9P+QJ Tola Gadi Mangrar, Bihar, India", "global_code": "7MP8WC9P+QJ"}, "rating": 3, "reference": "ChIJoUSmj_qd8TkR5gA1tUqdlPI", "scope": "GOOGLE", "types": ["school", "point_of_interest", "establishment"], "user_ratings_total": 1, "vicinity": "Unnamed Road, Tola Gadi Mangrar"}], "status": "OK"}