{"html_attributions": [], "next_page_token": "Aap_uECuV9uOGIF2xx5BzoGwpSnqIO_GjbMdjAHmTaFa7fW-xwWS7AKDQcyDun6fjYixo9muExpg0wzf0Wu41nTPHD5UHsEKg6Dgb8C284POf6b1XdoAx7XDUZ9yWWhV4sXRnI5i5KTH33MecN6ADCzaZFmUPOsnruu6X0NFmMIteJVDWWVjO8RPDkP1fyHjfW9e6Dz__MnradHVTlJ_mNAn7sS9COsjajaeRXuYH95HLg-V5_rUY7Tyt_CrfK2ryjL_qg2SFb8ZR97M2ghVlty7FWejwKpG-2W7yLJXNDNE72qJUk4JBUp8eQYlkVyvZ1GvsXuBhru6viisLt2Tz8jjgivRJDw_63sZ8YL1H8jXFN4UyDyxLVwQlGOotnwJWX414Gt0hM2ptRe4UUuqqndGnAtVbweSv9IjaVa4i5ciS0_cfreORAM", "results": [{"business_status": "OPERATIONAL", "geometry": {"location": {"lat": 25.13447, "lng": 85.8653889}, "viewport": {"northeast": {"lat": 25.1357750802915, "lng": 85.8664421802915}, "southwest": {"lat": 25.1330771197085, "lng": 85.8637442197085}}}, "icon": "https://maps.gstatic.com/mapfiles/place_api/icons/v1/png_71/school-71.png", "icon_background_color": "#7B9EB0", "icon_mask_base_uri": "https://maps.gstatic.com/mapfiles/place_api/icons/v2/school_pinlet", "name": "residential oxford public school girihinda sheikhpura", "opening_hours": {"open_now": true}, "photos": [{"height": 4000, "html_attributions": ["<a href=\"https://maps.google.com/maps/contrib/101849716255431676345\">Satyam Kumar E-28</a>"], "photo_reference": "Aap_uEBy2oFMIHKQ0pIETcJuZbtpW3oGvch545RPY4GjW_97VD_LZnaZjVNcN7x7NvYGdDLO2TpzmLpLmuQOmmtM8ne6W-1NL4pzPDB4pueAZ2JwfzUFU9QR2Dm4iQkOIfHvpyg5gILwdG6eQvAwwucnGues3HyrsmOyLCgMyZD4jGGuB78O", "width": 1800}], "place_id": "ChIJh8JkoEtB8jkRMUMKgvi9bbY", "plus_code": {"compound_code": "4VM8+Q5 Sheikhpura, Bihar, India", "global_code": "7MQ74VM8+Q5"}, "rating": 4, "reference": "ChIJh8JkoEtB8jkRMUMKgvi9bbY", "scope": "GOOGLE", "types": ["school", "point_of_interest", "establishment"], "user_ratings_total": 4, "vicinity": "Sheikhpura"}, {"business_status": "OPERATIONAL", "geometry": {"location": {"lat": 25.1417494, "lng": 85.8629608}, "viewport": {"northeast": {"lat": 25.1430372302915, "lng": 85.8643199802915}, "southwest": {"lat": 25.14033926970849, "lng": 85.86162201970849}}}, "icon": "https://maps.gstatic.com/mapfiles/place_api/icons/v1/png_71/school-71.png", "icon_background_color": "#7B9EB0", "icon_mask_base_uri": "https://maps.gstatic.com/mapfiles/place_api/icons/v2/school_pinlet", "name": "Madhaya Vidyalaya,Badshahpur", "photos": [{"height": 3096, "html_attributions": ["<a href=\"https://maps.google.com/maps/contrib/117918505389260601728\">Deshant Kumar</a>"], "photo_reference": "Aap_uED7HcZ82Spg-A_s0LdV-GyLCWGDUYSP1YWiE5ba6dcWIUSWyUz_knliHu7XGmWK6gCVQvy8a-qS00gdc-ZhbYOKXZjK9Ny9gxOeejeDg-TqZl6UxNokPfcO8dhBRiwJcjE7By8S8FoTGQot5YKLL8hzLkSAzIXAGJ62TAYaLU-IcAEU", "width": 4128}], "place_id": "ChIJ21inQE9B8jkR04b-b9se_-U", "rating": 4, "reference": "ChIJ21inQE9B8jkR04b-b9se_-U", "scope": "GOOGLE", "types": ["secondary_school", "school", "point_of_interest", "establishment"], "user_ratings_total": 1, "vicinity": "4VR7+M5W, Sheikhpura"}, {"business_status": "OPERATIONAL", "geometry": {"location": {"lat": 25.1374361, "lng": 85.87088709999999}, "viewport": {"northeast": {"lat": 25.1387936802915, "lng": 85.87223548029151}, "southwest": {"lat": 25.1360957197085, "lng": 85.86953751970849}}}, "icon": "https://maps.gstatic.com/mapfiles/place_api/icons/v1/png_71/school-71.png", "icon_background_color": "#7B9EB0", "icon_mask_base_uri": "https://maps.gstatic.com/mapfiles/place_api/icons/v2/school_pinlet", "name": "Bal Gyan Niketan School", "opening_hours": {"open_now": false}, "photos": [{"height": 3096, "html_attributions": ["<a href=\"https://maps.google.com/maps/contrib/117602743862116644303\">Bal Gyan Niketan Residential</a>"], "photo_reference": "Aap_uEC5czFVzu9hnAushEBFuisy6uBl0Ra5ZkzKoZAEmy9YE8TnRqtZSk730bo3NssOUemOoyzLzcMAYcw-qO88E1WqZp_hUx75C9WEUT7rfyUDMMGrHYpxBCVfV2dSwpFHz1IYAAUwmr5Mz_-ukkBKyQErMlpeUri3opnh2xJ2JEhS4mlc", "width": 4128}], "place_id": "ChIJP8XNdzZB8jkRFiHY0ZnM4ko", "plus_code": {"compound_code": "4VPC+X9 Sheikhpura, Bihar, India", "global_code": "7MQ74VPC+X9"}, "rating": 4.5, "reference": "ChIJP8XNdzZB8jkRFiHY0ZnM4ko", "scope": "GOOGLE", "types": ["school", "point_of_interest", "establishment"], "user_ratings_total": 4, "vicinity": "Bal Gyan Niketan Girihinda, Sheikhpura"}, {"business_status": "OPERATIONAL", "geometry": {"location": {"lat": 25.1367838, "lng": 85.8713092}, "viewport": {"northeast": {"lat": 25.1381132802915, "lng": 85.8726666802915}, "southwest": {"lat": 25.1354153197085, "lng": 85.86996871970848}}}, "icon": "https://maps.gstatic.com/mapfiles/place_api/icons/v1/png_71/school-71.png", "icon_background_color": "#7B9EB0", "icon_mask_base_uri": "https://maps.gstatic.com/mapfiles/place_api/icons/v2/school_pinlet", "name": "College More", "place_id": "ChIJnegDzjVB8jkRWqdOmB9ri-4", "plus_code": {"compound_code": "4VPC+PG Sheikhpura, Bihar, India", "global_code": "7MQ74VPC+PG"}, "rating": 4.1, "reference": "ChIJnegDzjVB8jkRWqdOmB9ri-4", "scope": "GOOGLE", "types": ["school", "point_of_interest", "establishment"], "user_ratings_total": 15, "vicinity": "State Highway 6, Sheikhpura"}, {"business_status": "OPERATIONAL", "geometry": {"location": {"lat": 25.13800639999999, "lng": 85.8680164}, "viewport": {"northeast": {"lat": 25.1393785802915, "lng": 85.86922168029152}, "southwest": {"lat": 25.1366806197085, "lng": 85.8665237197085}}}, "icon": "https://maps.gstatic.com/mapfiles/place_api/icons/v1/png_71/school-71.png", "icon_background_color": "#7B9EB0", "icon_mask_base_uri": "https://maps.gstatic.com/mapfiles/place_api/icons/v2/school_pinlet", "name": "Aganwari center 38", "place_id": "ChIJbVJN8klB8jkRW6BGwDfrxwY", "rating": 3, "reference": "ChIJbVJN8klB8jkRW6BGwDfrxwY", "scope": "GOOGLE", "types": ["school", "point_of_interest", "establishment"], "user_ratings_total": 1, "vicinity": "4VQ9+662, Sheikhpura"}, {"business_status": "OPERATIONAL", "geometry": {"location": {"lat": 25.1372339, "lng": 85.8676165}, "viewport": {"northeast": {"lat": 25.1385785302915, "lng": 85.8689862802915}, "southwest": {"lat": 25.1358805697085, "lng": 85.86628831970849}}}, "icon": "https://maps.gstatic.com/mapfiles/place_api/icons/v1/png_71/school-71.png", "icon_background_color": "#7B9EB0", "icon_mask_base_uri": "https://maps.gstatic.com/mapfiles/place_api/icons/v2/school_pinlet", "name": "INTERNATIONAL PUBLIC SCHOOL,SHEIKHPURA", "place_id": "ChIJE82TeuBB8jkR5FVfBP2N7r8", "plus_code": {"compound_code": "4VP9+V2 Sheikhpura, Bihar, India", "global_code": "7MQ74VP9+V2"}, "reference": "ChIJE82TeuBB8jkR5FVfBP2N7r8", "scope": "GOOGLE", "types": ["school", "point_of_interest", "establishment"], "vicinity": "Unnamed Road"}, {"business_status": "OPERATIONAL", "geometry": {"location": {"lat": 25.1353096, "lng": 85.8654013}, "viewport": {"northeast": {"lat": 25.1366430802915, "lng": 85.8667536802915}, "southwest": {"lat": 25.13394511970849, "lng": 85.86405571970849}}}, "icon": "https://maps.gstatic.com/mapfiles/place_api/icons/v1/png_71/school-71.png", "icon_background_color": "#7B9EB0", "icon_mask_base_uri": "https://maps.gstatic.com/mapfiles/place_api/icons/v2/school_pinlet", "name": "\u0906\u0902\u0917\u0928\u092c\u093e\u0921\u093c\u0940 \u0915\u0947\u0902\u0926\u094d\u0930 hajratpur mandro", "place_id": "ChIJ3Rr2wFlB8jkRB9WfEBA2K5A", "plus_code": {"compound_code": "4VP8+45 Sheikhpura, Bihar, India", "global_code": "7MQ74VP8+45"}, "reference": "ChIJ3Rr2wFlB8jkRB9WfEBA2K5A", "scope": "GOOGLE", "types": ["school", "point_of_interest", "establishment"], "vicinity": "Sheikhpura - Kusmaha Road, Sheikhpura"}, {"business_status": "OPERATIONAL", "geometry": {"location": {"lat": 25.1358538, "lng": 85.86467139999999}, "viewport": {"northeast": {"lat": 25.1372264802915, "lng": 85.8660225302915}, "southwest": {"lat": 25.1345285197085, "lng": 85.8633245697085}}}, "icon": "https://maps.gstatic.com/mapfiles/place_api/icons/v1/png_71/school-71.png", "icon_background_color": "#7B9EB0", "icon_mask_base_uri": "https://maps.gstatic.com/mapfiles/place_api/icons/v2/school_pinlet", "name": "Residencial Saraswati Vidya Mandir", "place_id": "ChIJFegA3DxB8jkRSs2z9xU0wFU", "reference": "ChIJFegA3DxB8jkRSs2z9xU0wFU", "scope": "GOOGLE", "types": ["school", "point_of_interest", "establishment"], "vicinity": "4VP7+8VV, Sheikhpura"}, {"business_status": "OPERATIONAL", "geometry": {"location": {"lat": 25.134776, "lng": 85.8653621}, "viewport": {"northeast": {"lat": 25.1361086302915, "lng": 85.8664196802915}, "southwest": {"lat": 25.1334106697085, "lng": 85.8637217197085}}}, "icon": "https://maps.gstatic.com/mapfiles/place_api/icons/v1/png_71/school-71.png", "icon_background_color": "#7B9EB0", "icon_mask_base_uri": "https://maps.gstatic.com/mapfiles/place_api/icons/v2/school_pinlet", "name": "Ox Ford Public School,Sheikhpura", "place_id": "ChIJyes4vcdB8jkRl2vQ1IfU9Ec", "plus_code": {"compound_code": "4VM8+W4 Sheikhpura, Bihar, India", "global_code": "7MQ74VM8+W4"}, "reference": "ChIJyes4vcdB8jkRl2vQ1IfU9Ec", "scope": "GOOGLE", "types": ["school", "point_of_interest", "establishment"], "vicinity": "adarsh clony,Sheikhpura, Bihar811105, Sheikhpura"}, {"business_status": "OPERATIONAL", "geometry": {"location": {"lat": 25.143109, "lng": 85.868297}, "viewport": {"northeast": {"lat": 25.1444640302915, "lng": 85.8696441802915}, "southwest": {"lat": 25.1417660697085, "lng": 85.8669462197085}}}, "icon": "https://maps.gstatic.com/mapfiles/place_api/icons/v1/png_71/school-71.png", "icon_background_color": "#7B9EB0", "icon_mask_base_uri": "https://maps.gstatic.com/mapfiles/place_api/icons/v2/school_pinlet", "name": "Shmayara public school", "photos": [{"height": 4160, "html_attributions": ["<a href=\"https://maps.google.com/maps/contrib/102262467934613782123\">Vishwanath Kumar</a>"], "photo_reference": "Aap_uECwLnDrwOz7JwNRZthUb1TUUYEUv20JzTTix9qF9BszWaoA5v57gp3BfdgoU6M8j8sfEP88hIcLhDBnM1MIoTbnLpHWgWEVPppkjQUkE9fOk7ChgqXIWn0I-WpR4IoAKCqsKh8TMVgzLSZT0CFPrMHOJbbA8KrpLlO19ZMmJEJT7hjw", "width": 2340}], "place_id": "ChIJtUFWfA1B8jkR1UZp3iPUDAY", "plus_code": {"compound_code": "4VV9+68 Sheikhpura, Bihar, India", "global_code": "7MQ74VV9+68"}, "rating": 5, "reference": "ChIJtUFWfA1B8jkR1UZp3iPUDAY", "scope": "GOOGLE", "types": ["primary_school", "school", "point_of_interest", "establishment"], "user_ratings_total": 1, "vicinity": "Jawan chowk,mahadev nagar"}, {"business_status": "OPERATIONAL", "geometry": {"location": {"lat": 25.1380941, "lng": 85.8639784}, "viewport": {"northeast": {"lat": 25.1394373302915, "lng": 85.8653700802915}, "southwest": {"lat": 25.1367393697085, "lng": 85.86267211970849}}}, "icon": "https://maps.gstatic.com/mapfiles/place_api/icons/v1/png_71/school-71.png", "icon_background_color": "#7B9EB0", "icon_mask_base_uri": "https://maps.gstatic.com/mapfiles/place_api/icons/v2/school_pinlet", "name": "G N M Training School Sheikhpura", "photos": [{"height": 2340, "html_attributions": ["<a href=\"https://maps.google.com/maps/contrib/109106915613190643767\">\u0905\u092d\u093f\u0937\u0947\u0915 \u0915\u0941\u092e\u093e\u0930</a>"], "photo_reference": "Aap_uEAiEj0SVmYBBZbnzIS6b9GC2-kd5gEpWjsWjll2ILBQOS6Isjx7vPIOVQrqwFaXTUZ9ltmprZDd_aqS0ekQp0paJRLq8yHt9jv1t4oYWGceOGvWgifXpS9n7fprsSTUaaqj_kGUo_-yHhZWUCVmuppOeVjAxXV2q4fu8bpdTMboELU2", "width": 4160}], "place_id": "ChIJLYEmB0lB8jkR0607ILR6cqc", "plus_code": {"compound_code": "4VQ7+6H Sheikhpura, Bihar, India", "global_code": "7MQ74VQ7+6H"}, "rating": 4.1, "reference": "ChIJLYEmB0lB8jkR0607ILR6cqc", "scope": "GOOGLE", "types": ["school", "point_of_interest", "establishment"], "user_ratings_total": 20, "vicinity": "Girhinda Mountain Temple Road, Sheikhpura"}, {"business_status": "OPERATIONAL", "geometry": {"location": {"lat": 25.1350811, "lng": 85.8648365}, "viewport": {"northeast": {"lat": 25.1364290302915, "lng": 85.8661505802915}, "southwest": {"lat": 25.1337310697085, "lng": 85.86345261970848}}}, "icon": "https://maps.gstatic.com/mapfiles/place_api/icons/v1/png_71/school-71.png", "icon_background_color": "#7B9EB0", "icon_mask_base_uri": "https://maps.gstatic.com/mapfiles/place_api/icons/v2/school_pinlet", "name": "Spark Chemistry Classes", "photos": [{"height": 2448, "html_attributions": ["<a href=\"https://maps.google.com/maps/contrib/113733995852927018871\">Spark chemistry classes</a>"], "photo_reference": "Aap_uEDwg73Ssaz_dBGgsYwQT598mqLjrpRlcjqdOyxQ8CUo7geieQHrosoJ1F1Pg6pVI7U1xkGuTfyiPlEQN8QQsivr3YHrDpK5LDRG2s5Q3NhuB2tp5SwLRyBDSEawsa5Qm2I9ix52MU4RXbLyr3aDCtRLAgPoHatcjPXy0yhuyt_Sh03Z", "width": 3264}], "place_id": "ChIJk_djmktB8jkRqbhlEO691BU", "plus_code": {"compound_code": "4VP7+2W Sheikhpura, Bihar, India", "global_code": "7MQ74VP7+2W"}, "rating": 4.4, "reference": "ChIJk_djmktB8jkRqbhlEO691BU", "scope": "GOOGLE", "types": ["school", "point_of_interest", "establishment"], "user_ratings_total": 10, "vicinity": "girihinda, Husenabad Road, Sheikhpura"}, {"business_status": "OPERATIONAL", "geometry": {"location": {"lat": 25.1349819, "lng": 85.86485379999999}, "viewport": {"northeast": {"lat": 25.1363298302915, "lng": 85.8661609302915}, "southwest": {"lat": 25.1336318697085, "lng": 85.8634629697085}}}, "icon": "https://maps.gstatic.com/mapfiles/place_api/icons/v1/png_71/school-71.png", "icon_background_color": "#7B9EB0", "icon_mask_base_uri": "https://maps.gstatic.com/mapfiles/place_api/icons/v2/school_pinlet", "name": "ABC English Clasaes", "opening_hours": {"open_now": true}, "place_id": "ChIJEdJNmktB8jkRJ-WTmt3vx24", "plus_code": {"compound_code": "4VM7+XW Sheikhpura, Bihar, India", "global_code": "7MQ74VM7+XW"}, "reference": "ChIJEdJNmktB8jkRJ-WTmt3vx24", "scope": "GOOGLE", "types": ["school", "point_of_interest", "establishment"], "vicinity": "Sheikhpura"}, {"business_status": "OPERATIONAL", "geometry": {"location": {"lat": 25.13920269999999, "lng": 85.8640013}, "viewport": {"northeast": {"lat": 25.1405865802915, "lng": 85.86537743029152}, "southwest": {"lat": 25.13788861970849, "lng": 85.8626794697085}}}, "icon": "https://maps.gstatic.com/mapfiles/place_api/icons/v1/png_71/school-71.png", "icon_background_color": "#7B9EB0", "icon_mask_base_uri": "https://maps.gstatic.com/mapfiles/place_api/icons/v2/school_pinlet", "name": "RESHMA DEVI PUBLIC SCHOOL (RDPS), SHEIKHPURA", "opening_hours": {"open_now": true}, "photos": [{"height": 4160, "html_attributions": ["<a href=\"https://maps.google.com/maps/contrib/111775866772901207512\">suman saurabh</a>"], "photo_reference": "Aap_uEAkhAiVjUnh7dGoB7D6W3rwqplje8Vm8dJWXlUU8dFOe8kengrwvOGQ87VASBTsLewKIPCfmVvXR9l9zxCruUzq1zHYpg3cBnKXoSanJxyLLj4me3rvVC7iNOuPDJr1WoywNuCPvDJN0VGfuXC45laQC9NOfnLmThKhUW2wt-3G-8f3", "width": 3120}], "place_id": "ChIJo2XW1PlB8jkRt_8FxPg6Ihs", "plus_code": {"compound_code": "4VQ7+MJ Sheikhpura, Bihar, India", "global_code": "7MQ74VQ7+MJ"}, "reference": "ChIJo2XW1PlB8jkRt_8FxPg6Ihs", "scope": "GOOGLE", "types": ["school", "point_of_interest", "establishment"], "vicinity": "Jhakhraj sthan, Girihinda, Sheikhpura"}, {"business_status": "OPERATIONAL", "geometry": {"location": {"lat": 25.1389245, "lng": 85.863731}, "viewport": {"northeast": {"lat": 25.1403315802915, "lng": 85.86496633029151}, "southwest": {"lat": 25.1376336197085, "lng": 85.86226836970849}}}, "icon": "https://maps.gstatic.com/mapfiles/place_api/icons/v1/png_71/generic_business-71.png", "icon_background_color": "#7B9EB0", "icon_mask_base_uri": "https://maps.gstatic.com/mapfiles/place_api/icons/v2/generic_pinlet", "name": "Kyp Center Mahuli", "opening_hours": {"open_now": true}, "photos": [{"height": 1080, "html_attributions": ["<a href=\"https://maps.google.com/maps/contrib/113725296612699881183\">Kyp Center Mahuli</a>"], "photo_reference": "Aap_uEDx9o8x8n3CV6MkB0hECbHTCYZ27T0xXLlUz_m-n20VdkYtWivr3MMGNU6T8Npo4NTg93EtaDKOiUPlQ3CNp_LNxR0QOjuA3XWYsb7KLXTXmofzW_ZLyBhx3aqNbsoif7q9e6v9gvxMHhahN0uS3M_Pm1PxVxTsXx-goZB-rGESblWz", "width": 1920}], "place_id": "ChIJY6PGscBP8jkRXBDXX1fScpc", "plus_code": {"compound_code": "4VQ7+HF Sheikhpura, Bihar, India", "global_code": "7MQ74VQ7+HF"}, "rating": 5, "reference": "ChIJY6PGscBP8jkRXBDXX1fScpc", "scope": "GOOGLE", "types": ["school", "point_of_interest", "establishment"], "user_ratings_total": 1, "vicinity": "SBI GRAHAK SEVA KENDRA, Bihar, Sheikhpura"}, {"business_status": "OPERATIONAL", "geometry": {"location": {"lat": 25.1390292, "lng": 85.87623579999999}, "viewport": {"northeast": {"lat": 25.1399389802915, "lng": 85.8777258302915}, "southwest": {"lat": 25.1372410197085, "lng": 85.87502786970849}}}, "icon": "https://maps.gstatic.com/mapfiles/place_api/icons/v1/png_71/school-71.png", "icon_background_color": "#7B9EB0", "icon_mask_base_uri": "https://maps.gstatic.com/mapfiles/place_api/icons/v2/school_pinlet", "name": "Eklavya public school", "opening_hours": {"open_now": false}, "photos": [{"height": 1800, "html_attributions": ["<a href=\"https://maps.google.com/maps/contrib/114719445957501708580\">Randhir Kumar</a>"], "photo_reference": "Aap_uEBF__XPZrRiMfsIY4dGCgQ_RGJq2a0tA2LkwyxlGpQIt9pIATgwohkgyKiB__TkHccb1BLVk9g_SrFGoQfD-IUa96PXHgcichyzsKfTEG8CvFX0gZJ1gt8YEQySJFeJ2u_TmDLLRD5OrEtsuUVx1SHnth7JlE6nBRR8M2k-5Svv_vzB", "width": 4000}], "place_id": "ChIJ3b_TsDJB8jkRMEJM3jTG0D8", "rating": 5, "reference": "ChIJ3b_TsDJB8jkRMEJM3jTG0D8", "scope": "GOOGLE", "types": ["school", "point_of_interest", "establishment"], "user_ratings_total": 6, "vicinity": "4VQG+JF9, Katnikol"}, {"business_status": "OPERATIONAL", "geometry": {"location": {"lat": 25.1376076, "lng": 85.86342049999999}, "viewport": {"northeast": {"lat": 25.1389305302915, "lng": 85.8648018302915}, "southwest": {"lat": 25.13623256970849, "lng": 85.86210386970849}}}, "icon": "https://maps.gstatic.com/mapfiles/place_api/icons/v1/png_71/school-71.png", "icon_background_color": "#7B9EB0", "icon_mask_base_uri": "https://maps.gstatic.com/mapfiles/place_api/icons/v2/school_pinlet", "name": "Utkramit Madhya Vidyalaya, Girihinda", "place_id": "ChIJu27AqE5B8jkRDfXc83CK-_Y", "rating": 4, "reference": "ChIJu27AqE5B8jkRDfXc83CK-_Y", "scope": "GOOGLE", "types": ["school", "point_of_interest", "establishment"], "user_ratings_total": 1, "vicinity": "4VQ7+29V, Sheikhpura"}, {"business_status": "OPERATIONAL", "geometry": {"location": {"lat": 25.143259, "lng": 85.86682449999999}, "viewport": {"northeast": {"lat": 25.1445715802915, "lng": 85.8679582302915}, "southwest": {"lat": 25.14187361970849, "lng": 85.86526026970849}}}, "icon": "https://maps.gstatic.com/mapfiles/place_api/icons/v1/png_71/school-71.png", "icon_background_color": "#7B9EB0", "icon_mask_base_uri": "https://maps.gstatic.com/mapfiles/place_api/icons/v2/school_pinlet", "name": "\u092e\u093f\u0925\u0932\u0947\u0936 \u092c\u093f\u091c\u0932\u0940 \u092e\u093f\u0938\u094d\u0924\u094d\u0930\u0940", "place_id": "ChIJj-58JlBB8jkRGCLeOHQZIto", "reference": "ChIJj-58JlBB8jkRGCLeOHQZIto", "scope": "GOOGLE", "types": ["school", "point_of_interest", "establishment"], "vicinity": "4VV8+8P4, Sheikhpura"}, {"business_status": "OPERATIONAL", "geometry": {"location": {"lat": 25.1391862, "lng": 85.86345639999999}, "viewport": {"northeast": {"lat": 25.1405084302915, "lng": 85.8648577302915}, "southwest": {"lat": 25.13781046970849, "lng": 85.8621597697085}}}, "icon": "https://maps.gstatic.com/mapfiles/place_api/icons/v1/png_71/school-71.png", "icon_background_color": "#7B9EB0", "icon_mask_base_uri": "https://maps.gstatic.com/mapfiles/place_api/icons/v2/school_pinlet", "name": "Buddha International School, Sheikhpura", "place_id": "ChIJK38yz05B8jkRisb9qyIC71w", "plus_code": {"compound_code": "4VQ7+M9 Sheikhpura, Bihar, India", "global_code": "7MQ74VQ7+M9"}, "rating": 3.7, "reference": "ChIJK38yz05B8jkRisb9qyIC71w", "scope": "GOOGLE", "types": ["school", "point_of_interest", "establishment"], "user_ratings_total": 10, "vicinity": "Buddha International School, \u092c\u0941\u0926\u094d\u0927\u093e \u0907\u0902\u091f\u0930\u0928\u0947\u0936\u0928\u0932 \u0938\u094d\u0915\u0942\u0932, Sheikhpura"}, {"business_status": "OPERATIONAL", "geometry": {"location": {"lat": 25.1437495, "lng": 85.8658881}, "viewport": {"northeast": {"lat": 25.1450211802915, "lng": 85.86744983029152}, "southwest": {"lat": 25.1423232197085, "lng": 85.8647518697085}}}, "icon": "https://maps.gstatic.com/mapfiles/place_api/icons/v1/png_71/school-71.png", "icon_background_color": "#7B9EB0", "icon_mask_base_uri": "https://maps.gstatic.com/mapfiles/place_api/icons/v2/school_pinlet", "name": "Ujjwal Pandey", "place_id": "ChIJjX0D5oBB8jkRNBU79_gm778", "plus_code": {"compound_code": "4VV8+F9 Sheikhpura, Bihar, India", "global_code": "7MQ74VV8+F9"}, "reference": "ChIJjX0D5oBB8jkRNBU79_gm778", "scope": "GOOGLE", "types": ["school", "point_of_interest", "establishment"], "vicinity": "Budhauli Katra Road, Sheikhpura"}], "status": "OK"}