{"html_attributions": [], "results": [{"business_status": "OPERATIONAL", "geometry": {"location": {"lat": 24.65669849999999, "lng": 86.4705877}, "viewport": {"northeast": {"lat": 24.6579356302915, "lng": 86.4723598302915}, "southwest": {"lat": 24.65523766970849, "lng": 86.46966186970849}}}, "icon": "https://maps.gstatic.com/mapfiles/place_api/icons/v1/png_71/school-71.png", "icon_background_color": "#7B9EB0", "icon_mask_base_uri": "https://maps.gstatic.com/mapfiles/place_api/icons/v2/school_pinlet", "name": "Bablu Hembrom", "place_id": "ChIJywiYY3lv8TkRdkyLtC-_AJs", "reference": "ChIJywiYY3lv8TkRdkyLtC-_AJs", "scope": "GOOGLE", "types": ["school", "point_of_interest", "establishment"], "vicinity": "MF4C+M6G, Tola Naukadih"}, {"business_status": "OPERATIONAL", "geometry": {"location": {"lat": 24.6501266, "lng": 86.4642102}, "viewport": {"northeast": {"lat": 24.6515240302915, "lng": 86.4654805302915}, "southwest": {"lat": 24.6488260697085, "lng": 86.46278256970848}}}, "icon": "https://maps.gstatic.com/mapfiles/place_api/icons/v1/png_71/school-71.png", "icon_background_color": "#7B9EB0", "icon_mask_base_uri": "https://maps.gstatic.com/mapfiles/place_api/icons/v2/school_pinlet", "name": "School", "place_id": "ChIJnxi15Ghv8TkRF08kf6mttM8", "plus_code": {"compound_code": "MF27+3M Tola Mahulia, Bihar, India", "global_code": "7MP8MF27+3M"}, "reference": "ChIJnxi15Ghv8TkRF08kf6mttM8", "scope": "GOOGLE", "types": ["school", "point_of_interest", "establishment"], "vicinity": "Unnamed Road, Tola Mahulia"}, {"business_status": "OPERATIONAL", "geometry": {"location": {"lat": 24.6476854, "lng": 86.4655308}, "viewport": {"northeast": {"lat": 24.64953008029151, "lng": 86.4671573302915}, "southwest": {"lat": 24.6468321197085, "lng": 86.46445936970849}}}, "icon": "https://maps.gstatic.com/mapfiles/place_api/icons/v1/png_71/school-71.png", "icon_background_color": "#7B9EB0", "icon_mask_base_uri": "https://maps.gstatic.com/mapfiles/place_api/icons/v2/school_pinlet", "name": "Rahul kumar thakur,H.S.thadhi,kali mandir", "photos": [{"height": 1603, "html_attributions": ["<a href=\"https://maps.google.com/maps/contrib/117374102863754805027\">Rahul Kumar</a>"], "photo_reference": "Aap_uEDDzDN4l5lhqm7Ct11GpgcbCle0jEf9SOdhWVlKrMVJZHLYlOkcMyRxj_omgcBvE4He3j8cw2AFy4Bmwntrc9u13fia3k6RO6sqaAMs1kx9tgII6CqdOOQsofjWG8SLNKbz2zM_uZ0BDqVrPgKe4NVhQuPA1yrkWDQCQoh_l8O57USU", "width": 1920}], "place_id": "ChIJtSPnwoVv8TkRaBrQ6tM3LIA", "reference": "ChIJtSPnwoVv8TkRaBrQ6tM3LIA", "scope": "GOOGLE", "types": ["school", "point_of_interest", "establishment"], "vicinity": "JFX8+36C, Tola Mahulia"}], "status": "OK"}