{"html_attributions": [], "results": [{"business_status": "OPERATIONAL", "geometry": {"location": {"lat": 24.7160273, "lng": 86.51320249999999}, "viewport": {"northeast": {"lat": 24.7173824802915, "lng": 86.5145862302915}, "southwest": {"lat": 24.7146845197085, "lng": 86.51188826970849}}}, "icon": "https://maps.gstatic.com/mapfiles/place_api/icons/v1/png_71/school-71.png", "icon_background_color": "#7B9EB0", "icon_mask_base_uri": "https://maps.gstatic.com/mapfiles/place_api/icons/v2/school_pinlet", "name": "Primary School Tilauna", "place_id": "ChIJxX2D2zNy8TkRTQ-FISEuA84", "plus_code": {"compound_code": "PG87+C7 Tola Tilauna, Bihar, India", "global_code": "7MP8PG87+C7"}, "reference": "ChIJxX2D2zNy8TkRTQ-FISEuA84", "scope": "GOOGLE", "types": ["school", "point_of_interest", "establishment"], "vicinity": "Tola Tilauna"}, {"business_status": "OPERATIONAL", "geometry": {"location": {"lat": 24.7169861, "lng": 86.5140526}, "viewport": {"northeast": {"lat": 24.7183560802915, "lng": 86.51535833029149}, "southwest": {"lat": 24.7156581197085, "lng": 86.51266036970848}}}, "icon": "https://maps.gstatic.com/mapfiles/place_api/icons/v1/png_71/school-71.png", "icon_background_color": "#7B9EB0", "icon_mask_base_uri": "https://maps.gstatic.com/mapfiles/place_api/icons/v2/school_pinlet", "name": "Azad tilauna", "opening_hours": {"open_now": true}, "place_id": "ChIJI5apXxRz8TkR09D_yG8wCKM", "plus_code": {"compound_code": "PG87+QJ Tola Tilauna, Bihar, India", "global_code": "7MP8PG87+QJ"}, "reference": "ChIJI5apXxRz8TkR09D_yG8wCKM", "scope": "GOOGLE", "types": ["school", "point_of_interest", "establishment"], "vicinity": "Salfia Road, Tola Tilauna"}, {"business_status": "OPERATIONAL", "geometry": {"location": {"lat": 24.7169896, "lng": 86.5140553}, "viewport": {"northeast": {"lat": 24.7183596802915, "lng": 86.51536078029152}, "southwest": {"lat": 24.7156617197085, "lng": 86.51266281970851}}}, "icon": "https://maps.gstatic.com/mapfiles/place_api/icons/v1/png_71/school-71.png", "icon_background_color": "#7B9EB0", "icon_mask_base_uri": "https://maps.gstatic.com/mapfiles/place_api/icons/v2/school_pinlet", "name": "Azad library", "opening_hours": {"open_now": true}, "place_id": "ChIJ_91Rv85z8TkR-EpmJPw6w7w", "plus_code": {"compound_code": "PG87+QJ Tola Tilauna, Bihar, India", "global_code": "7MP8PG87+QJ"}, "reference": "ChIJ_91Rv85z8TkR-EpmJPw6w7w", "scope": "GOOGLE", "types": ["school", "point_of_interest", "establishment"], "vicinity": "Salfia Road, Tola Tilauna"}, {"business_status": "OPERATIONAL", "geometry": {"location": {"lat": 24.7166305, "lng": 86.5141536}, "viewport": {"northeast": {"lat": 24.7179499302915, "lng": 86.5154835302915}, "southwest": {"lat": 24.7152519697085, "lng": 86.5127855697085}}}, "icon": "https://maps.gstatic.com/mapfiles/place_api/icons/v1/png_71/school-71.png", "icon_background_color": "#7B9EB0", "icon_mask_base_uri": "https://maps.gstatic.com/mapfiles/place_api/icons/v2/school_pinlet", "name": "Madarsah islamiya", "photos": [{"height": 2304, "html_attributions": ["<a href=\"https://maps.google.com/maps/contrib/114848796765891727933\">Md jawed Akhtar</a>"], "photo_reference": "Aap_uECiqafrl1DO5PvfmV2LJ0JzcSNTl3SehMOeEnqoiYSLVwCbYSVdPLAsu5cz8bsytGh5xdZ2aF07gnNmb7Gs8kNZBjv0nY2KsMZQuxlMhNGsfW5TdUAlB-6B3cy3V_VKM8QbCAmPCEOf0WziS1_HA0zlYOZ87RUMYkF1sfcRrrjYWcIe", "width": 4096}], "place_id": "ChIJZWsto4Rz8TkRO7xhamnFGwY", "reference": "ChIJZWsto4Rz8TkRO7xhamnFGwY", "scope": "GOOGLE", "types": ["school", "point_of_interest", "establishment"], "vicinity": "PG87+MM2, Tilona, Simultala"}], "status": "OK"}