{"html_attributions": [], "results": [{"business_status": "OPERATIONAL", "geometry": {"location": {"lat": 25.0608468, "lng": 86.52643289999999}, "viewport": {"northeast": {"lat": 25.0621307302915, "lng": 86.5277434802915}, "southwest": {"lat": 25.0594327697085, "lng": 86.5250455197085}}}, "icon": "https://maps.gstatic.com/mapfiles/place_api/icons/v1/png_71/school-71.png", "icon_background_color": "#7B9EB0", "icon_mask_base_uri": "https://maps.gstatic.com/mapfiles/place_api/icons/v2/school_pinlet", "name": "Manish Singh Rajput Maghiyachak", "place_id": "ChIJDeSpR5iX8TkRNHZBlemyEBo", "plus_code": {"compound_code": "3G6G+8H Tola Banhara, Bihar, India", "global_code": "7MQ83G6G+8H"}, "rating": 5, "reference": "ChIJDeSpR5iX8TkRNHZBlemyEBo", "scope": "GOOGLE", "types": ["school", "point_of_interest", "establishment"], "user_ratings_total": 2, "vicinity": "Unnamed Road"}, {"business_status": "OPERATIONAL", "geometry": {"location": {"lat": 25.0558928, "lng": 86.5343465}, "viewport": {"northeast": {"lat": 25.0572496802915, "lng": 86.5356716302915}, "southwest": {"lat": 25.0545517197085, "lng": 86.5329736697085}}}, "icon": "https://maps.gstatic.com/mapfiles/place_api/icons/v1/png_71/school-71.png", "icon_background_color": "#7B9EB0", "icon_mask_base_uri": "https://maps.gstatic.com/mapfiles/place_api/icons/v2/school_pinlet", "name": "J M S Quidg Center", "opening_hours": {"open_now": true}, "photos": [{"height": 2560, "html_attributions": ["<a href=\"https://maps.google.com/maps/contrib/108686480523126982172\">ss music present</a>"], "photo_reference": "Aap_uED7dV0gjh97gLs51fmPupsFWrSbOYy_-wiKJnAu4MxeOeXl2kx9c4W31y3ltyl11h0cc31ly1OrecTeYETFtgdID1z60OE7FAcmAFOvOpp-Jp-vKF16J1WJQm317QpsXPB8XYHh0HMXM8hmoqazDldFLhVoaG1MvMFyuj_kre0oxl0", "width": 1440}], "place_id": "ChIJrwk82YaX8TkRbicp3q0p1F8", "rating": 1, "reference": "ChIJrwk82YaX8TkRbicp3q0p1F8", "scope": "GOOGLE", "types": ["school", "point_of_interest", "establishment"], "user_ratings_total": 1, "vicinity": "3G4M+9P5, Mahuli"}, {"business_status": "OPERATIONAL", "geometry": {"location": {"lat": 25.0558477, "lng": 86.5343429}, "viewport": {"northeast": {"lat": 25.0572108302915, "lng": 86.53565683029152}, "southwest": {"lat": 25.0545128697085, "lng": 86.53295886970851}}}, "icon": "https://maps.gstatic.com/mapfiles/place_api/icons/v1/png_71/school-71.png", "icon_background_color": "#7B9EB0", "icon_mask_base_uri": "https://maps.gstatic.com/mapfiles/place_api/icons/v2/school_pinlet", "name": "\u0938\u092b\u0932\u0924\u093e \u090f\u0915\u094d\u0938\u092a\u094d\u0930\u0947\u0938 \u092e\u0939\u0941\u0932\u0940 (Ajeet Sir)", "opening_hours": {"open_now": true}, "place_id": "ChIJGfktGGmX8TkR3W8DlziQ5VI", "plus_code": {"compound_code": "3G4M+8P Tola Banhara, Bihar, India", "global_code": "7MQ83G4M+8P"}, "reference": "ChIJGfktGGmX8TkR3W8DlziQ5VI", "scope": "GOOGLE", "types": ["secondary_school", "university", "school", "point_of_interest", "establishment"], "vicinity": "Unnamed Road"}, {"business_status": "OPERATIONAL", "geometry": {"location": {"lat": 25.0558426, "lng": 86.5343553}, "viewport": {"northeast": {"lat": 25.0572082302915, "lng": 86.53566303029152}, "southwest": {"lat": 25.0545102697085, "lng": 86.5329650697085}}}, "icon": "https://maps.gstatic.com/mapfiles/place_api/icons/v1/png_71/school-71.png", "icon_background_color": "#7B9EB0", "icon_mask_base_uri": "https://maps.gstatic.com/mapfiles/place_api/icons/v2/school_pinlet", "name": "\u0938\u092b\u0932\u0924\u093e \u090f\u0915\u094d\u0938\u092a\u094d\u0930\u0947\u0938 \u092e\u0939\u0941\u0932\u0940 ,\u0905\u091c\u0940\u0924 \u0938\u0930", "place_id": "ChIJn3JhipeX8TkR1WtUhjtwJRk", "rating": 4, "reference": "ChIJn3JhipeX8TkR1WtUhjtwJRk", "scope": "GOOGLE", "types": ["secondary_school", "university", "school", "point_of_interest", "establishment"], "user_ratings_total": 1, "vicinity": "3G4M+8PQ, Mahuli"}, {"business_status": "OPERATIONAL", "geometry": {"location": {"lat": 25.0569209, "lng": 86.53761659999999}, "viewport": {"northeast": {"lat": 25.0582839802915, "lng": 86.5389231802915}, "southwest": {"lat": 25.0555860197085, "lng": 86.53622521970848}}}, "icon": "https://maps.gstatic.com/mapfiles/place_api/icons/v1/png_71/school-71.png", "icon_background_color": "#7B9EB0", "icon_mask_base_uri": "https://maps.gstatic.com/mapfiles/place_api/icons/v2/school_pinlet", "name": "\u092a\u094d\u0930\u093e\u0925\u092e\u093f\u0915 \u0935\u093f\u0926\u094d\u092f\u093e\u0932\u092f \u092c\u0928\u094c\u0932\u0940 \u092c\u093e\u092c\u0942\u091f\u094b\u0932\u093e", "place_id": "ChIJ3-RP09-X8TkRLwX-dBSjlEI", "plus_code": {"compound_code": "3G4Q+Q2 Kharagpur, Bihar, India", "global_code": "7MQ83G4Q+Q2"}, "reference": "ChIJ3-RP09-X8TkRLwX-dBSjlEI", "scope": "GOOGLE", "types": ["primary_school", "school", "point_of_interest", "establishment"], "vicinity": "\u092a\u094d\u0930\u093e\u0925\u092e\u093f\u0915 \u0935\u093f\u0926\u094d\u092f\u093e\u0932\u092f \u092c\u0928\u094c\u0932\u0940 \u092c\u093e\u092c\u0942\u091f\u094b\u0932\u093e ,\u092e\u094b\u0939\u0941\u0932\u0940, \u0930\u094b\u0921, Kharagpur"}, {"business_status": "OPERATIONAL", "geometry": {"location": {"lat": 25.0568528, "lng": 86.5380929}, "viewport": {"northeast": {"lat": 25.0582899302915, "lng": 86.53917758029151}, "southwest": {"lat": 25.0555919697085, "lng": 86.53647961970849}}}, "icon": "https://maps.gstatic.com/mapfiles/place_api/icons/v1/png_71/school-71.png", "icon_background_color": "#7B9EB0", "icon_mask_base_uri": "https://maps.gstatic.com/mapfiles/place_api/icons/v2/school_pinlet", "name": "Mathura Durgamandir Bhanra", "photos": [{"height": 2736, "html_attributions": ["<a href=\"https://maps.google.com/maps/contrib/110251152608649326413\">abhishek kumar</a>"], "photo_reference": "Aap_uECQUBqWYZ7D2gOFFOE5fJsu85ssUvGbrRu_pfY68KriaJlaMW2ethJejjiFEV4Zdt26zNanwSjBKGkj9PKqJW4wuCGkbYq66hDzS1GCUf5Sj7JHmnU10SrqH_lL4VNXxncHMH40__W_SLyCOdfeGxgSdBdt5PtCUwcE3WBMMeA_BgaB", "width": 2736}], "place_id": "ChIJRcG-YvKX8TkRqpljEONqbHQ", "reference": "ChIJRcG-YvKX8TkRqpljEONqbHQ", "scope": "GOOGLE", "types": ["school", "point_of_interest", "establishment"], "vicinity": "3G4Q+P6W, Mathura"}, {"business_status": "OPERATIONAL", "geometry": {"location": {"lat": 25.0524998, "lng": 86.52356580000001}, "viewport": {"northeast": {"lat": 25.0538072802915, "lng": 86.52458258029152}, "southwest": {"lat": 25.0511093197085, "lng": 86.5218846197085}}}, "icon": "https://maps.gstatic.com/mapfiles/place_api/icons/v1/png_71/school-71.png", "icon_background_color": "#7B9EB0", "icon_mask_base_uri": "https://maps.gstatic.com/mapfiles/place_api/icons/v2/school_pinlet", "name": "\u092e\u0939\u093f\u092e\u093e\u091a\u0915 \u092a\u094d\u0930\u093e\u0925\u092e\u093f\u0915 \u0935\u093f\u0926\u094d\u092f\u093e\u0932\u092f", "photos": [{"height": 4160, "html_attributions": ["<a href=\"https://maps.google.com/maps/contrib/105840307135162371222\">Md Babul</a>"], "photo_reference": "Aap_uEBYop_2ZgJCQFRmwIyIm3j-nt4Rggvqmo_3WFa-iuajGRYS68xyT7ekEdzdcP1xKPEHGhARd1zbwDpLNnCcR9gqdJjLre1nLn7bhOC6VTYtFUXNz7nBI_Ywp5gwGKAxQN-W_y_dTsKePvxA4Dq73TSio6FFMoclmiWntOoUD9ohVdZN", "width": 1952}], "place_id": "ChIJQ4mUad-Z8TkRavOFz2RPN0E", "rating": 5, "reference": "ChIJQ4mUad-Z8TkRavOFz2RPN0E", "scope": "GOOGLE", "types": ["school", "point_of_interest", "establishment"], "user_ratings_total": 1, "vicinity": "3G2F+XCW, Tola Banhara"}, {"business_status": "OPERATIONAL", "geometry": {"location": {"lat": 25.0618757, "lng": 86.5389576}, "viewport": {"northeast": {"lat": 25.06316583029151, "lng": 86.54028418029151}, "southwest": {"lat": 25.0604678697085, "lng": 86.5375862197085}}}, "icon": "https://maps.gstatic.com/mapfiles/place_api/icons/v1/png_71/school-71.png", "icon_background_color": "#7B9EB0", "icon_mask_base_uri": "https://maps.gstatic.com/mapfiles/place_api/icons/v2/school_pinlet", "name": "Uttar Tola Hospital Banauli", "place_id": "ChIJid41SdiX8TkRYwMGfPbE2nY", "reference": "ChIJid41SdiX8TkRYwMGfPbE2nY", "scope": "GOOGLE", "types": ["school", "point_of_interest", "establishment"], "vicinity": "3G6Q+QH4"}, {"business_status": "OPERATIONAL", "geometry": {"location": {"lat": 25.0589822, "lng": 86.5197738}, "viewport": {"northeast": {"lat": 25.0602386302915, "lng": 86.5210631802915}, "southwest": {"lat": 25.05754066970849, "lng": 86.51836521970849}}}, "icon": "https://maps.gstatic.com/mapfiles/place_api/icons/v1/png_71/school-71.png", "icon_background_color": "#7B9EB0", "icon_mask_base_uri": "https://maps.gstatic.com/mapfiles/place_api/icons/v2/school_pinlet", "name": "\u0930\u093e\u091c\u0915\u0940\u092f \u092c\u0941\u0928\u093f\u092f\u093e\u0926\u0940 \u0935\u093f\u0926\u094d\u092f\u093e\u0932\u092f \u092e\u093f\u0932\u094d\u0915\u0940", "place_id": "ChIJgdwEp2iX8TkRT_Uu8FDvKhY", "plus_code": {"compound_code": "3G59+HW Tola Banhara, Bihar, India", "global_code": "7MQ83G59+HW"}, "reference": "ChIJgdwEp2iX8TkRT_Uu8FDvKhY", "scope": "GOOGLE", "types": ["school", "point_of_interest", "establishment"], "vicinity": "Milki Chak"}, {"business_status": "OPERATIONAL", "geometry": {"location": {"lat": 25.0484883, "lng": 86.52933589999999}, "viewport": {"northeast": {"lat": 25.04959348029151, "lng": 86.53081193029152}, "southwest": {"lat": 25.0468955197085, "lng": 86.52811396970851}}}, "icon": "https://maps.gstatic.com/mapfiles/place_api/icons/v1/png_71/school-71.png", "icon_background_color": "#7B9EB0", "icon_mask_base_uri": "https://maps.gstatic.com/mapfiles/place_api/icons/v2/school_pinlet", "name": "Middle School, Jamghat", "place_id": "ChIJ____79mZ8TkRBKWUs05PmTM", "rating": 5, "reference": "ChIJ____79mZ8TkRBKWUs05PmTM", "scope": "GOOGLE", "types": ["school", "point_of_interest", "establishment"], "user_ratings_total": 1, "vicinity": "2GXH+9PW, Bagbari"}], "status": "OK"}