{"html_attributions": [], "results": [{"business_status": "OPERATIONAL", "geometry": {"location": {"lat": 25.0757128, "lng": 86.5309673}, "viewport": {"northeast": {"lat": 25.0771462302915, "lng": 86.5322129802915}, "southwest": {"lat": 25.0744482697085, "lng": 86.5295150197085}}}, "icon": "https://maps.gstatic.com/mapfiles/place_api/icons/v1/png_71/school-71.png", "icon_background_color": "#7B9EB0", "icon_mask_base_uri": "https://maps.gstatic.com/mapfiles/place_api/icons/v2/school_pinlet", "name": "Barimanghyan High School", "place_id": "ChIJ8W_WiMiX8TkRfBPHnbdc7iQ", "plus_code": {"compound_code": "3GGJ+79 Majhgain, Bihar, India", "global_code": "7MQ83GGJ+79"}, "reference": "ChIJ8W_WiMiX8TkRfBPHnbdc7iQ", "scope": "GOOGLE", "types": ["school", "point_of_interest", "establishment"], "vicinity": "Bablu. kumar, Majhgain"}, {"business_status": "OPERATIONAL", "geometry": {"location": {"lat": 25.0753559, "lng": 86.5303961}, "viewport": {"northeast": {"lat": 25.0766630302915, "lng": 86.53175313029152}, "southwest": {"lat": 25.0739650697085, "lng": 86.52905516970851}}}, "icon": "https://maps.gstatic.com/mapfiles/place_api/icons/v1/png_71/school-71.png", "icon_background_color": "#7B9EB0", "icon_mask_base_uri": "https://maps.gstatic.com/mapfiles/place_api/icons/v2/school_pinlet", "name": "Bari Majhgain School", "opening_hours": {"open_now": false}, "place_id": "ChIJgfmgm3KX8TkR1ZMwi0Gs8PU", "rating": 4.5, "reference": "ChIJgfmgm3KX8TkR1ZMwi0Gs8PU", "scope": "GOOGLE", "types": ["school", "point_of_interest", "establishment"], "user_ratings_total": 4, "vicinity": "3GGJ+45R, Majhgain"}, {"business_status": "OPERATIONAL", "geometry": {"location": {"lat": 25.0805576, "lng": 86.5283888}, "viewport": {"northeast": {"lat": 25.0819171302915, "lng": 86.5296864802915}, "southwest": {"lat": 25.0792191697085, "lng": 86.5269885197085}}}, "icon": "https://maps.gstatic.com/mapfiles/place_api/icons/v1/png_71/school-71.png", "icon_background_color": "#7B9EB0", "icon_mask_base_uri": "https://maps.gstatic.com/mapfiles/place_api/icons/v2/school_pinlet", "name": "\u091c\u094d\u092f\u094b\u0924\u0940 D.j", "photos": [{"height": 2560, "html_attributions": ["<a href=\"https://maps.google.com/maps/contrib/107782364949951226594\">Subhash kr.</a>"], "photo_reference": "Aap_uEB3ODxtZaEYavxqo7N8X5nBsBPaBlE4Z2GPjM8REi6u8EIIrab-EshtNLDj0X1qDFanPkjOYOJw-eFtQ-1AE5gv3LTxZZuO0JErFdz4j-u52rVe1TpvZN5pGe7WeBFQCpKyA43TdLiQXxSwrBENnVxi3K5Xrp05Kp29TTUYazP7QCuW", "width": 1440}], "place_id": "ChIJD0K03pmX8TkRuGl5qti6Jx0", "reference": "ChIJD0K03pmX8TkRuGl5qti6Jx0", "scope": "GOOGLE", "types": ["school", "point_of_interest", "establishment"], "vicinity": "3GJH+69C, Raipura"}, {"business_status": "OPERATIONAL", "geometry": {"location": {"lat": 25.0799721, "lng": 86.52737359999999}, "viewport": {"northeast": {"lat": 25.0813644302915, "lng": 86.5288040802915}, "southwest": {"lat": 25.07866646970849, "lng": 86.52610611970847}}}, "icon": "https://maps.gstatic.com/mapfiles/place_api/icons/v1/png_71/school-71.png", "icon_background_color": "#7B9EB0", "icon_mask_base_uri": "https://maps.gstatic.com/mapfiles/place_api/icons/v2/school_pinlet", "name": "Sunrise Coaching Center", "place_id": "ChIJ02Xw96SX8TkRmOpCrTol3cQ", "reference": "ChIJ02Xw96SX8TkRmOpCrTol3cQ", "scope": "GOOGLE", "types": ["school", "point_of_interest", "establishment"], "vicinity": "3GHG+XWQ, Raipura"}, {"business_status": "OPERATIONAL", "geometry": {"location": {"lat": 25.0782907, "lng": 86.5262262}, "viewport": {"northeast": {"lat": 25.0797207802915, "lng": 86.5274295302915}, "southwest": {"lat": 25.0770228197085, "lng": 86.52473156970849}}}, "icon": "https://maps.gstatic.com/mapfiles/place_api/icons/v1/png_71/school-71.png", "icon_background_color": "#7B9EB0", "icon_mask_base_uri": "https://maps.gstatic.com/mapfiles/place_api/icons/v2/school_pinlet", "name": "unique education point residential school", "photos": [{"height": 2128, "html_attributions": ["<a href=\"https://maps.google.com/maps/contrib/107834417835258254205\">pawan kumar</a>"], "photo_reference": "Aap_uED0tdN1j_LyFqxfgG8snY29-lV2B70xvSTrxFdgPQX6K97btR1NJ2MHPHlRLdq_-OE_XF-xUxTU3drcc0StCYxDJtKFFiBLdJGVFLitoYBJQxbsg8aMe_lb0IFyUctJvTC0FDx5uBrEHOlvGGNKWddU7AVKMRqW-VMfXrt-SNWHQ6th", "width": 4608}], "place_id": "ChIJ_enHTmuX8TkRatIh3lyGilQ", "rating": 4.3, "reference": "ChIJ_enHTmuX8TkRatIh3lyGilQ", "scope": "GOOGLE", "types": ["school", "point_of_interest", "establishment"], "user_ratings_total": 6, "vicinity": "3GHG+8F9, Raipura Haveli, Kharagpur"}, {"business_status": "OPERATIONAL", "geometry": {"location": {"lat": 25.0807042, "lng": 86.53293}, "viewport": {"northeast": {"lat": 25.08188108029151, "lng": 86.5345199302915}, "southwest": {"lat": 25.0791831197085, "lng": 86.53182196970849}}}, "icon": "https://maps.gstatic.com/mapfiles/place_api/icons/v1/png_71/school-71.png", "icon_background_color": "#7B9EB0", "icon_mask_base_uri": "https://maps.gstatic.com/mapfiles/place_api/icons/v2/school_pinlet", "name": "Midill School Karngarh", "photos": [{"height": 1920, "html_attributions": ["<a href=\"https://maps.google.com/maps/contrib/109129162729525959544\">Ajay kumar Azad</a>"], "photo_reference": "Aap_uEAvd7wk6rI6B4O9Wo-LSXFWNcrtcRSSimlkWx4VlGwwT-35aQnu7XeBkH4vOxtmK0CvX4wjTWYYQEqkb8viywMeWYVgqBDPLuTplFF_d-XPNx8a4Qe25WRJkFfRWdb51TT-vGAl1J9x1DTbss7inzKUgg87JIZEoRB3cyuQHbKqvLGV", "width": 1080}], "place_id": "ChIJmQGXMh6X8TkRFe7SdDf67iU", "rating": 5, "reference": "ChIJmQGXMh6X8TkRFe7SdDf67iU", "scope": "GOOGLE", "types": ["school", "point_of_interest", "establishment"], "user_ratings_total": 3, "vicinity": "3GJM+75M, Patori"}, {"business_status": "OPERATIONAL", "geometry": {"location": {"lat": 25.0798704, "lng": 86.5337977}, "viewport": {"northeast": {"lat": 25.0814206802915, "lng": 86.5349159302915}, "southwest": {"lat": 25.0787227197085, "lng": 86.53221796970848}}}, "icon": "https://maps.gstatic.com/mapfiles/place_api/icons/v1/png_71/school-71.png", "icon_background_color": "#7B9EB0", "icon_mask_base_uri": "https://maps.gstatic.com/mapfiles/place_api/icons/v2/school_pinlet", "name": "\u092e\u0927\u094d\u092f \u0935\u093f\u0927\u093e\u0932\u092f \u0915\u0923\u0902\u0917\u0922\u093c", "photos": [{"height": 1920, "html_attributions": ["<a href=\"https://maps.google.com/maps/contrib/113265830376086985410\">SUMAN. K.P VIDEO</a>"], "photo_reference": "Aap_uEBaQGcvl6K7tCeB5Qv7HvsjN0qzrzWopERrIbGFQ9GxSmHAdFoQZs_d3NNinN_Z_Cp0vitdrBHDeEFM1FbB-v5sUhEGde0btZG3hyV8RmLR6b1Xgjm2HkM-53miwRHutOvze3jlsLtSKjXnXzwvWZ2_RSjmrjqsUAhWVWhROe7cGLSH", "width": 1080}], "place_id": "ChIJvU6eMNqX8TkRCRAhhCTaYAE", "reference": "ChIJvU6eMNqX8TkRCRAhhCTaYAE", "scope": "GOOGLE", "types": ["school", "point_of_interest", "establishment"], "vicinity": "3GHM+WGV, Majhgain"}, {"business_status": "OPERATIONAL", "geometry": {"location": {"lat": 25.0745947, "lng": 86.532692}, "viewport": {"northeast": {"lat": 25.0759905802915, "lng": 86.5340796302915}, "southwest": {"lat": 25.0732926197085, "lng": 86.53138166970848}}}, "icon": "https://maps.gstatic.com/mapfiles/place_api/icons/v1/png_71/school-71.png", "icon_background_color": "#7B9EB0", "icon_mask_base_uri": "https://maps.gstatic.com/mapfiles/place_api/icons/v2/school_pinlet", "name": "Primary school manjhgain", "place_id": "ChIJqfYKDYGX8TkRb91gwzMBSkA", "plus_code": {"compound_code": "3GFM+R3 Majhgain, Bihar, India", "global_code": "7MQ83GFM+R3"}, "reference": "ChIJqfYKDYGX8TkRb91gwzMBSkA", "scope": "GOOGLE", "types": ["school", "point_of_interest", "establishment"], "vicinity": "Majhgain"}, {"business_status": "OPERATIONAL", "geometry": {"location": {"lat": 25.0819851, "lng": 86.5285128}, "viewport": {"northeast": {"lat": 25.0833836802915, "lng": 86.5297685802915}, "southwest": {"lat": 25.08068571970849, "lng": 86.52707061970848}}}, "icon": "https://maps.gstatic.com/mapfiles/place_api/icons/v1/png_71/school-71.png", "icon_background_color": "#7B9EB0", "icon_mask_base_uri": "https://maps.gstatic.com/mapfiles/place_api/icons/v2/school_pinlet", "name": "Sub major . Mk singh", "photos": [{"height": 1920, "html_attributions": ["<a href=\"https://maps.google.com/maps/contrib/109739842289818038574\">nutan kumari</a>"], "photo_reference": "Aap_uEB4TMuFLeUkYsNBcsCo5NJWNEgTa0x_fLv6k9PMmAJv_ld8Xr0y0mSYiZsaInKC0Iq367Ey3WZ8wVaig-ZTvLgkudNqvRA0JxmEP5TGcENKWOl8OaAxMkM-87TRqsSnS9lxyoWscpohQ2EdxuEflXfxA_itTTkEX3VuikRoVZ3o78NX", "width": 1080}], "place_id": "ChIJv67qeoOX8TkRr7cVYHAmnVs", "rating": 5, "reference": "ChIJv67qeoOX8TkRr7cVYHAmnVs", "scope": "GOOGLE", "types": ["school", "point_of_interest", "establishment"], "user_ratings_total": 2, "vicinity": "3GJH+QCR, Raipura"}, {"business_status": "OPERATIONAL", "geometry": {"location": {"lat": 25.082303, "lng": 86.52865729999999}, "viewport": {"northeast": {"lat": 25.0836886302915, "lng": 86.5299351302915}, "southwest": {"lat": 25.0809906697085, "lng": 86.5272371697085}}}, "icon": "https://maps.gstatic.com/mapfiles/place_api/icons/v1/png_71/school-71.png", "icon_background_color": "#7B9EB0", "icon_mask_base_uri": "https://maps.gstatic.com/mapfiles/place_api/icons/v2/school_pinlet", "name": "Carrier point", "place_id": "ChIJZRnFCNeX8TkRHScDhYQvRBc", "plus_code": {"compound_code": "3GJH+WF Raipura, Bihar, India", "global_code": "7MQ83GJH+WF"}, "reference": "ChIJZRnFCNeX8TkRHScDhYQvRBc", "scope": "GOOGLE", "types": ["school", "point_of_interest", "establishment"], "vicinity": "Raipura"}, {"business_status": "OPERATIONAL", "geometry": {"location": {"lat": 25.0743938, "lng": 86.5380424}, "viewport": {"northeast": {"lat": 25.0757531302915, "lng": 86.53936688029151}, "southwest": {"lat": 25.0730551697085, "lng": 86.53666891970849}}}, "icon": "https://maps.gstatic.com/mapfiles/place_api/icons/v1/png_71/school-71.png", "icon_background_color": "#7B9EB0", "icon_mask_base_uri": "https://maps.gstatic.com/mapfiles/place_api/icons/v2/school_pinlet", "name": "Primary School, Amdaha Kalan", "photos": [{"height": 2448, "html_attributions": ["<a href=\"https://maps.google.com/maps/contrib/115499757915419697232\">Pranaw Raj</a>"], "photo_reference": "Aap_uEAaWnS9Ct_hrN_zLKhRj8oi5dULdFjab6e0pkbgkyo9of5Pz_Ny6weeF97KjPy_6H77kURWAa8X9kJMByGUTE2o0BiU2GF0WVZAUCSgRYUwbMfMN_2qQXc6gJ5FrGXH0tSAix6uWUCAbGGDodumc_O_NCj9up0K6cAA4TD99pZOGOQ", "width": 3264}], "place_id": "ChIJJ9v7qHWX8TkRQOA_J2VdIw4", "plus_code": {"compound_code": "3GFQ+Q6 Amdaha Kalan, Bihar, India", "global_code": "7MQ83GFQ+Q6"}, "rating": 3.3, "reference": "ChIJJ9v7qHWX8TkRQOA_J2VdIw4", "scope": "GOOGLE", "types": ["school", "point_of_interest", "establishment"], "user_ratings_total": 6, "vicinity": "Unnamed Road, Amdaha Kalan"}, {"business_status": "OPERATIONAL", "geometry": {"location": {"lat": 25.0749853, "lng": 86.5384894}, "viewport": {"northeast": {"lat": 25.0763609302915, "lng": 86.53975078029151}, "southwest": {"lat": 25.0736629697085, "lng": 86.5370528197085}}}, "icon": "https://maps.gstatic.com/mapfiles/place_api/icons/v1/png_71/school-71.png", "icon_background_color": "#7B9EB0", "icon_mask_base_uri": "https://maps.gstatic.com/mapfiles/place_api/icons/v2/school_pinlet", "name": "Hanuman,shiv,shanni Mandir", "opening_hours": {"open_now": false}, "place_id": "ChIJAQAADHWX8TkREhCLo6Q-eU4", "rating": 5, "reference": "ChIJAQAADHWX8TkREhCLo6Q-eU4", "scope": "GOOGLE", "types": ["school", "point_of_interest", "establishment"], "user_ratings_total": 1, "vicinity": "3GFQ+X9X, Amdaha"}, {"business_status": "OPERATIONAL", "geometry": {"location": {"lat": 25.0864191, "lng": 86.5306136}, "viewport": {"northeast": {"lat": 25.0876849302915, "lng": 86.53212653029149}, "southwest": {"lat": 25.0849869697085, "lng": 86.52942856970849}}}, "icon": "https://maps.gstatic.com/mapfiles/place_api/icons/v1/png_71/school-71.png", "icon_background_color": "#7B9EB0", "icon_mask_base_uri": "https://maps.gstatic.com/mapfiles/place_api/icons/v2/school_pinlet", "name": "Nazree Mission School", "opening_hours": {"open_now": false}, "place_id": "ChIJ6bd8zQ-X8TkRiAH9vUFvMLc", "plus_code": {"compound_code": "3GPJ+H6 Kharagpur, Bihar, India", "global_code": "7MQ83GPJ+H6"}, "rating": 5, "reference": "ChIJ6bd8zQ-X8TkRiAH9vUFvMLc", "scope": "GOOGLE", "types": ["primary_school", "school", "point_of_interest", "establishment"], "user_ratings_total": 2, "vicinity": "Nazree,, Kharagpur"}, {"business_status": "OPERATIONAL", "geometry": {"location": {"lat": 25.0696777, "lng": 86.5207317}, "viewport": {"northeast": {"lat": 25.0711287802915, "lng": 86.5218739802915}, "southwest": {"lat": 25.0684308197085, "lng": 86.5191760197085}}}, "icon": "https://maps.gstatic.com/mapfiles/place_api/icons/v1/png_71/school-71.png", "icon_background_color": "#7B9EB0", "icon_mask_base_uri": "https://maps.gstatic.com/mapfiles/place_api/icons/v2/school_pinlet", "name": "Sri Raghunath uch Vidyalaya", "opening_hours": {"open_now": false}, "place_id": "ChIJUVJBwmmX8TkR8fICT0lz3_4", "rating": 5, "reference": "ChIJUVJBwmmX8TkR8fICT0lz3_4", "scope": "GOOGLE", "types": ["school", "point_of_interest", "establishment"], "user_ratings_total": 1, "vicinity": "3G9C+V7H, Banhara"}, {"business_status": "OPERATIONAL", "geometry": {"location": {"lat": 25.0696507, "lng": 86.52061259999999}, "viewport": {"northeast": {"lat": 25.0710821802915, "lng": 86.5217945302915}, "southwest": {"lat": 25.06838421970849, "lng": 86.51909656970848}}}, "icon": "https://maps.gstatic.com/mapfiles/place_api/icons/v1/png_71/school-71.png", "icon_background_color": "#7B9EB0", "icon_mask_base_uri": "https://maps.gstatic.com/mapfiles/place_api/icons/v2/school_pinlet", "name": "Rangnath high school", "photos": [{"height": 1032, "html_attributions": ["<a href=\"https://maps.google.com/maps/contrib/113840059505212936267\">Samir Kumarsingh</a>"], "photo_reference": "Aap_uEBpG4QZBtSU1RHVo7yFb_uBzGUj0MeuuZ2RwOoqZMJCuN8T0xZuX5L5QKVtjipEZfZTIjUn5oyfT4bPi2XUK7HUedmMpBHiYwy9m7cc9x0fDKY88IY-BnOt2UuZjLwCsNLKgHu6tiSZkliCtY5Mp9T6oMR9M2wDyvc979yUXeiHw2sN", "width": 581}], "place_id": "ChIJeZ-S78OX8TkRVwXBuTwBrI0", "reference": "ChIJeZ-S78OX8TkRVwXBuTwBrI0", "scope": "GOOGLE", "types": ["school", "point_of_interest", "establishment"], "vicinity": "3G9C+V69, Tola Banhara"}], "status": "OK"}