{"html_attributions": [], "results": [{"business_status": "OPERATIONAL", "geometry": {"location": {"lat": 25.0869, "lng": 86.5420089}, "viewport": {"northeast": {"lat": 25.0883339302915, "lng": 86.5434029802915}, "southwest": {"lat": 25.0856359697085, "lng": 86.5407050197085}}}, "icon": "https://maps.gstatic.com/mapfiles/place_api/icons/v1/png_71/school-71.png", "icon_background_color": "#7B9EB0", "icon_mask_base_uri": "https://maps.gstatic.com/mapfiles/place_api/icons/v2/school_pinlet", "name": "Madhaya Vidyalaya,Choti Majhgoya", "place_id": "ChIJJ_Z7HUOW8TkRW_ivJvusxNQ", "plus_code": {"compound_code": "3GPR+QR Kharagpur, Bihar, India", "global_code": "7MQ83GPR+QR"}, "reference": "ChIJJ_Z7HUOW8TkRW_ivJvusxNQ", "scope": "GOOGLE", "types": ["secondary_school", "school", "point_of_interest", "establishment"], "vicinity": "Kharagpur - Asarganj Rd, Raipura Haveli, Kharagpur"}, {"business_status": "OPERATIONAL", "geometry": {"location": {"lat": 25.0849047, "lng": 86.55010089999999}, "viewport": {"northeast": {"lat": 25.0861690302915, "lng": 86.5515509302915}, "southwest": {"lat": 25.0834710697085, "lng": 86.54885296970849}}}, "icon": "https://maps.gstatic.com/mapfiles/place_api/icons/v1/png_71/school-71.png", "icon_background_color": "#7B9EB0", "icon_mask_base_uri": "https://maps.gstatic.com/mapfiles/place_api/icons/v2/school_pinlet", "name": "Middil School Kathna H. Kharagpur,Munger( Night)", "opening_hours": {"open_now": true}, "place_id": "ChIJNWcoHC-X8TkR4ER77SJELG0", "reference": "ChIJNWcoHC-X8TkR4ER77SJELG0", "scope": "GOOGLE", "types": ["school", "point_of_interest", "establishment"], "vicinity": "3HM2+X29, Majhgain"}, {"business_status": "OPERATIONAL", "geometry": {"location": {"lat": 25.076076, "lng": 86.5574796}, "viewport": {"northeast": {"lat": 25.0773979802915, "lng": 86.5588929802915}, "southwest": {"lat": 25.0747000197085, "lng": 86.55619501970848}}}, "icon": "https://maps.gstatic.com/mapfiles/place_api/icons/v1/png_71/school-71.png", "icon_background_color": "#7B9EB0", "icon_mask_base_uri": "https://maps.gstatic.com/mapfiles/place_api/icons/v2/school_pinlet", "name": "Madhya Vidhyalaya Champachak", "place_id": "ChIJc7KbOJWX8TkRGwWp-h0YCVQ", "reference": "ChIJc7KbOJWX8TkRGwWp-h0YCVQ", "scope": "GOOGLE", "types": ["school", "point_of_interest", "establishment"], "vicinity": "3HG4+CXQ, Chamma Chak"}, {"business_status": "OPERATIONAL", "geometry": {"location": {"lat": 25.0848404, "lng": 86.54741899999999}, "viewport": {"northeast": {"lat": 25.0861392302915, "lng": 86.54882093029151}, "southwest": {"lat": 25.0834412697085, "lng": 86.54612296970849}}}, "icon": "https://maps.gstatic.com/mapfiles/place_api/icons/v1/png_71/school-71.png", "icon_background_color": "#7B9EB0", "icon_mask_base_uri": "https://maps.gstatic.com/mapfiles/place_api/icons/v2/school_pinlet", "name": "Middle school kathna", "place_id": "ChIJu_S_XhGX8TkR6IQsr_UALWk", "rating": 5, "reference": "ChIJu_S_XhGX8TkR6IQsr_UALWk", "scope": "GOOGLE", "types": ["school", "point_of_interest", "establishment"], "user_ratings_total": 1, "vicinity": "3GMW+WXM, Majhgain"}, {"business_status": "OPERATIONAL", "geometry": {"location": {"lat": 25.0765707, "lng": 86.5589995}, "viewport": {"northeast": {"lat": 25.0778358302915, "lng": 86.56032323029152}, "southwest": {"lat": 25.0751378697085, "lng": 86.5576252697085}}}, "icon": "https://maps.gstatic.com/mapfiles/place_api/icons/v1/png_71/school-71.png", "icon_background_color": "#7B9EB0", "icon_mask_base_uri": "https://maps.gstatic.com/mapfiles/place_api/icons/v2/school_pinlet", "name": "Middle School Champachak", "photos": [{"height": 4032, "html_attributions": ["<a href=\"https://maps.google.com/maps/contrib/104971267357113721759\">Sanjay singh</a>"], "photo_reference": "Aap_uECAVJsiMdSeyEoJrfl3mr-g3Q7gEZqNTudgqEX-DBkrvJlYODrumwt3ig_tpZOeSLVuDr0E1O5PQ8JRWZ-YAE2j1xVn2kUkFQpmWmrco4n011ahT2WinefHMleMRxf09SU-DQHbvUzp_Hw38WRWQCO65sPTIr9qlWZ8HqIfIOlRrqSS", "width": 3024}], "place_id": "ChIJR0Y03rCX8TkRchtqB_ccu58", "rating": 4, "reference": "ChIJR0Y03rCX8TkRchtqB_ccu58", "scope": "GOOGLE", "types": ["school", "point_of_interest", "establishment"], "user_ratings_total": 2, "vicinity": "3HG5+JHH, Chamma Chak"}, {"business_status": "OPERATIONAL", "geometry": {"location": {"lat": 25.0852658, "lng": 86.5423295}, "viewport": {"northeast": {"lat": 25.0866806302915, "lng": 86.54373993029151}, "southwest": {"lat": 25.0839826697085, "lng": 86.5410419697085}}}, "icon": "https://maps.gstatic.com/mapfiles/place_api/icons/v1/png_71/school-71.png", "icon_background_color": "#7B9EB0", "icon_mask_base_uri": "https://maps.gstatic.com/mapfiles/place_api/icons/v2/school_pinlet", "name": "\u0909\u0924\u094d\u0915\u094d\u0930\u092e\u093f\u0924 \u092e\u0927\u094d\u092f \u0935\u093f\u0926\u094d\u092f\u093e\u0932\u092f \u091b\u094b\u091f\u0940 \u092e\u0902\u091d\u0917\u093e\u0901\u092f", "opening_hours": {"open_now": false}, "photos": [{"height": 4000, "html_attributions": ["<a href=\"https://maps.google.com/maps/contrib/111236758571825935293\">Amit Kumar</a>"], "photo_reference": "Aap_uEBBkijbaKP_zRYSviOyrm4X9eFBfn9AvuXog5Se9YGpYm2xrdHcpuuepkSCsUFCTs3j8_B44YA4LL-L4pjM-9NK4QxMLRt6Sk0iuOPaiLBqX-yZUJBsV7bKRTRLgVm5EYBXhNnw8wCD6xbvC7eZp8mqioYw7DHRiskksZivngZhWAeA", "width": 3000}], "place_id": "ChIJc191vIKX8TkRZDs3ePvGh3A", "plus_code": {"compound_code": "3GPR+4W Majhgain, Bihar, India", "global_code": "7MQ83GPR+4W"}, "rating": 5, "reference": "ChIJc191vIKX8TkRZDs3ePvGh3A", "scope": "GOOGLE", "types": ["school", "point_of_interest", "establishment"], "user_ratings_total": 2, "vicinity": "Chhoti, Majhgain"}, {"business_status": "OPERATIONAL", "geometry": {"location": {"lat": 25.0749853, "lng": 86.5384894}, "viewport": {"northeast": {"lat": 25.0763609302915, "lng": 86.53975078029151}, "southwest": {"lat": 25.0736629697085, "lng": 86.5370528197085}}}, "icon": "https://maps.gstatic.com/mapfiles/place_api/icons/v1/png_71/school-71.png", "icon_background_color": "#7B9EB0", "icon_mask_base_uri": "https://maps.gstatic.com/mapfiles/place_api/icons/v2/school_pinlet", "name": "Hanuman,shiv,shanni Mandir", "opening_hours": {"open_now": false}, "place_id": "ChIJAQAADHWX8TkREhCLo6Q-eU4", "rating": 5, "reference": "ChIJAQAADHWX8TkREhCLo6Q-eU4", "scope": "GOOGLE", "types": ["school", "point_of_interest", "establishment"], "user_ratings_total": 1, "vicinity": "3GFQ+X9X, Amdaha"}, {"business_status": "OPERATIONAL", "geometry": {"location": {"lat": 25.0675694, "lng": 86.5539517}, "viewport": {"northeast": {"lat": 25.0685429802915, "lng": 86.5546423802915}, "southwest": {"lat": 25.0658450197085, "lng": 86.55194441970849}}}, "icon": "https://maps.gstatic.com/mapfiles/place_api/icons/v1/png_71/school-71.png", "icon_background_color": "#7B9EB0", "icon_mask_base_uri": "https://maps.gstatic.com/mapfiles/place_api/icons/v2/school_pinlet", "name": "Kali Mandil", "place_id": "ChIJVVVVlZGX8TkRzqoGR3PutQw", "reference": "ChIJVVVVlZGX8TkRzqoGR3PutQw", "scope": "GOOGLE", "types": ["school", "point_of_interest", "establishment"], "vicinity": "3H93+2HG, Manga Kharwe"}, {"business_status": "OPERATIONAL", "geometry": {"location": {"lat": 25.0743938, "lng": 86.5380424}, "viewport": {"northeast": {"lat": 25.0757531302915, "lng": 86.53936688029151}, "southwest": {"lat": 25.0730551697085, "lng": 86.53666891970849}}}, "icon": "https://maps.gstatic.com/mapfiles/place_api/icons/v1/png_71/school-71.png", "icon_background_color": "#7B9EB0", "icon_mask_base_uri": "https://maps.gstatic.com/mapfiles/place_api/icons/v2/school_pinlet", "name": "Primary School, Amdaha Kalan", "photos": [{"height": 2448, "html_attributions": ["<a href=\"https://maps.google.com/maps/contrib/115499757915419697232\">Pranaw Raj</a>"], "photo_reference": "Aap_uEAX8jqM6q7h8jbOT5vu1HEc3U0vlWuC8B8aWmfV06kss7wo1m9gsNvXUScvANd22XHmaeS_2QjwVdltswNJd0S8uN_qBUnJZoMoy_b9gffI5gP6UFwrYqBKMhL4Mx4RuFAJS1fC17EZkjytMI2-xJuHPohTctVlBZvPJ2DPFnprz5g", "width": 3264}], "place_id": "ChIJJ9v7qHWX8TkRQOA_J2VdIw4", "plus_code": {"compound_code": "3GFQ+Q6 Amdaha Kalan, Bihar, India", "global_code": "7MQ83GFQ+Q6"}, "rating": 3.3, "reference": "ChIJJ9v7qHWX8TkRQOA_J2VdIw4", "scope": "GOOGLE", "types": ["school", "point_of_interest", "establishment"], "user_ratings_total": 6, "vicinity": "Unnamed Road, Amdaha Kalan"}, {"business_status": "OPERATIONAL", "geometry": {"location": {"lat": 25.0869813, "lng": 86.54200949999999}, "viewport": {"northeast": {"lat": 25.0883745802915, "lng": 86.5434032802915}, "southwest": {"lat": 25.0856766197085, "lng": 86.5407053197085}}}, "icon": "https://maps.gstatic.com/mapfiles/place_api/icons/v1/png_71/school-71.png", "icon_background_color": "#7B9EB0", "icon_mask_base_uri": "https://maps.gstatic.com/mapfiles/place_api/icons/v2/school_pinlet", "name": "High School Chhoti Manjhgain", "opening_hours": {"open_now": false}, "photos": [{"height": 3000, "html_attributions": ["<a href=\"https://maps.google.com/maps/contrib/111236758571825935293\">Amit Kumar</a>"], "photo_reference": "Aap_uEDjsMZlrlC3mu6tSTTCu6hGAlFpkWRFZQ7bW7LUni8sBX3-Xc4qcUfRYD_YRP8yLOHr5iUiFHmd8PtDjlnkV4HbYl5wGA-e5JsXrVMK-oWRzH_0MOI0D-yNcxp9CwLzK_6wweQmomNn0r4AlbqgTteruwB84F1Xai5o25gCQ-7NBB5k", "width": 4000}], "place_id": "ChIJEcpDr6eX8TkRteIp-DoitXY", "plus_code": {"compound_code": "3GPR+QR Majhgain, Bihar, India", "global_code": "7MQ83GPR+QR"}, "rating": 4.6, "reference": "ChIJEcpDr6eX8TkRteIp-DoitXY", "scope": "GOOGLE", "types": ["school", "point_of_interest", "establishment"], "user_ratings_total": 11, "vicinity": "Majhgain"}], "status": "OK"}