{"html_attributions": [], "results": [{"business_status": "OPERATIONAL", "geometry": {"location": {"lat": 26.0212224, "lng": 89.9824282}, "viewport": {"northeast": {"lat": 26.0225544302915, "lng": 89.98384043029151}, "southwest": {"lat": 26.01985646970849, "lng": 89.9811424697085}}}, "icon": "https://maps.gstatic.com/mapfiles/place_api/icons/v1/png_71/generic_business-71.png", "icon_background_color": "#7B9EB0", "icon_mask_base_uri": "https://maps.gstatic.com/mapfiles/place_api/icons/v2/generic_pinlet", "name": "ESI Dispensary", "place_id": "ChIJKQ1AV4yh4jkRKx3HIuluH9s", "plus_code": {"compound_code": "2XCJ+FX Dhubri, Assam, India", "global_code": "7MRF2XCJ+FX"}, "reference": "ChIJKQ1AV4yh4jkRKx3HIuluH9s", "scope": "GOOGLE", "types": ["doctor", "health", "point_of_interest", "establishment"], "vicinity": "Doctor Zakir Hussain Road, Ward Number 9, Boro Bazar, Dhubri"}, {"business_status": "OPERATIONAL", "geometry": {"location": {"lat": 26.021668, "lng": 89.987389}, "viewport": {"northeast": {"lat": 26.02303798029151, "lng": 89.98875348029149}, "southwest": {"lat": 26.0203400197085, "lng": 89.98605551970849}}}, "icon": "https://maps.gstatic.com/mapfiles/place_api/icons/v1/png_71/generic_business-71.png", "icon_background_color": "#7B9EB0", "icon_mask_base_uri": "https://maps.gstatic.com/mapfiles/place_api/icons/v2/generic_pinlet", "name": "Dr. Reshab Rajak", "place_id": "ChIJsxoaOdCh4jkRcvBcruWHoEw", "plus_code": {"compound_code": "2XCP+MX Dhubri, Assam, India", "global_code": "7MRF2XCP+MX"}, "reference": "ChIJsxoaOdCh4jkRcvBcruWHoEw", "scope": "GOOGLE", "types": ["doctor", "health", "point_of_interest", "establishment"], "vicinity": "Boro Bazar, Dhubri"}, {"business_status": "OPERATIONAL", "geometry": {"location": {"lat": 26.0186593, "lng": 89.98265909999999}, "viewport": {"northeast": {"lat": 26.0200187302915, "lng": 89.98406023029149}, "southwest": {"lat": 26.0173207697085, "lng": 89.98136226970848}}}, "icon": "https://maps.gstatic.com/mapfiles/place_api/icons/v1/png_71/generic_business-71.png", "icon_background_color": "#7B9EB0", "icon_mask_base_uri": "https://maps.gstatic.com/mapfiles/place_api/icons/v2/generic_pinlet", "name": "Hamdard Dawakhana Agency", "opening_hours": {"open_now": false}, "place_id": "ChIJ2SJVOBWg4jkRqXMY3qbdBO0", "plus_code": {"compound_code": "2X9M+F3 Dhubri, Assam, India", "global_code": "7MRF2X9M+F3"}, "rating": 5, "reference": "ChIJ2SJVOBWg4jkRqXMY3qbdBO0", "scope": "GOOGLE", "types": ["doctor", "health", "point_of_interest", "establishment"], "user_ratings_total": 2, "vicinity": "740, Doctor Zakir Hussain Road, Boro Bazar, Dhubri"}, {"business_status": "OPERATIONAL", "geometry": {"location": {"lat": 26.0190472, "lng": 89.9881748}, "viewport": {"northeast": {"lat": 26.0204227302915, "lng": 89.98945403029151}, "southwest": {"lat": 26.0177247697085, "lng": 89.98675606970849}}}, "icon": "https://maps.gstatic.com/mapfiles/place_api/icons/v1/png_71/generic_business-71.png", "icon_background_color": "#7B9EB0", "icon_mask_base_uri": "https://maps.gstatic.com/mapfiles/place_api/icons/v2/generic_pinlet", "name": "Dr. Somnath's ROYAL Palace", "place_id": "ChIJa5upIROg4jkRsT0FSV9oWz4", "rating": 5, "reference": "ChIJa5upIROg4jkRsT0FSV9oWz4", "scope": "GOOGLE", "types": ["doctor", "health", "point_of_interest", "establishment"], "user_ratings_total": 2, "vicinity": "2X9Q+J77, Boro Bazar, Dhubri"}, {"business_status": "OPERATIONAL", "geometry": {"location": {"lat": 26.02568579999999, "lng": 89.9753669}, "viewport": {"northeast": {"lat": 26.0270056302915, "lng": 89.97668333029151}, "southwest": {"lat": 26.0243076697085, "lng": 89.9739853697085}}}, "icon": "https://maps.gstatic.com/mapfiles/place_api/icons/v1/png_71/generic_business-71.png", "icon_background_color": "#7B9EB0", "icon_mask_base_uri": "https://maps.gstatic.com/mapfiles/place_api/icons/v2/generic_pinlet", "name": "Probhat medical hall", "photos": [{"height": 2592, "html_attributions": ["<a href=\"https://maps.google.com/maps/contrib/112945880939707946465\">Rajshekhar Funny videos</a>"], "photo_reference": "Aap_uEA0vLnajV6DhiGpanrDzkO52OfTu3scMMjmRkn3K3OGB07z1k5hc25rwOVBkLHc7jlQYCBRlBGQIHSwviBRa-rQDOnkh2efxMPG7DFQi56xTf74VI5uR9kGwLnpyjmTXrdWwm8hCjYaz6-OpPGyQDQYYsQyKdyfM7NbMZoOoB7G2bsU", "width": 1944}], "place_id": "ChIJU1VVvDug4jkRgnNUhTTVvmw", "reference": "ChIJU1VVvDug4jkRgnNUhTTVvmw", "scope": "GOOGLE", "types": ["doctor", "health", "point_of_interest", "establishment"], "vicinity": "2XGG+74H, College Nagar, Dhubri"}, {"business_status": "OPERATIONAL", "geometry": {"location": {"lat": 26.0206982, "lng": 89.9743463}, "viewport": {"northeast": {"lat": 26.0219513302915, "lng": 89.9758081802915}, "southwest": {"lat": 26.0192533697085, "lng": 89.97311021970847}}}, "icon": "https://maps.gstatic.com/mapfiles/place_api/icons/v1/png_71/generic_business-71.png", "icon_background_color": "#7B9EB0", "icon_mask_base_uri": "https://maps.gstatic.com/mapfiles/place_api/icons/v2/generic_pinlet", "name": "The aragya clinic medical and diagnostics center", "opening_hours": {"open_now": false}, "photos": [{"height": 1920, "html_attributions": ["<a href=\"https://maps.google.com/maps/contrib/104988324316076024505\">JESMINARA KHURSIDI</a>"], "photo_reference": "Aap_uECYHQhwEW1peRmwP_k9VxyMNLAWQroy83hNez030LbpHrmg3TnztCGBdhzUB-h6mjJ_Lehq3pEZkZ5EZ7LoDB5uWmqQZVMoVKRuUqO16QsIgWIcgMPVulUYZYDVonnV1-mSEx4NEiTVe7P4fLSxYkivcpKUZw_27Al23pmN_MMoF-kd", "width": 1080}], "place_id": "ChIJM-EjJrqh4jkRXtJs8YUPnqo", "plus_code": {"compound_code": "2XCF+7P Dhubri, Assam, India", "global_code": "7MRF2XCF+7P"}, "reference": "ChIJM-EjJrqh4jkRXtJs8YUPnqo", "scope": "GOOGLE", "types": ["doctor", "health", "point_of_interest", "establishment"], "vicinity": "Civil hospital link road, Jhagrarpar, Dhubri"}, {"business_status": "OPERATIONAL", "geometry": {"location": {"lat": 26.0206982, "lng": 89.9743463}, "viewport": {"northeast": {"lat": 26.0219513302915, "lng": 89.9758081802915}, "southwest": {"lat": 26.0192533697085, "lng": 89.97311021970847}}}, "icon": "https://maps.gstatic.com/mapfiles/place_api/icons/v1/png_71/generic_business-71.png", "icon_background_color": "#7B9EB0", "icon_mask_base_uri": "https://maps.gstatic.com/mapfiles/place_api/icons/v2/generic_pinlet", "name": "Sikh Temple", "opening_hours": {"open_now": false}, "photos": [{"height": 394, "html_attributions": ["<a href=\"https://maps.google.com/maps/contrib/106382301926592952734\">Vlogger Akbar</a>"], "photo_reference": "Aap_uEDO3v1mJ-rcBhd6BkNcP6uetgVHWOoRSNhLXavDsDwT0U-dVbDj2aWk4sIu7w1To3MgGkIo5leAfGR6l6H2_Q-BeeLxTcNQQRl1FTgRgvYXlGHtswEvuVRSduH98h2nZzW71VNQfolNSYxztX8rkLMc6VTY_noUUf3MCE82EqhoaLzK", "width": 720}], "place_id": "ChIJq6qqqjmg4jkRbDpuroIgKJ8", "rating": 5, "reference": "ChIJq6qqqjmg4jkRbDpuroIgKJ8", "scope": "GOOGLE", "types": ["doctor", "health", "point_of_interest", "establishment"], "user_ratings_total": 2, "vicinity": "2XCF+7PH, Silghagri, Santi Nagar, Dhubri"}, {"business_status": "OPERATIONAL", "geometry": {"location": {"lat": 26.0267288, "lng": 89.9743484}, "viewport": {"northeast": {"lat": 26.0280513802915, "lng": 89.9756610802915}, "southwest": {"lat": 26.02535341970849, "lng": 89.9729631197085}}}, "icon": "https://maps.gstatic.com/mapfiles/place_api/icons/v1/png_71/generic_business-71.png", "icon_background_color": "#7B9EB0", "icon_mask_base_uri": "https://maps.gstatic.com/mapfiles/place_api/icons/v2/generic_pinlet", "name": "Amrita Clinic", "opening_hours": {"open_now": false}, "photos": [{"height": 1200, "html_attributions": ["<a href=\"https://maps.google.com/maps/contrib/105708693534483506922\">sanjib halder</a>"], "photo_reference": "Aap_uEAL2tL7DRkB3usScspf0RU7P8XWwxhW5jUc8FAHVlpfzqnBEY03CaptSqA5fGJ_3ywPudbHSnecHcV3BK6xUj9e-8WG_6bPSW0cH8EVSLbjo006F54fD2QOK10lDyq1BPjGeYeSLCFFmk0WST8UKUIE5pxRIAAsh8x80L7nY9rqvSGX", "width": 1600}], "place_id": "ChIJQVsnADug4jkRWfGX3Zm4lzw", "reference": "ChIJQVsnADug4jkRWfGX3Zm4lzw", "scope": "GOOGLE", "types": ["doctor", "health", "point_of_interest", "establishment"], "vicinity": "2XGF+MPX, College Nagar, Dhubri"}, {"business_status": "OPERATIONAL", "geometry": {"location": {"lat": 26.0243097, "lng": 89.9711538}, "viewport": {"northeast": {"lat": 26.0256401302915, "lng": 89.97242913029152}, "southwest": {"lat": 26.0229421697085, "lng": 89.9697311697085}}}, "icon": "https://maps.gstatic.com/mapfiles/place_api/icons/v1/png_71/generic_business-71.png", "icon_background_color": "#7B9EB0", "icon_mask_base_uri": "https://maps.gstatic.com/mapfiles/place_api/icons/v2/generic_pinlet", "name": "Greenfield Clinic", "opening_hours": {"open_now": false}, "photos": [{"height": 3655, "html_attributions": ["<a href=\"https://maps.google.com/maps/contrib/105928410114213817937\">Sultana Sharmin</a>"], "photo_reference": "Aap_uEAz4HRxAl4RubLHGY8GHK_0z69YOGW4-dpiBEs8KaErL_kCWSVX8B3FBzArnjN10f_mS0sHN-EeG9q33d5CNiYAVTSyqkAQh9beBKHiwiOgI6gAgXzoNYGVsozos0Hef_Je33moAfN_cuVlUf6t6-2_Frkn3MCRz8s_eiuk9TOeTgFu", "width": 2039}], "place_id": "ChIJLxbDLcah4jkRtS-uRvNuQ6E", "plus_code": {"compound_code": "2XFC+PF Dhubri, Assam, India", "global_code": "7MRF2XFC+PF"}, "rating": 4.8, "reference": "ChIJLxbDLcah4jkRtS-uRvNuQ6E", "scope": "GOOGLE", "types": ["doctor", "health", "point_of_interest", "establishment"], "user_ratings_total": 11, "vicinity": "ward no 15, Pori Mandir, College Nagar, Dhubri"}], "status": "OK"}