{"html_attributions": [], "results": [{"business_status": "OPERATIONAL", "geometry": {"location": {"lat": 23.670507, "lng": 86.4245815}, "viewport": {"northeast": {"lat": 23.6717812802915, "lng": 86.4259033302915}, "southwest": {"lat": 23.66908331970849, "lng": 86.4232053697085}}}, "icon": "https://maps.gstatic.com/mapfiles/place_api/icons/v1/png_71/civic_building-71.png", "icon_background_color": "#7B9EB0", "icon_mask_base_uri": "https://maps.gstatic.com/mapfiles/place_api/icons/v2/civic-bldg_pinlet", "name": "Panchayat Bhawan", "place_id": "ChIJoUpgE56X9jkR-fKcaot63Os", "plus_code": {"compound_code": "MCCF+6R Pathardih, Jharkhand, India", "global_code": "7MM8MCCF+6R"}, "reference": "ChIJoUpgE56X9jkR-fKcaot63Os", "scope": "GOOGLE", "types": ["local_government_office", "point_of_interest", "establishment"], "vicinity": "Unnamed Road, Sudamdih, Pathardih"}, {"business_status": "OPERATIONAL", "geometry": {"location": {"lat": 23.6712803, "lng": 86.4234}, "viewport": {"northeast": {"lat": 23.6726650302915, "lng": 86.4247508302915}, "southwest": {"lat": 23.6699670697085, "lng": 86.4220528697085}}}, "icon": "https://maps.gstatic.com/mapfiles/place_api/icons/v1/png_71/civic_building-71.png", "icon_background_color": "#7B9EB0", "icon_mask_base_uri": "https://maps.gstatic.com/mapfiles/place_api/icons/v2/civic-bldg_pinlet", "name": "Councilor Office", "place_id": "ChIJCRu41n6X9jkRE45TrEMj4jM", "reference": "ChIJCRu41n6X9jkRE45TrEMj4jM", "scope": "GOOGLE", "types": ["local_government_office", "point_of_interest", "establishment"], "vicinity": "MCCF+G96, Main Colony, Sudamdih, Pathardih"}, {"business_status": "OPERATIONAL", "geometry": {"location": {"lat": 23.6674679, "lng": 86.41735229999999}, "viewport": {"northeast": {"lat": 23.66875738029151, "lng": 86.41873808029149}, "southwest": {"lat": 23.6660594197085, "lng": 86.41604011970848}}}, "icon": "https://maps.gstatic.com/mapfiles/place_api/icons/v1/png_71/civic_building-71.png", "icon_background_color": "#7B9EB0", "icon_mask_base_uri": "https://maps.gstatic.com/mapfiles/place_api/icons/v2/civic-bldg_pinlet", "name": "Incline Mines(\u0907\u0928\u0915\u094d\u0932\u093e\u0907\u0928 \u092e\u093e\u0907\u0928)", "opening_hours": {"open_now": true}, "photos": [{"height": 1512, "html_attributions": ["<a href=\"https://maps.google.com/maps/contrib/112300900769442047198\">THE CHOSEN ONE</a>"], "photo_reference": "Aap_uEAr_mgWoFxBTZAOHUD9DORUiopbynLxrEDGxMhbDtWBkj_pMeRW-KuAMk-sow5LKWNfPNY5xOZVYF4AQCgKJJ4uwvXGTIj48OLsSXevxqbJhSJjCCb90VrJnjFFp97CgDDwZLLNkWIJKMSQP3B58Ua2H3LJzlWmDqkLtLp8NrEZSSxK", "width": 1886}], "place_id": "ChIJV8aSbNaZ9jkRBYPaY-54kXw", "rating": 3.5, "reference": "ChIJV8aSbNaZ9jkRBYPaY-54kXw", "scope": "GOOGLE", "types": ["local_government_office", "point_of_interest", "establishment"], "user_ratings_total": 2, "vicinity": "MC88+XWQ, Sudamdih"}, {"business_status": "OPERATIONAL", "geometry": {"location": {"lat": 23.6673481, "lng": 86.41719669999999}, "viewport": {"northeast": {"lat": 23.66869163029151, "lng": 86.4186265802915}, "southwest": {"lat": 23.6659936697085, "lng": 86.41592861970848}}}, "icon": "https://maps.gstatic.com/mapfiles/place_api/icons/v1/png_71/civic_building-71.png", "icon_background_color": "#7B9EB0", "icon_mask_base_uri": "https://maps.gstatic.com/mapfiles/place_api/icons/v2/civic-bldg_pinlet", "name": "Sudamdih Incline Office", "place_id": "ChIJwyrxscuZ9jkRHdR6lxr5kvk", "reference": "ChIJwyrxscuZ9jkRHdR6lxr5kvk", "scope": "GOOGLE", "types": ["local_government_office", "point_of_interest", "establishment"], "vicinity": "MC88+WVP, Sudamdih, Pathardih"}], "status": "OK"}