{"html_attributions": [], "next_page_token": "Aap_uEC6gEdety0-ndf5OIqypaewvAUpg8U7iBfofPsf0P2ql3kmF2fJFCMPD8rQASabYbjS_62R9cyjL0MzfUuwK5yva0f2FSf5Fs0aYxwUlKcUVXKP3U5j2UwnwcilD7F5s0YEqqT08tt4tWVZ_kEptFNJ3C442VE3GnDHmLb9a57uiz1nArjzye1fR1IEEhRywWl8WJAkHIDbkzzcLBzzL9FsECuhj8PZwcsgqIY62WkGmke2fyIhclLY9aOuRKp1TsYLr9n9H07lnhstwdVUgF3EiibscxNS5syvc6OYK4YfMTZFS6CwkbZcxd_lFx6XfxWLaPHfxA1zt6Cgxc5wz3kRaSlCy3ykKDkZ-Ix2zEshWOhTZ6acHH4EG3DajuxW0f9T2hsX54JV7nRQml3UfHLc9EbA3ZlLeE4jgw8ZXfBMwF78YK4yrte8hh41bwC7fzM60KNMYQ", "results": [{"business_status": "OPERATIONAL", "geometry": {"location": {"lat": 23.787732, "lng": 86.422603}, "viewport": {"northeast": {"lat": 23.7890395802915, "lng": 86.4239228302915}, "southwest": {"lat": 23.7863416197085, "lng": 86.4212248697085}}}, "icon": "https://maps.gstatic.com/mapfiles/place_api/icons/v1/png_71/civic_building-71.png", "icon_background_color": "#7B9EB0", "icon_mask_base_uri": "https://maps.gstatic.com/mapfiles/place_api/icons/v2/civic-bldg_pinlet", "name": "PROFESSIONAL HR SERVICES", "opening_hours": {"open_now": true}, "photos": [{"height": 331, "html_attributions": ["<a href=\"https://maps.google.com/maps/contrib/113119172999800192203\">PROFESSIONAL HR SERVICES</a>"], "photo_reference": "Aap_uEDiXdxfhI2zjjEi51OAN9iYkT-JkyUyhVgZDf0tpi3hDr1E705Ge9rrrtDbD9F01GVhFEA81xyBPnIGzn-4MA4Jq_szFwRDwZvWD9VbaFxSv5i8BnSLStnzRpnTBy7aTBKvr8svqN77cxWmF-tuiLs6GMOnzYFae7CG7dBP6-lcgEvF", "width": 331}], "place_id": "ChIJq6o6T0u99jkRa58cTWH_kM4", "plus_code": {"compound_code": "QCQF+32 Dhanbad, Jharkhand, India", "global_code": "7MM8QCQF+32"}, "rating": 4.2, "reference": "ChIJq6o6T0u99jkRa58cTWH_kM4", "scope": "GOOGLE", "types": ["local_government_office", "point_of_interest", "establishment"], "user_ratings_total": 54, "vicinity": "1st Shanti Bhawan, 112, Bank More, Dhanbad"}, {"business_status": "OPERATIONAL", "geometry": {"location": {"lat": 23.7967225, "lng": 86.4348827}, "viewport": {"northeast": {"lat": 23.7981710302915, "lng": 86.4361681802915}, "southwest": {"lat": 23.7954730697085, "lng": 86.4334702197085}}}, "icon": "https://maps.gstatic.com/mapfiles/place_api/icons/v1/png_71/civic_building-71.png", "icon_background_color": "#7B9EB0", "icon_mask_base_uri": "https://maps.gstatic.com/mapfiles/place_api/icons/v2/civic-bldg_pinlet", "name": "DC Office", "opening_hours": {"open_now": true}, "photos": [{"height": 720, "html_attributions": ["<a href=\"https://maps.google.com/maps/contrib/114781341483612269370\">Ashmita Ray</a>"], "photo_reference": "Aap_uED360M2Q55HbvDpnfZVOH9j7V2NIWTOaI0K7JBgywX6dAKz42LTHHu1wLFwClSRFOJY8Wfw2tmTIFHauO3y0rYMRsQh2D4htfOBfdP0wUzjklqgSB6GBc4mbuaWb4k9RACztQLpnKBitAckNV9ILx156xz-6b2Cs1zz1KOYC5Ma2eK5", "width": 1280}], "place_id": "ChIJh0y35r689jkRawmeKYFwum0", "plus_code": {"compound_code": "QCWM+MX Dhanbad, Jharkhand, India", "global_code": "7MM8QCWM+MX"}, "rating": 4.1, "reference": "ChIJh0y35r689jkRawmeKYFwum0", "scope": "GOOGLE", "types": ["local_government_office", "point_of_interest", "establishment"], "user_ratings_total": 54, "vicinity": "Station Road, Dhanbad"}, {"business_status": "OPERATIONAL", "geometry": {"location": {"lat": 23.7963768, "lng": 86.43565799999999}, "viewport": {"northeast": {"lat": 23.7978340802915, "lng": 86.4370374302915}, "southwest": {"lat": 23.79513611970849, "lng": 86.43433946970849}}}, "icon": "https://maps.gstatic.com/mapfiles/place_api/icons/v1/png_71/civic_building-71.png", "icon_background_color": "#7B9EB0", "icon_mask_base_uri": "https://maps.gstatic.com/mapfiles/place_api/icons/v2/civic-bldg_pinlet", "name": "Income Tax Department", "photos": [{"height": 816, "html_attributions": ["<a href=\"https://maps.google.com/maps/contrib/116262399211685099412\">Vishal Raj</a>"], "photo_reference": "Aap_uED2G8oFPuaJWIYPi8JrOZmue9e_nbgbsZxL3NThlmNhaWUXrvzN3G0MnxYaKX5RMGCf_VpZwnEskkBZBy6a95jZY5jNMKbeKFZ5r48ZJjtKFcW6mABMHYP9lwIgG8UtIyQwgbbzXGefqu1rSEUcu4NAOq1NYi5xQ6wAhjQCAjvFOtGh", "width": 612}], "place_id": "ChIJG-G7LLu89jkREq2M0vZCvMg", "plus_code": {"compound_code": "QCWP+H7 Dhanbad, Jharkhand, India", "global_code": "7MM8QCWP+H7"}, "rating": 3, "reference": "ChIJG-G7LLu89jkREq2M0vZCvMg", "scope": "GOOGLE", "types": ["accounting", "finance", "local_government_office", "point_of_interest", "establishment"], "user_ratings_total": 1, "vicinity": "Luby Circular Road, Dhanbad"}, {"business_status": "OPERATIONAL", "geometry": {"location": {"lat": 23.7850163, "lng": 86.4291056}, "viewport": {"northeast": {"lat": 23.7863567802915, "lng": 86.43047613029151}, "southwest": {"lat": 23.7836588197085, "lng": 86.42777816970849}}}, "icon": "https://maps.gstatic.com/mapfiles/place_api/icons/v1/png_71/civic_building-71.png", "icon_background_color": "#7B9EB0", "icon_mask_base_uri": "https://maps.gstatic.com/mapfiles/place_api/icons/v2/civic-bldg_pinlet", "name": "Job", "place_id": "ChIJN-y7TEq99jkRxfYGy8VJmFs", "plus_code": {"compound_code": "QCPH+2J Dhanbad, Jharkhand, India", "global_code": "7MM8QCPH+2J"}, "rating": 5, "reference": "ChIJN-y7TEq99jkRxfYGy8VJmFs", "scope": "GOOGLE", "types": ["local_government_office", "point_of_interest", "establishment"], "user_ratings_total": 1, "vicinity": "Manaitand Road, Dhanbad"}, {"business_status": "OPERATIONAL", "geometry": {"location": {"lat": 23.793458, "lng": 86.43020800000001}, "viewport": {"northeast": {"lat": 23.7949426302915, "lng": 86.43162938029151}, "southwest": {"lat": 23.7922446697085, "lng": 86.4289314197085}}}, "icon": "https://maps.gstatic.com/mapfiles/place_api/icons/v1/png_71/civic_building-71.png", "icon_background_color": "#7B9EB0", "icon_mask_base_uri": "https://maps.gstatic.com/mapfiles/place_api/icons/v2/civic-bldg_pinlet", "name": "SSE/BRI/DHN ECR", "place_id": "ChIJ5dLrise89jkRAhOxNibWpCc", "reference": "ChIJ5dLrise89jkRAhOxNibWpCc", "scope": "GOOGLE", "types": ["local_government_office", "point_of_interest", "establishment"], "vicinity": "QCVJ+93P, Pandey Muhalla, Dhanbad"}, {"business_status": "OPERATIONAL", "geometry": {"location": {"lat": 23.787679, "lng": 86.419308}, "viewport": {"northeast": {"lat": 23.7890122802915, "lng": 86.4206470802915}, "southwest": {"lat": 23.7863143197085, "lng": 86.4179491197085}}}, "icon": "https://maps.gstatic.com/mapfiles/place_api/icons/v1/png_71/civic_building-71.png", "icon_background_color": "#7B9EB0", "icon_mask_base_uri": "https://maps.gstatic.com/mapfiles/place_api/icons/v2/civic-bldg_pinlet", "name": "Techno Help", "place_id": "ChIJ5fNDV8u89jkR10O8nxXhtEI", "plus_code": {"compound_code": "QCQ9+3P Dhanbad, Jharkhand, India", "global_code": "7MM8QCQ9+3P"}, "reference": "ChIJ5fNDV8u89jkR10O8nxXhtEI", "scope": "GOOGLE", "types": ["local_government_office", "point_of_interest", "establishment"], "vicinity": "Kanhaiya complex, Tiwari gali, Bank More, Dhanbad"}, {"business_status": "OPERATIONAL", "geometry": {"location": {"lat": 23.7886527, "lng": 86.419016}, "viewport": {"northeast": {"lat": 23.7899969302915, "lng": 86.4203989802915}, "southwest": {"lat": 23.7872989697085, "lng": 86.41770101970849}}}, "icon": "https://maps.gstatic.com/mapfiles/place_api/icons/v1/png_71/civic_building-71.png", "icon_background_color": "#7B9EB0", "icon_mask_base_uri": "https://maps.gstatic.com/mapfiles/place_api/icons/v2/civic-bldg_pinlet", "name": "MANOJ SANJAY", "place_id": "ChIJQTHSS8u89jkRpK_UMS-LZP0", "plus_code": {"compound_code": "QCQ9+FJ Dhanbad, Jharkhand, India", "global_code": "7MM8QCQ9+FJ"}, "reference": "ChIJQTHSS8u89jkRpK_UMS-LZP0", "scope": "GOOGLE", "types": ["local_government_office", "point_of_interest", "establishment"], "vicinity": "Mithu Road, Bank More, Dhanbad"}, {"business_status": "OPERATIONAL", "geometry": {"location": {"lat": 23.7868567, "lng": 86.4184842}, "viewport": {"northeast": {"lat": 23.7882726802915, "lng": 86.4198666802915}, "southwest": {"lat": 23.7855747197085, "lng": 86.4171687197085}}}, "icon": "https://maps.gstatic.com/mapfiles/place_api/icons/v1/png_71/generic_business-71.png", "icon_background_color": "#7B9EB0", "icon_mask_base_uri": "https://maps.gstatic.com/mapfiles/place_api/icons/v2/generic_pinlet", "name": "umang", "photos": [{"height": 1932, "html_attributions": ["<a href=\"https://maps.google.com/maps/contrib/113363226336362585754\">umang publication</a>"], "photo_reference": "Aap_uEA_Hy11Z5OzOqJjjnczNO0Cl2NR7Kzwu7ttK-ilHl_MmKifkQSD8RVpO05x_Y8Y5-nd41FlI7k44UqcHAtUNzyrMov5HTaPw8xaJXIvIVNUDS_1YZB-R0SJblEigMPo3PiN99NdPH8hBvr5H-mEdsBeMeOOUjSfs9zcDjDLXcLNNvQr", "width": 2576}], "place_id": "ChIJL_8l8rCj9jkRtyVB4OqJ3Ws", "plus_code": {"compound_code": "QCP9+P9 Dhanbad, Jharkhand, India", "global_code": "7MM8QCP9+P9"}, "rating": 5, "reference": "ChIJL_8l8rCj9jkRtyVB4OqJ3Ws", "scope": "GOOGLE", "types": ["finance", "local_government_office", "point_of_interest", "establishment"], "user_ratings_total": 1, "vicinity": "UG 47 SRI RAM PLAZA, Bank More, Dhanbad"}, {"business_status": "OPERATIONAL", "geometry": {"location": {"lat": 23.7866326, "lng": 86.4177108}, "viewport": {"northeast": {"lat": 23.7879649302915, "lng": 86.41904938029151}, "southwest": {"lat": 23.78526696970849, "lng": 86.41635141970849}}}, "icon": "https://maps.gstatic.com/mapfiles/place_api/icons/v1/png_71/civic_building-71.png", "icon_background_color": "#7B9EB0", "icon_mask_base_uri": "https://maps.gstatic.com/mapfiles/place_api/icons/v2/civic-bldg_pinlet", "name": "Shop no. LGF 101", "opening_hours": {"open_now": true}, "place_id": "ChIJ3QOXywuj9jkRERbx6Ynpttg", "plus_code": {"compound_code": "QCP9+M3 Bank More, Dhanbad, Jharkhand, India", "global_code": "7MM8QCP9+M3"}, "reference": "ChIJ3QOXywuj9jkRERbx6Ynpttg", "scope": "GOOGLE", "types": ["local_government_office", "point_of_interest", "establishment"], "vicinity": "Bhagyoday building, Bank More"}, {"business_status": "CLOSED_TEMPORARILY", "geometry": {"location": {"lat": 23.7881722, "lng": 86.4171552}, "viewport": {"northeast": {"lat": 23.7896284302915, "lng": 86.41853233029151}, "southwest": {"lat": 23.7869304697085, "lng": 86.4158343697085}}}, "icon": "https://maps.gstatic.com/mapfiles/place_api/icons/v1/png_71/civic_building-71.png", "icon_background_color": "#7B9EB0", "icon_mask_base_uri": "https://maps.gstatic.com/mapfiles/place_api/icons/v2/civic-bldg_pinlet", "name": "MBCC Hall, New Market - Bank more", "permanently_closed": true, "photos": [{"height": 3024, "html_attributions": ["<a href=\"https://maps.google.com/maps/contrib/101306289675803432117\">Vikash Kumar</a>"], "photo_reference": "Aap_uECEcNL8Ed4mKinSxohv_1Lo9wjAc7gWLhioJobJKvC7vwPtZUE1LJHdOYty4NBS7TgNJK-K2SQEmuSQjrlwj_yz_2cFdLqriWU5vPRBTgxgFu-lxUC-Ctxz3IJH_jGRTwr1huuHE3_nKpvB5l-imMIZ2yHvdzXh647vU3YkUpXzleuv", "width": 4032}], "place_id": "ChIJ1fpGTL-j9jkRsI_84dHObpk", "plus_code": {"compound_code": "QCQ8+7V Dhanbad, Jharkhand, India", "global_code": "7MM8QCQ8+7V"}, "rating": 4, "reference": "ChIJ1fpGTL-j9jkRsI_84dHObpk", "scope": "GOOGLE", "types": ["city_hall", "local_government_office", "point_of_interest", "establishment"], "user_ratings_total": 1, "vicinity": "New Market, Bank More, Dhanbad"}, {"business_status": "OPERATIONAL", "geometry": {"location": {"lat": 23.78819859999999, "lng": 86.416527}, "viewport": {"northeast": {"lat": 23.7895467302915, "lng": 86.41787863029151}, "southwest": {"lat": 23.7868487697085, "lng": 86.4151806697085}}}, "icon": "https://maps.gstatic.com/mapfiles/place_api/icons/v1/png_71/civic_building-71.png", "icon_background_color": "#7B9EB0", "icon_mask_base_uri": "https://maps.gstatic.com/mapfiles/place_api/icons/v2/civic-bldg_pinlet", "name": "CSC PRAGYA KENDRA DIGITAL SEVA PORTAL", "opening_hours": {"open_now": true}, "photos": [{"height": 607, "html_attributions": ["<a href=\"https://maps.google.com/maps/contrib/110235400839884977585\">CSC PRAGYA KENDRA DIGITAL SEVA PORTAL</a>"], "photo_reference": "Aap_uEBl0wUdpCFd4t12j5CqB1ZfkSA65lNCTY4pwEl9-PqShlVAyJPJSgbzL-5YdN0Bqsz88J995EsmSh78oWbXC-rijjVH-SCsMuPSB7GwzuO4_gVtrTb2jFcs98jOl1T0LceZUZJgqxrVuuMo_Vr27BQ8_EEIJyRj11uQhPp5nzugyP14", "width": 1080}], "place_id": "ChIJf-U5_QWj9jkRVTYZD7e_iBo", "plus_code": {"compound_code": "QCQ8+7J Dhanbad, Jharkhand, India", "global_code": "7MM8QCQ8+7J"}, "rating": 3, "reference": "ChIJf-U5_QWj9jkRVTYZD7e_iBo", "scope": "GOOGLE", "types": ["local_government_office", "point_of_interest", "establishment"], "user_ratings_total": 6, "vicinity": "near Prabhu Lal Prathmik Vidyalaya, Karbala Road, Bank More, Dhanbad"}, {"business_status": "OPERATIONAL", "geometry": {"location": {"lat": 23.7975116, "lng": 86.4303456}, "viewport": {"northeast": {"lat": 23.7988656802915, "lng": 86.43163438029151}, "southwest": {"lat": 23.7961677197085, "lng": 86.42893641970849}}}, "icon": "https://maps.gstatic.com/mapfiles/place_api/icons/v1/png_71/civic_building-71.png", "icon_background_color": "#7B9EB0", "icon_mask_base_uri": "https://maps.gstatic.com/mapfiles/place_api/icons/v2/civic-bldg_pinlet", "name": "Subidha Kendra, DRM Office", "place_id": "ChIJdagNubm89jkRewfToqH1z6I", "reference": "ChIJdagNubm89jkRewfToqH1z6I", "scope": "GOOGLE", "types": ["local_government_office", "point_of_interest", "establishment"], "vicinity": "QCXJ+245, Kasturba Nagar, Dhanbad"}, {"business_status": "OPERATIONAL", "geometry": {"location": {"lat": 23.7952205, "lng": 86.43403359999999}, "viewport": {"northeast": {"lat": 23.79651963029151, "lng": 86.43543803029151}, "southwest": {"lat": 23.7938216697085, "lng": 86.4327400697085}}}, "icon": "https://maps.gstatic.com/mapfiles/place_api/icons/v1/png_71/civic_building-71.png", "icon_background_color": "#7B9EB0", "icon_mask_base_uri": "https://maps.gstatic.com/mapfiles/place_api/icons/v2/civic-bldg_pinlet", "name": "Central Excise & Service Tax Building", "opening_hours": {"open_now": false}, "place_id": "ChIJi8QNNr-89jkRD6qmlbCH6k4", "plus_code": {"compound_code": "QCWM+3J Dhanbad, Jharkhand, India", "global_code": "7MM8QCWM+3J"}, "rating": 4, "reference": "ChIJi8QNNr-89jkRD6qmlbCH6k4", "scope": "GOOGLE", "types": ["accounting", "finance", "local_government_office", "point_of_interest", "establishment"], "user_ratings_total": 2, "vicinity": "HE School Road, Hirapur, Vistipara, Dhanbad"}, {"business_status": "OPERATIONAL", "geometry": {"location": {"lat": 23.7923833, "lng": 86.43593419999999}, "viewport": {"northeast": {"lat": 23.79361163029151, "lng": 86.4371009302915}, "southwest": {"lat": 23.7909136697085, "lng": 86.4344029697085}}}, "icon": "https://maps.gstatic.com/mapfiles/place_api/icons/v1/png_71/civic_building-71.png", "icon_background_color": "#7B9EB0", "icon_mask_base_uri": "https://maps.gstatic.com/mapfiles/place_api/icons/v2/civic-bldg_pinlet", "name": "GSC-GST support center jharkhand retail", "opening_hours": {"open_now": true}, "place_id": "ChIJpTGANIi99jkR98dGpJ4zRGY", "plus_code": {"compound_code": "QCRP+X9 Dhanbad, Jharkhand, India", "global_code": "7MM8QCRP+X9"}, "reference": "ChIJpTGANIi99jkR98dGpJ4zRGY", "scope": "GOOGLE", "types": ["local_government_office", "point_of_interest", "establishment"], "vicinity": "Q.No:336/B/9 railway hospital colony"}, {"business_status": "OPERATIONAL", "geometry": {"location": {"lat": 23.7948935, "lng": 86.4346149}, "viewport": {"northeast": {"lat": 23.7962155802915, "lng": 86.4359231802915}, "southwest": {"lat": 23.7935176197085, "lng": 86.43322521970849}}}, "icon": "https://maps.gstatic.com/mapfiles/place_api/icons/v1/png_71/generic_business-71.png", "icon_background_color": "#7B9EB0", "icon_mask_base_uri": "https://maps.gstatic.com/mapfiles/place_api/icons/v2/generic_pinlet", "name": "Tax - N- Tax", "opening_hours": {"open_now": true}, "place_id": "ChIJR_w-Rr-89jkRoDeoSuv0yjE", "plus_code": {"compound_code": "QCVM+XR Dhanbad, Jharkhand, India", "global_code": "7MM8QCVM+XR"}, "reference": "ChIJR_w-Rr-89jkRoDeoSuv0yjE", "scope": "GOOGLE", "types": ["accounting", "finance", "local_government_office", "point_of_interest", "establishment"], "vicinity": "Near Central Exercise Building, Pandey Muhalla, Dhanbad"}, {"business_status": "OPERATIONAL", "geometry": {"location": {"lat": 23.7804458, "lng": 86.432406}, "viewport": {"northeast": {"lat": 23.7818970302915, "lng": 86.43381073029151}, "southwest": {"lat": 23.7791990697085, "lng": 86.4311127697085}}}, "icon": "https://maps.gstatic.com/mapfiles/place_api/icons/v1/png_71/generic_business-71.png", "icon_background_color": "#7B9EB0", "icon_mask_base_uri": "https://maps.gstatic.com/mapfiles/place_api/icons/v2/generic_pinlet", "name": "India Consultancy", "opening_hours": {"open_now": true}, "photos": [{"height": 1600, "html_attributions": ["<a href=\"https://maps.google.com/maps/contrib/114334784717433660818\">India Consultancy</a>"], "photo_reference": "Aap_uECnd0x7LCU8PfNlJnxsZoL6WqDzM0t3GPnHBZgUUscYH2tf-NIYhENIjUXyRHY78zD-BO0lLEfD-8DBZiQNjbOmZcWnL1eBuvCHRW8TIKN9KEHt9vz5XNIpvUDyVHWRCQvJK7wR7z6dRZDizSvibds2K30KvoMfaL9e0kWVKMT8QTWy", "width": 1200}], "place_id": "ChIJM__Q2Kq99jkRMwDQbq0WryI", "plus_code": {"compound_code": "QCJJ+5X Dhanbad, Jharkhand, India", "global_code": "7MM8QCJJ+5X"}, "reference": "ChIJM__Q2Kq99jkRMwDQbq0WryI", "scope": "GOOGLE", "types": ["local_government_office", "point_of_interest", "establishment"], "vicinity": "Manaitand, Dhanbad"}, {"business_status": "OPERATIONAL", "geometry": {"location": {"lat": 23.7962328, "lng": 86.43607449999999}, "viewport": {"northeast": {"lat": 23.79757933029151, "lng": 86.4374180302915}, "southwest": {"lat": 23.7948813697085, "lng": 86.43472006970849}}}, "icon": "https://maps.gstatic.com/mapfiles/place_api/icons/v1/png_71/civic_building-71.png", "icon_background_color": "#7B9EB0", "icon_mask_base_uri": "https://maps.gstatic.com/mapfiles/place_api/icons/v2/civic-bldg_pinlet", "name": "Office of Assistant Commissioner Of Excise", "opening_hours": {"open_now": true}, "photos": [{"height": 3264, "html_attributions": ["<a href=\"https://maps.google.com/maps/contrib/118106333905800638378\">Amit Prasad</a>"], "photo_reference": "Aap_uEDes6HMSuBPFQYUEFtSmkZhCZjZU6K7cHkfRULX37Eb_-7-rQlAfdwKEoJOlQzEtAfE8bfDolc28sXPtI_iCT8CQoi_tLdXX23m2wy3nGYnKFL8kMI04FJRzTVBJFIHk9fZFyTUumLZrU-Z69WSy1SYM1VWKZHaHXRjy_JzqWcTK_Yv", "width": 1836}], "place_id": "ChIJq6qqqr689jkRcZPOhRnLpdE", "reference": "ChIJq6qqqr689jkRcZPOhRnLpdE", "scope": "GOOGLE", "types": ["local_government_office", "point_of_interest", "establishment"], "vicinity": "QCWP+FCW, Pandey Muhalla, Dhanbad"}, {"business_status": "OPERATIONAL", "geometry": {"location": {"lat": 23.7978946, "lng": 86.43481469999999}, "viewport": {"northeast": {"lat": 23.7992257302915, "lng": 86.43617498029151}, "southwest": {"lat": 23.79652776970849, "lng": 86.4334770197085}}}, "icon": "https://maps.gstatic.com/mapfiles/place_api/icons/v1/png_71/civic_building-71.png", "icon_background_color": "#7B9EB0", "icon_mask_base_uri": "https://maps.gstatic.com/mapfiles/place_api/icons/v2/civic-bldg_pinlet", "name": "28 Court Building, Civil Court, Dhanbad", "photos": [{"height": 1920, "html_attributions": ["<a href=\"https://maps.google.com/maps/contrib/105616358441327908127\">Suman Kumar Roy</a>"], "photo_reference": "Aap_uEBWzn0lcSqBjUgxzkwp7r5GT90u6lRxaDvgmBKAi_aJljnctr7bfHuhqIy7H09_IkYfFx03iXYVSqfFVNF46C7nwjN1xwOEp62UQJK2l2bH1O5C94BgxrVwWKFlVkZG52hbUCcjG-CY-QSdkiM0g7l_JQbu31LVJPF3NUTdubfAMsq_", "width": 2564}], "place_id": "ChIJFZPFxr689jkRfvo7IZWMfmM", "rating": 3.8, "reference": "ChIJFZPFxr689jkRfvo7IZWMfmM", "scope": "GOOGLE", "types": ["courthouse", "local_government_office", "point_of_interest", "establishment"], "user_ratings_total": 4, "vicinity": "QCXM+5W4, Kasturba Nagar, Dhanbad"}, {"business_status": "OPERATIONAL", "geometry": {"location": {"lat": 23.8012423, "lng": 86.4247772}, "viewport": {"northeast": {"lat": 23.8025097802915, "lng": 86.4260848802915}, "southwest": {"lat": 23.7998118197085, "lng": 86.42338691970849}}}, "icon": "https://maps.gstatic.com/mapfiles/place_api/icons/v1/png_71/civic_building-71.png", "icon_background_color": "#7B9EB0", "icon_mask_base_uri": "https://maps.gstatic.com/mapfiles/place_api/icons/v2/civic-bldg_pinlet", "name": "Tejaswini Humana People to People India Dhanbaf", "photos": [{"height": 1099, "html_attributions": ["<a href=\"https://maps.google.com/maps/contrib/104108426704476028358\">Babulal Yadav</a>"], "photo_reference": "Aap_uEBaf7QJi_ZbAz4CzO2kK4RZG6qQSoUUz3c1RVsRJloVy4bYrsvug2XMhw4eH-m7KaSVXic2McapCTeElNOLrO9eHkrw0hNwKox5BJIYZZx7FI0iWlJeiwaUuuESNDPUj3dmCBmGs5u4IExZGWu-5EN6mX3IjWkM2D68ge5sDXYWwif_", "width": 1080}], "place_id": "ChIJrdDNTQ299jkRkiwq2BoHqtk", "reference": "ChIJrdDNTQ299jkRkiwq2BoHqtk", "scope": "GOOGLE", "types": ["local_government_office", "point_of_interest", "establishment"], "vicinity": "RC2F+FWR, Bekarbandh, Kasturba Nagar, Dhanbad"}, {"business_status": "OPERATIONAL", "geometry": {"location": {"lat": 23.8015351, "lng": 86.42673769999999}, "viewport": {"northeast": {"lat": 23.8028821302915, "lng": 86.4281069302915}, "southwest": {"lat": 23.8001841697085, "lng": 86.4254089697085}}}, "icon": "https://maps.gstatic.com/mapfiles/place_api/icons/v1/png_71/civic_building-71.png", "icon_background_color": "#7B9EB0", "icon_mask_base_uri": "https://maps.gstatic.com/mapfiles/place_api/icons/v2/civic-bldg_pinlet", "name": "WARD NO. 22 PARSHAD OFFICE", "opening_hours": {"open_now": true}, "place_id": "ChIJkSns5LC89jkR-ZINnkqs_1A", "reference": "ChIJkSns5LC89jkR-ZINnkqs_1A", "scope": "GOOGLE", "types": ["local_government_office", "point_of_interest", "establishment"], "vicinity": "RC2G+JM9, Bekarbandh, Kasturba Nagar, Dhanbad"}], "status": "OK"}