{"html_attributions": [], "results": [{"business_status": "OPERATIONAL", "geometry": {"location": {"lat": 23.8181077, "lng": 86.4340692}, "viewport": {"northeast": {"lat": 23.8195834302915, "lng": 86.43546118029151}, "southwest": {"lat": 23.81688546970849, "lng": 86.43276321970849}}}, "icon": "https://maps.gstatic.com/mapfiles/place_api/icons/v1/png_71/civic_building-71.png", "icon_background_color": "#7B9EB0", "icon_mask_base_uri": "https://maps.gstatic.com/mapfiles/place_api/icons/v2/civic-bldg_pinlet", "name": "Dr. C.B.Mehta Clinic", "opening_hours": {"open_now": false}, "place_id": "ChIJl8-JUl-79jkRd-14dUFZTHk", "plus_code": {"compound_code": "RC9M+6J Dhanbad, Jharkhand, India", "global_code": "7MM8RC9M+6J"}, "rating": 3.4, "reference": "ChIJl8-JUl-79jkRd-14dUFZTHk", "scope": "GOOGLE", "types": ["local_government_office", "health", "point_of_interest", "establishment"], "user_ratings_total": 5, "vicinity": "Shri Ram Kishun Sahu Market, Dhaiya, Dhanbad"}, {"business_status": "OPERATIONAL", "geometry": {"location": {"lat": 23.799598, "lng": 86.433914}, "viewport": {"northeast": {"lat": 23.8006940302915, "lng": 86.43532738029151}, "southwest": {"lat": 23.7979960697085, "lng": 86.43262941970849}}}, "icon": "https://maps.gstatic.com/mapfiles/place_api/icons/v1/png_71/civic_building-71.png", "icon_background_color": "#7B9EB0", "icon_mask_base_uri": "https://maps.gstatic.com/mapfiles/place_api/icons/v2/civic-bldg_pinlet", "name": "KHAN ENTERPRISES &CONSULTANCY", "place_id": "ChIJy6qqqr689jkRq57mZ6IfIJk", "rating": 4.5, "reference": "ChIJy6qqqr689jkRq57mZ6IfIJk", "scope": "GOOGLE", "types": ["local_government_office", "point_of_interest", "establishment"], "user_ratings_total": 2, "vicinity": "Flat no,1A City plaz First Floor Howraha Motor opp-biharilal choudhary, Dhanbad"}, {"business_status": "OPERATIONAL", "geometry": {"location": {"lat": 23.7975116, "lng": 86.4303456}, "viewport": {"northeast": {"lat": 23.7988656802915, "lng": 86.43163438029151}, "southwest": {"lat": 23.7961677197085, "lng": 86.42893641970849}}}, "icon": "https://maps.gstatic.com/mapfiles/place_api/icons/v1/png_71/civic_building-71.png", "icon_background_color": "#7B9EB0", "icon_mask_base_uri": "https://maps.gstatic.com/mapfiles/place_api/icons/v2/civic-bldg_pinlet", "name": "Subidha Kendra, DRM Office", "place_id": "ChIJdagNubm89jkRewfToqH1z6I", "reference": "ChIJdagNubm89jkRewfToqH1z6I", "scope": "GOOGLE", "types": ["local_government_office", "point_of_interest", "establishment"], "vicinity": "QCXJ+245, Kasturba Nagar, Dhanbad"}, {"business_status": "OPERATIONAL", "geometry": {"location": {"lat": 23.8015685, "lng": 86.4367906}, "viewport": {"northeast": {"lat": 23.8027958302915, "lng": 86.43802988029151}, "southwest": {"lat": 23.80009786970849, "lng": 86.43533191970849}}}, "icon": "https://maps.gstatic.com/mapfiles/place_api/icons/v1/png_71/civic_building-71.png", "icon_background_color": "#7B9EB0", "icon_mask_base_uri": "https://maps.gstatic.com/mapfiles/place_api/icons/v2/civic-bldg_pinlet", "name": "S.s.p house dhanbad", "opening_hours": {"open_now": true}, "place_id": "ChIJkWniQuq99jkRf2CwcCFzymg", "rating": 5, "reference": "ChIJkWniQuq99jkRf2CwcCFzymg", "scope": "GOOGLE", "types": ["police", "local_government_office", "point_of_interest", "establishment"], "user_ratings_total": 1, "vicinity": "RC2P+JPF, Sardar Patel Nagar, Dhanbad"}, {"business_status": "CLOSED_TEMPORARILY", "geometry": {"location": {"lat": 23.8018008, "lng": 86.4372975}, "viewport": {"northeast": {"lat": 23.8028431302915, "lng": 86.43837598029151}, "southwest": {"lat": 23.8001451697085, "lng": 86.4356780197085}}}, "icon": "https://maps.gstatic.com/mapfiles/place_api/icons/v1/png_71/civic_building-71.png", "icon_background_color": "#7B9EB0", "icon_mask_base_uri": "https://maps.gstatic.com/mapfiles/place_api/icons/v2/civic-bldg_pinlet", "name": "SSP bungalow", "permanently_closed": true, "place_id": "ChIJpxLpl4C99jkRoACcPeFzbos", "plus_code": {"compound_code": "RC2P+PW Dhanbad, Jharkhand, India", "global_code": "7MM8RC2P+PW"}, "rating": 5, "reference": "ChIJpxLpl4C99jkRoACcPeFzbos", "scope": "GOOGLE", "types": ["police", "local_government_office", "point_of_interest", "establishment"], "user_ratings_total": 1, "vicinity": "Luby Circular Road, Sardar Patel Nagar, Dhanbad"}], "status": "OK"}