{"html_attributions": [], "results": [{"business_status": "OPERATIONAL", "geometry": {"location": {"lat": 23.806944, "lng": 86.4429663}, "viewport": {"northeast": {"lat": 23.80829643029151, "lng": 86.4443522802915}, "southwest": {"lat": 23.8055984697085, "lng": 86.44165431970849}}}, "icon": "https://maps.gstatic.com/mapfiles/place_api/icons/v1/png_71/civic_building-71.png", "icon_background_color": "#7B9EB0", "icon_mask_base_uri": "https://maps.gstatic.com/mapfiles/place_api/icons/v2/civic-bldg_pinlet", "name": "Cmpf Office Dhanbad", "photos": [{"height": 2340, "html_attributions": ["<a href=\"https://maps.google.com/maps/contrib/118113781384276276769\">Abir Gupta</a>"], "photo_reference": "Aap_uEDNxgw3rfV9Ljcru3UVJGh72ejlpdtn2v4yJITLV_QGNTzVqi80rwhT4abdQfoQlPerDeCJ0qPXhiUOKlFd1beMoFxVw-2xQgJQEaBguDOy5spaisYqOyqMNHHdmL2nlIxC8-3Np6mXELc4cGr5ygdHrt361zoERr9s016YvAi6Bprt", "width": 4160}], "place_id": "ChIJN_G565m89jkR60BQ99yEHPs", "plus_code": {"compound_code": "RC4V+Q5 Dhanbad, Jharkhand, India", "global_code": "7MM8RC4V+Q5"}, "rating": 3.7, "reference": "ChIJN_G565m89jkR60BQ99yEHPs", "scope": "GOOGLE", "types": ["local_government_office", "point_of_interest", "establishment"], "user_ratings_total": 6, "vicinity": "CMPF Colony Post Office, CMPF Colony, Dhanbad"}, {"business_status": "OPERATIONAL", "geometry": {"location": {"lat": 23.8112715, "lng": 86.45251619999999}, "viewport": {"northeast": {"lat": 23.8126754302915, "lng": 86.4538703302915}, "southwest": {"lat": 23.80997746970849, "lng": 86.45117236970849}}}, "icon": "https://maps.gstatic.com/mapfiles/place_api/icons/v1/png_71/generic_business-71.png", "icon_background_color": "#7B9EB0", "icon_mask_base_uri": "https://maps.gstatic.com/mapfiles/place_api/icons/v2/generic_pinlet", "name": "Olizy Forex & Travels Pvt. Ltd", "opening_hours": {"open_now": true}, "photos": [{"height": 321, "html_attributions": ["<a href=\"https://maps.google.com/maps/contrib/110192486152631284316\">Olizy Forex &amp; Travels Pvt. Ltd</a>"], "photo_reference": "Aap_uEDik4-4JqYij-vfE6jlryrjFjn8Pq5HNV6pVCMPK9DM86xG_XsPjqkAhOElE3oDJfPO_WTYSlEUAgYKQBVQyn5jCWKSZB4xYBygjNxXFfcf1CE5tKYqnp8x-zHK23jNN8mb3zUQE41Fv2UrV3bY5KcmCzphpuTAFodoLSkbRGIiaRrN", "width": 500}], "place_id": "ChIJEyqjA3y89jkRKZH-MksSZkU", "plus_code": {"compound_code": "RF63+G2 Saraidhella, Jharkhand, India", "global_code": "7MM8RF63+G2"}, "rating": 4.9, "reference": "ChIJEyqjA3y89jkRKZH-MksSZkU", "scope": "GOOGLE", "types": ["finance", "travel_agency", "local_government_office", "point_of_interest", "establishment"], "user_ratings_total": 69, "vicinity": "2nd floor Hari om centre, Main Road, Saraidhella"}, {"business_status": "OPERATIONAL", "geometry": {"location": {"lat": 23.808843, "lng": 86.450403}, "viewport": {"northeast": {"lat": 23.8102183802915, "lng": 86.45187313029149}, "southwest": {"lat": 23.8075204197085, "lng": 86.44917516970848}}}, "icon": "https://maps.gstatic.com/mapfiles/place_api/icons/v1/png_71/civic_building-71.png", "icon_background_color": "#7B9EB0", "icon_mask_base_uri": "https://maps.gstatic.com/mapfiles/place_api/icons/v2/civic-bldg_pinlet", "name": "Bihar Koylari Karagar Union", "photos": [{"height": 489, "html_attributions": ["<a href=\"https://maps.google.com/maps/contrib/114781341483612269370\">Ashmita Ray</a>"], "photo_reference": "Aap_uEDxk6-bpomjQdfitiibaDeDsVxEdmuWN9AyKV4hhH9hPo88w9n2_v7rc3Mg7-aFhd6Q9OIid3Q3uivUl-5fKakhe85ZD6IXAe8mU96OBU8dR3eSXv4_TFdIxUdlec8Z4UEqsSYnERA_ezHjCpg5cUKnVaFx8K8Fad5Ft_B_1BThsngI", "width": 1032}], "place_id": "ChIJJ2LlH4W89jkR3RBr7tICgdc", "plus_code": {"compound_code": "RF52+G5 Dhanbad, Jharkhand, India", "global_code": "7MM8RF52+G5"}, "reference": "ChIJJ2LlH4W89jkR3RBr7tICgdc", "scope": "GOOGLE", "types": ["local_government_office", "point_of_interest", "establishment"], "vicinity": "CMPF Colony, Dhanbad"}, {"business_status": "OPERATIONAL", "geometry": {"location": {"lat": 23.81169380000001, "lng": 86.4522611}, "viewport": {"northeast": {"lat": 23.8130255302915, "lng": 86.4536722802915}, "southwest": {"lat": 23.8103275697085, "lng": 86.4509743197085}}}, "icon": "https://maps.gstatic.com/mapfiles/place_api/icons/v1/png_71/generic_business-71.png", "icon_background_color": "#7B9EB0", "icon_mask_base_uri": "https://maps.gstatic.com/mapfiles/place_api/icons/v2/generic_pinlet", "name": "Make My Event & Wedding Planner-Dhanbad", "opening_hours": {"open_now": true}, "photos": [{"height": 416, "html_attributions": ["<a href=\"https://maps.google.com/maps/contrib/103670055706551336935\">Make My Event &amp; Wedding Planner-Dhanbad</a>"], "photo_reference": "Aap_uEA3CFzeLi9ggOAKka43OG2pnjbGdA_S2-3CsmmDvrG_AC5aUVpGTaYKkG4pylVTjQqGhXFrrYi5GBbLFfgD2Wdjm6MiqC7a_ujhgNLkp-TIqyYcToYboExTQbYphlIUNXJhA2wV-Nce0CsWh-pGew580fN_PaFRX0q8eZTL7Hre-9po", "width": 737}], "place_id": "ChIJE1VVVXm89jkRjPKGJ4C14YM", "plus_code": {"compound_code": "RF62+MW Saraidhella, Jharkhand, India", "global_code": "7MM8RF62+MW"}, "rating": 5, "reference": "ChIJE1VVVXm89jkRjPKGJ4C14YM", "scope": "GOOGLE", "types": ["florist", "finance", "local_government_office", "point_of_interest", "store", "establishment"], "user_ratings_total": 22, "vicinity": "opp. ICICI Bank Ltd, 2nd Floor, Hari om center Main road, opp. ICICI Bank Ltd, Saraidhella"}, {"business_status": "OPERATIONAL", "geometry": {"location": {"lat": 23.801512, "lng": 86.4428178}, "viewport": {"northeast": {"lat": 23.8028171802915, "lng": 86.44413113029151}, "southwest": {"lat": 23.8001192197085, "lng": 86.4414331697085}}}, "icon": "https://maps.gstatic.com/mapfiles/place_api/icons/v1/png_71/civic_building-71.png", "icon_background_color": "#7B9EB0", "icon_mask_base_uri": "https://maps.gstatic.com/mapfiles/place_api/icons/v2/civic-bldg_pinlet", "name": "Zila Parishad Office", "photos": [{"height": 720, "html_attributions": ["<a href=\"https://maps.google.com/maps/contrib/110571508390605570527\">NAYAK FOR YOU</a>"], "photo_reference": "Aap_uEA5rD_fhopaaYd4INx563_YaBUf0aPL7yjpX3g25OmWiZfQ0i-43jdV57cBf3I2FX1bndMIscxwGByE0zJ58sIhb-3S0umxDqzb7SG59afWL4FzFieYPvYJ0BWdlBoYbSz6MUZk2ECtzaWKmwLQ49zMFvL4chIACUCAN6t3enRM7yn4", "width": 1280}], "place_id": "ChIJ823qwJa89jkRcX5jidRcbf8", "plus_code": {"compound_code": "RC2V+J4 Dhanbad, Jharkhand, India", "global_code": "7MM8RC2V+J4"}, "rating": 4, "reference": "ChIJ823qwJa89jkRcX5jidRcbf8", "scope": "GOOGLE", "types": ["local_government_office", "point_of_interest", "establishment"], "user_ratings_total": 11, "vicinity": "Baba Colony, Hirapur, Pandey Muhalla, Dhanbad"}, {"business_status": "OPERATIONAL", "geometry": {"location": {"lat": 23.81545209999999, "lng": 86.4407013}, "viewport": {"northeast": {"lat": 23.8167065802915, "lng": 86.44205708029149}, "southwest": {"lat": 23.8140086197085, "lng": 86.43935911970848}}}, "icon": "https://maps.gstatic.com/mapfiles/place_api/icons/v1/png_71/civic_building-71.png", "icon_background_color": "#7B9EB0", "icon_mask_base_uri": "https://maps.gstatic.com/mapfiles/place_api/icons/v2/civic-bldg_pinlet", "name": "CHW Office", "opening_hours": {"open_now": false}, "place_id": "ChIJawUfu5-89jkRaoXh1pkQ5Og", "reference": "ChIJawUfu5-89jkRaoXh1pkQ5Og", "scope": "GOOGLE", "types": ["local_government_office", "point_of_interest", "establishment"], "vicinity": "RC8R+57P, Sardar Patel Nagar, Dhanbad"}, {"business_status": "OPERATIONAL", "geometry": {"location": {"lat": 23.8005591, "lng": 86.4434011}, "viewport": {"northeast": {"lat": 23.8020096802915, "lng": 86.44475638029151}, "southwest": {"lat": 23.79931171970849, "lng": 86.4420584197085}}}, "icon": "https://maps.gstatic.com/mapfiles/place_api/icons/v1/png_71/civic_building-71.png", "icon_background_color": "#7B9EB0", "icon_mask_base_uri": "https://maps.gstatic.com/mapfiles/place_api/icons/v2/civic-bldg_pinlet", "name": "Central Excise & Service Tax, Dhanbad", "place_id": "ChIJq6qqupa89jkRATbKG5luA_g", "reference": "ChIJq6qqupa89jkRATbKG5luA_g", "scope": "GOOGLE", "types": ["accounting", "finance", "local_government_office", "point_of_interest", "establishment"], "vicinity": "Central Excise & Service Tax Building, H. E. School Vistipara, Hirapur, Post, Dhanbad"}, {"business_status": "OPERATIONAL", "geometry": {"location": {"lat": 23.8008403, "lng": 86.4387034}, "viewport": {"northeast": {"lat": 23.8021612302915, "lng": 86.4399731802915}, "southwest": {"lat": 23.7994632697085, "lng": 86.43727521970848}}}, "icon": "https://maps.gstatic.com/mapfiles/place_api/icons/v1/png_71/civic_building-71.png", "icon_background_color": "#7B9EB0", "icon_mask_base_uri": "https://maps.gstatic.com/mapfiles/place_api/icons/v2/civic-bldg_pinlet", "name": "JMADA MD Bungalow", "place_id": "ChIJ17G-Fw299jkRz0a26_nxs2I", "plus_code": {"compound_code": "RC2Q+8F Dhanbad, Jharkhand, India", "global_code": "7MM8RC2Q+8F"}, "reference": "ChIJ17G-Fw299jkRz0a26_nxs2I", "scope": "GOOGLE", "types": ["local_government_office", "point_of_interest", "establishment"], "vicinity": "Luby Circular Road, Sardar Patel Nagar, Dhanbad"}, {"business_status": "OPERATIONAL", "geometry": {"location": {"lat": 23.80427899999999, "lng": 86.4356312}, "viewport": {"northeast": {"lat": 23.8054936802915, "lng": 86.43708553029151}, "southwest": {"lat": 23.80279571970849, "lng": 86.43438756970849}}}, "icon": "https://maps.gstatic.com/mapfiles/place_api/icons/v1/png_71/civic_building-71.png", "icon_background_color": "#7B9EB0", "icon_mask_base_uri": "https://maps.gstatic.com/mapfiles/place_api/icons/v2/civic-bldg_pinlet", "name": "New Town Hall", "opening_hours": {"open_now": true}, "photos": [{"height": 3000, "html_attributions": ["<a href=\"https://maps.google.com/maps/contrib/110571508390605570527\">NAYAK FOR YOU</a>"], "photo_reference": "Aap_uEC2YCU6P-YRylU2SwzxN0gCUOay4YaX8gWYOWwaImyLcLisLUUaZTFXMNbPK8C5KK6lPuGLfeUkQVb97Iz2sz-YcGsnY6iop61BR-guSr3coHA7NIwboG90vz4qEeLejYCBQAIkUnF-YjXCZ9w2N0HlJhUyD9NwNPwKCv1D2W6OO7OG", "width": 4000}], "place_id": "ChIJtXO0w7y89jkRW_3ptOhT1xo", "rating": 4.1, "reference": "ChIJtXO0w7y89jkRW_3ptOhT1xo", "scope": "GOOGLE", "types": ["city_hall", "local_government_office", "point_of_interest", "establishment"], "user_ratings_total": 33, "vicinity": "RC3P+P76, Sardar Patel Nagar, Dhanbad"}, {"business_status": "CLOSED_TEMPORARILY", "geometry": {"location": {"lat": 23.8018008, "lng": 86.4372975}, "viewport": {"northeast": {"lat": 23.8028431302915, "lng": 86.43837598029151}, "southwest": {"lat": 23.8001451697085, "lng": 86.4356780197085}}}, "icon": "https://maps.gstatic.com/mapfiles/place_api/icons/v1/png_71/civic_building-71.png", "icon_background_color": "#7B9EB0", "icon_mask_base_uri": "https://maps.gstatic.com/mapfiles/place_api/icons/v2/civic-bldg_pinlet", "name": "SSP bungalow", "permanently_closed": true, "place_id": "ChIJpxLpl4C99jkRoACcPeFzbos", "plus_code": {"compound_code": "RC2P+PW Dhanbad, Jharkhand, India", "global_code": "7MM8RC2P+PW"}, "rating": 5, "reference": "ChIJpxLpl4C99jkRoACcPeFzbos", "scope": "GOOGLE", "types": ["police", "local_government_office", "point_of_interest", "establishment"], "user_ratings_total": 1, "vicinity": "Luby Circular Road, Sardar Patel Nagar, Dhanbad"}, {"business_status": "OPERATIONAL", "geometry": {"location": {"lat": 23.8015685, "lng": 86.4367906}, "viewport": {"northeast": {"lat": 23.8027958302915, "lng": 86.43802988029151}, "southwest": {"lat": 23.80009786970849, "lng": 86.43533191970849}}}, "icon": "https://maps.gstatic.com/mapfiles/place_api/icons/v1/png_71/civic_building-71.png", "icon_background_color": "#7B9EB0", "icon_mask_base_uri": "https://maps.gstatic.com/mapfiles/place_api/icons/v2/civic-bldg_pinlet", "name": "S.s.p house dhanbad", "opening_hours": {"open_now": true}, "place_id": "ChIJkWniQuq99jkRf2CwcCFzymg", "rating": 5, "reference": "ChIJkWniQuq99jkRf2CwcCFzymg", "scope": "GOOGLE", "types": ["police", "local_government_office", "point_of_interest", "establishment"], "user_ratings_total": 1, "vicinity": "RC2P+JPF, Sardar Patel Nagar, Dhanbad"}, {"business_status": "CLOSED_TEMPORARILY", "geometry": {"location": {"lat": 23.8032008, "lng": 86.4352309}, "viewport": {"northeast": {"lat": 23.8044950302915, "lng": 86.4366463802915}, "southwest": {"lat": 23.8017970697085, "lng": 86.4339484197085}}}, "icon": "https://maps.gstatic.com/mapfiles/place_api/icons/v1/png_71/civic_building-71.png", "icon_background_color": "#7B9EB0", "icon_mask_base_uri": "https://maps.gstatic.com/mapfiles/place_api/icons/v2/civic-bldg_pinlet", "name": "Jharkhand State Food & Civil Supply Corporation Ltd. Dhanbad", "permanently_closed": true, "photos": [{"height": 1152, "html_attributions": ["<a href=\"https://maps.google.com/maps/contrib/103537149312887383545\">rahul Munshi</a>"], "photo_reference": "Aap_uED4gn7DwKD2Ejf1JOULNfJxU_6WzIrMXd3wYV2DBMv3vfusXqG0V5c0ceLnZrDSTMjD7xwYBkx2bQmpon0C0nhvPc0VnO5jrv55_H31bgfbE5ZBhtFcpdOH9JB6QYQiWjWGq0IwV5ekKCsh6uw273AcNBk7uhJ3h-kLAom2kEVqv2bt", "width": 864}], "place_id": "ChIJ13cTBzu99jkR81Pz5-tG3IY", "rating": 5, "reference": "ChIJ13cTBzu99jkR81Pz5-tG3IY", "scope": "GOOGLE", "types": ["local_government_office", "point_of_interest", "establishment"], "user_ratings_total": 1, "vicinity": "RC3P+73Q, Sardar Patel Nagar, Dhanbad"}, {"business_status": "OPERATIONAL", "geometry": {"location": {"lat": 23.8032036, "lng": 86.4352205}, "viewport": {"northeast": {"lat": 23.8044948802915, "lng": 86.4366396302915}, "southwest": {"lat": 23.80179691970849, "lng": 86.43394166970849}}}, "icon": "https://maps.gstatic.com/mapfiles/place_api/icons/v1/png_71/civic_building-71.png", "icon_background_color": "#7B9EB0", "icon_mask_base_uri": "https://maps.gstatic.com/mapfiles/place_api/icons/v2/civic-bldg_pinlet", "name": "JHARKHAND STATE FOOD & CIVIL SUPPLIES CORPORATION LTD. DHANBAD", "place_id": "ChIJ830XRQa99jkRzJmUMmDvOJ4", "plus_code": {"compound_code": "RC3P+73 Dhanbad, Jharkhand, India", "global_code": "7MM8RC3P+73"}, "reference": "ChIJ830XRQa99jkRzJmUMmDvOJ4", "scope": "GOOGLE", "types": ["local_government_office", "point_of_interest", "establishment"], "vicinity": "Sardar Patel Nagar, Dhanbad"}, {"business_status": "OPERATIONAL", "geometry": {"location": {"lat": 23.809067, "lng": 86.458756}, "viewport": {"northeast": {"lat": 23.8103794802915, "lng": 86.45993598029149}, "southwest": {"lat": 23.8076815197085, "lng": 86.45723801970848}}}, "icon": "https://maps.gstatic.com/mapfiles/place_api/icons/v1/png_71/civic_building-71.png", "icon_background_color": "#7B9EB0", "icon_mask_base_uri": "https://maps.gstatic.com/mapfiles/place_api/icons/v2/civic-bldg_pinlet", "name": "Shram Bhawan, regional labour commission, dhanbad", "opening_hours": {"open_now": true}, "photos": [{"height": 3024, "html_attributions": ["<a href=\"https://maps.google.com/maps/contrib/101306289675803432117\">Vikash Kumar</a>"], "photo_reference": "Aap_uEAiZ7GvCNXnv3lWJTEZYa5TW2dpBKg5tbG1OYskn86qx7jAqgL8JgfBzrc0-tzmrYdbXtWRj3G-EKzyI7CyO1jMxRCyaHFruyWOPr9VvSgeRWMEhrRXh2gazLP70kis6yzcGj72lxYpnuS4NKFah9F5Yc74dEzUIdSx4K5qZW9upjBy", "width": 4032}], "place_id": "ChIJD3-BeIe89jkRxEW51kCjCH4", "plus_code": {"compound_code": "RF55+JG Dhanbad, Jharkhand, India", "global_code": "7MM8RF55+JG"}, "rating": 4.5, "reference": "ChIJD3-BeIe89jkRxEW51kCjCH4", "scope": "GOOGLE", "types": ["local_government_office", "point_of_interest", "establishment"], "user_ratings_total": 2, "vicinity": "regional labour commission, Dhaiya, Dhanbad"}, {"business_status": "OPERATIONAL", "geometry": {"location": {"lat": 23.801633, "lng": 86.4355343}, "viewport": {"northeast": {"lat": 23.8031117802915, "lng": 86.4368129302915}, "southwest": {"lat": 23.8004138197085, "lng": 86.43411496970849}}}, "icon": "https://maps.gstatic.com/mapfiles/place_api/icons/v1/png_71/civic_building-71.png", "icon_background_color": "#7B9EB0", "icon_mask_base_uri": "https://maps.gstatic.com/mapfiles/place_api/icons/v2/civic-bldg_pinlet", "name": "MADA Office", "opening_hours": {"open_now": false}, "photos": [{"height": 2322, "html_attributions": ["<a href=\"https://maps.google.com/maps/contrib/105566380879975446225\">Ajay Saw</a>"], "photo_reference": "Aap_uEAk6D9jtZOmlMYt5dTEY7mNqzaK_qO_eDV2ndVsvvoLHYStTnJKc4hBZR6b-tYWY3S19C8xfg3fkIv6BJ36uA0iNchTKiA3Ox6EAzYNYVQz3_DXZnc_y_HkwjTmYVPk4ASpJbq0dgb9t9-mSw5QgsWbx4HZv6q4XJfu0BDoRDbSWuQu", "width": 4128}], "place_id": "ChIJe6t6RLy89jkR06RW1tCC_tc", "rating": 3.6, "reference": "ChIJe6t6RLy89jkR06RW1tCC_tc", "scope": "GOOGLE", "types": ["local_government_office", "point_of_interest", "establishment"], "user_ratings_total": 22, "vicinity": "RC2P+M63, Kasturba Nagar, Dhanbad"}, {"business_status": "OPERATIONAL", "geometry": {"location": {"lat": 23.8019894, "lng": 86.43471389999999}, "viewport": {"northeast": {"lat": 23.8035481802915, "lng": 86.4362388302915}, "southwest": {"lat": 23.8008502197085, "lng": 86.4335408697085}}}, "icon": "https://maps.gstatic.com/mapfiles/place_api/icons/v1/png_71/civic_building-71.png", "icon_background_color": "#7B9EB0", "icon_mask_base_uri": "https://maps.gstatic.com/mapfiles/place_api/icons/v2/civic-bldg_pinlet", "name": "Dhanbad Nagar Nigam Office", "opening_hours": {"open_now": true}, "photos": [{"height": 2592, "html_attributions": ["<a href=\"https://maps.google.com/maps/contrib/106910895203675108873\">A</a>"], "photo_reference": "Aap_uEAX42ZjzroCOeyKHaSDH_6Q99ohlyH5-66lKOUBE3Pc2PjLf71qFtBcdbxcQxj9sS2C3i3NE7JzPZtfxMlYml0WHgta3Kdro9k7ZCljfeqjGeB286hM-W_7Dga07lHUuZas3o-mj-_xu_vmPbg9mRtY31zmQFVlY4cNZihScdfUzWWP", "width": 4608}], "place_id": "ChIJWWCoZby89jkRnPs8D2ASH34", "plus_code": {"compound_code": "RC2M+QV Dhanbad, Jharkhand, India", "global_code": "7MM8RC2M+QV"}, "rating": 3.2, "reference": "ChIJWWCoZby89jkRnPs8D2ASH34", "scope": "GOOGLE", "types": ["local_government_office", "point_of_interest", "establishment"], "user_ratings_total": 41, "vicinity": "Luby Circular Road, Dhanbad"}, {"geometry": {"location": {"lat": 23.7991068, "lng": 86.4387764}, "viewport": {"northeast": {"lat": 23.8004707458367, "lng": 86.44012171115642}, "southwest": {"lat": 23.7977727852537, "lng": 86.43742375057342}}}, "icon": "https://maps.gstatic.com/mapfiles/place_api/icons/v1/png_71/civic_building-71.png", "icon_background_color": "#7B9EB0", "icon_mask_base_uri": "https://maps.gstatic.com/mapfiles/place_api/icons/v2/civic-bldg_pinlet", "name": "Power Sub Station", "place_id": "ChIJzUdzA7689jkR1YHdml_Fyy0", "reference": "ChIJzUdzA7689jkR1YHdml_Fyy0", "scope": "GOOGLE", "types": ["premise", "local_government_office", "establishment"], "vicinity": "Sardar Patel Nagar"}], "status": "OK"}