{"html_attributions": [], "results": [{"business_status": "OPERATIONAL", "geometry": {"location": {"lat": 27.5554025, "lng": 80.7015194}, "viewport": {"northeast": {"lat": 27.5567971302915, "lng": 80.70290553029149}, "southwest": {"lat": 27.5540991697085, "lng": 80.70020756970848}}}, "icon": "https://maps.gstatic.com/mapfiles/place_api/icons/v1/png_71/civic_building-71.png", "icon_background_color": "#7B9EB0", "icon_mask_base_uri": "https://maps.gstatic.com/mapfiles/place_api/icons/v2/civic-bldg_pinlet", "name": "RBL FINSERVE LTD", "opening_hours": {"open_now": false}, "photos": [{"height": 1920, "html_attributions": ["<a href=\"https://maps.google.com/maps/contrib/116477372587913609867\">RBL FINSERVE LTD</a>"], "photo_reference": "Aap_uEDJezKqh5sr7T-pRGuSjs5er6PFh6tZuzi7O5W7N4Tupr81Xfi3msdyqq2ujoLR3Wg5cxR92O9jjkH31R9HRA1BG4zE78_W_h-XElJAdgKmm2iqqMmI2BHKm7WZNXfnk8JzFp8KpHQ7l2YGXFmsM33IzYGNAxvTjOwiqttFF6pCUGhn", "width": 1440}], "place_id": "ChIJ8VLKQjLXnjkRYj_9AXM81JE", "plus_code": {"compound_code": "HP42+5J Sitapur, Uttar Pradesh, India", "global_code": "7MV2HP42+5J"}, "rating": 3.5, "reference": "ChIJ8VLKQjLXnjkRYj_9AXM81JE", "scope": "GOOGLE", "types": ["local_government_office", "point_of_interest", "establishment"], "user_ratings_total": 2, "vicinity": "near Vaidehe Vatika, 3rd Floor, near Vaidehe Vatika, Station Road, Sitapur"}, {"business_status": "OPERATIONAL", "geometry": {"location": {"lat": 27.5551593, "lng": 80.7018286}, "viewport": {"northeast": {"lat": 27.5565687802915, "lng": 80.70322688029151}, "southwest": {"lat": 27.55387081970849, "lng": 80.7005289197085}}}, "icon": "https://maps.gstatic.com/mapfiles/place_api/icons/v1/png_71/civic_building-71.png", "icon_background_color": "#7B9EB0", "icon_mask_base_uri": "https://maps.gstatic.com/mapfiles/place_api/icons/v2/civic-bldg_pinlet", "name": "NAMAN ENTERPRISES", "opening_hours": {"open_now": false}, "place_id": "ChIJ_96nOtXXnjkRoxPl6lvi2EE", "plus_code": {"compound_code": "HP42+3P Sitapur, Uttar Pradesh, India", "global_code": "7MV2HP42+3P"}, "reference": "ChIJ_96nOtXXnjkRoxPl6lvi2EE", "scope": "GOOGLE", "types": ["local_government_office", "point_of_interest", "establishment"], "vicinity": "GROUND FLOOR PLOT NO.-13 ,SURVEY NO.-62/1-2 OPPOSITE CANTT, Station Road, Sitapur"}, {"business_status": "OPERATIONAL", "geometry": {"location": {"lat": 27.5714812, "lng": 80.71184579999999}, "viewport": {"northeast": {"lat": 27.5729206802915, "lng": 80.7131769302915}, "southwest": {"lat": 27.5702227197085, "lng": 80.71047896970849}}}, "icon": "https://maps.gstatic.com/mapfiles/place_api/icons/v1/png_71/civic_building-71.png", "icon_background_color": "#7B9EB0", "icon_mask_base_uri": "https://maps.gstatic.com/mapfiles/place_api/icons/v2/civic-bldg_pinlet", "name": "Pratham Education Foundation", "opening_hours": {"open_now": true}, "photos": [{"height": 721, "html_attributions": ["<a href=\"https://maps.google.com/maps/contrib/115400639454930947477\">Rinki Sharma</a>"], "photo_reference": "Aap_uEBkzba8COFa_t0hKe3wD3pKbcJUgHAvo6IPqm2MCI228Uu3ikvtrmtQTTbtADg0Vk1EsjqfdVqwvw99OWXH8rDylGKtONsG0CElVSeFcqwjF79_iT-zxU08HZx1RAVyoQYvQjm9VWEnqRQph9FY487Lwl9prSB5Dw0RaVlx67kOLeh8", "width": 1280}], "place_id": "ChIJI0Kf_j01nzkRjKpQYDSyoF0", "plus_code": {"compound_code": "HPC6+HP Sitapur, Uttar Pradesh, India", "global_code": "7MV2HPC6+HP"}, "rating": 4.3, "reference": "ChIJI0Kf_j01nzkRjKpQYDSyoF0", "scope": "GOOGLE", "types": ["local_government_office", "point_of_interest", "establishment"], "user_ratings_total": 6, "vicinity": "Sundar Nagar Naipalapur, kasraila road, Sitapur - Lakhimpur Road"}], "status": "OK"}