{"html_attributions": [], "results": [{"business_status": "OPERATIONAL", "geometry": {"location": {"lat": 24.9159957, "lng": 86.2260155}, "viewport": {"northeast": {"lat": 24.9173500302915, "lng": 86.2273743802915}, "southwest": {"lat": 24.9146520697085, "lng": 86.22467641970849}}}, "icon": "https://maps.gstatic.com/mapfiles/place_api/icons/v1/png_71/generic_business-71.png", "icon_background_color": "#7B9EB0", "icon_mask_base_uri": "https://maps.gstatic.com/mapfiles/place_api/icons/v2/generic_pinlet", "name": "Gayatri Clinic And Dental Care", "photos": [{"height": 1080, "html_attributions": ["<a href=\"https://maps.google.com/maps/contrib/103512869850280445518\">Om Bhagat</a>"], "photo_reference": "Aap_uEC_tT2AQqkpOMdLdBPne7ULHQCtrAqE6fq4lIJaXR0jKyNPF1A2Gqr9n4LLAXrJO2nMlQ9E5xvt6lfpX2lIVyiBA_lA4qnxEHpcJHMcYVNlO19eM0XccpAuD62MHaZUb7NTDJWW6uY358es4X3qr-ar_zoWsQvZkfAJYoMK6PrdiT3J", "width": 1920}], "place_id": "ChIJ8aNDoQor8jkR5VMwPnqRJBA", "plus_code": {"compound_code": "W68G+9C Jamui, Bihar, India", "global_code": "7MP8W68G+9C"}, "rating": 5, "reference": "ChIJ8aNDoQor8jkR5VMwPnqRJBA", "scope": "GOOGLE", "types": ["doctor", "health", "point_of_interest", "establishment"], "user_ratings_total": 5, "vicinity": "Manorma Market, Gandhi Maidan Road, MaharajGanj"}, {"business_status": "OPERATIONAL", "geometry": {"location": {"lat": 24.9159956, "lng": 86.2260154}, "viewport": {"northeast": {"lat": 24.9173500302915, "lng": 86.2273743802915}, "southwest": {"lat": 24.9146520697085, "lng": 86.22467641970849}}}, "icon": "https://maps.gstatic.com/mapfiles/place_api/icons/v1/png_71/generic_business-71.png", "icon_background_color": "#7B9EB0", "icon_mask_base_uri": "https://maps.gstatic.com/mapfiles/place_api/icons/v2/generic_pinlet", "name": "Suraj kumar", "photos": [{"height": 1978, "html_attributions": ["<a href=\"https://maps.google.com/maps/contrib/112431941278424025365\">Suraj Kumar</a>"], "photo_reference": "Aap_uECossY0K1jOTf7RuW-NATLNE5_qeoW59pPgjWE5OdVSEKst3Qy8rsptK9AcgN8l3Fc7iaokf32KLETt-ePiiOO8z0CG8IUzN3MST_hbBPJnF_glgn5BTObkUjEjvbdUoCQeFdnYBeDNqtzML2PZ4j0OC_4QZO3nXJ8V6m254IS-HsIE", "width": 1080}], "place_id": "ChIJdecTj4gr8jkRIZW4K-7_GgQ", "plus_code": {"compound_code": "W68G+9C Jamui, Bihar, India", "global_code": "7MP8W68G+9C"}, "reference": "ChIJdecTj4gr8jkRIZW4K-7_GgQ", "scope": "GOOGLE", "types": ["doctor", "health", "point_of_interest", "establishment"], "vicinity": ""}, {"business_status": "OPERATIONAL", "geometry": {"location": {"lat": 24.9195147, "lng": 86.224718}, "viewport": {"northeast": {"lat": 24.9208277802915, "lng": 86.2260673802915}, "southwest": {"lat": 24.9181298197085, "lng": 86.22336941970849}}}, "icon": "https://maps.gstatic.com/mapfiles/place_api/icons/v1/png_71/generic_business-71.png", "icon_background_color": "#7B9EB0", "icon_mask_base_uri": "https://maps.gstatic.com/mapfiles/place_api/icons/v2/generic_pinlet", "name": "Shree Dhanwantari Aushadhalay ,Jamui Branch", "photos": [{"height": 4480, "html_attributions": ["<a href=\"https://maps.google.com/maps/contrib/116562351364757451381\">The LIGHTENING</a>"], "photo_reference": "Aap_uEBIWImCJE4Ab0mF6iwQw00VXnWdg_L7pPY2loxwA_0OWIMUBC_bg3VhqEeHV46uyYLtE8Q_V2UcSJu0NZzVP5JMmErGhV4BxO9yN4AzYSqp7Jsd9ioCe4ihuzY25YxeSsx5FboM-T-UePT3l-UxTFxPYPLEgGqrxVA34gn4Nz5KRzLD", "width": 2016}], "place_id": "ChIJUfeX64kr8jkRrYf5OXaPCJk", "plus_code": {"compound_code": "W69F+RV Jamui, Bihar, India", "global_code": "7MP8W69F+RV"}, "reference": "ChIJUfeX64kr8jkRrYf5OXaPCJk", "scope": "GOOGLE", "types": ["doctor", "health", "point_of_interest", "establishment"], "vicinity": "Uco Bank, Jamui"}, {"business_status": "OPERATIONAL", "geometry": {"location": {"lat": 24.9195147, "lng": 86.224718}, "viewport": {"northeast": {"lat": 24.9208277802915, "lng": 86.2260673802915}, "southwest": {"lat": 24.9181298197085, "lng": 86.22336941970849}}}, "icon": "https://maps.gstatic.com/mapfiles/place_api/icons/v1/png_71/generic_business-71.png", "icon_background_color": "#7B9EB0", "icon_mask_base_uri": "https://maps.gstatic.com/mapfiles/place_api/icons/v2/generic_pinlet", "name": "GopalSri Bhawan Hariyadih", "place_id": "ChIJH6ia64Qr8jkR5plV2Sume0g", "reference": "ChIJH6ia64Qr8jkR5plV2Sume0g", "scope": "GOOGLE", "types": ["doctor", "health", "point_of_interest", "establishment"], "vicinity": "W69F+RV4, Jamui"}, {"business_status": "OPERATIONAL", "geometry": {"location": {"lat": 24.9217065, "lng": 86.22564299999999}, "viewport": {"northeast": {"lat": 24.9230721802915, "lng": 86.2269312302915}, "southwest": {"lat": 24.9203742197085, "lng": 86.22423326970849}}}, "icon": "https://maps.gstatic.com/mapfiles/place_api/icons/v1/png_71/generic_business-71.png", "icon_background_color": "#7B9EB0", "icon_mask_base_uri": "https://maps.gstatic.com/mapfiles/place_api/icons/v2/generic_pinlet", "name": "DR. SHAMIM AKHTAR", "opening_hours": {"open_now": true}, "photos": [{"height": 3456, "html_attributions": ["<a href=\"https://maps.google.com/maps/contrib/100489766480950765895\">HOLY MISSION PUBLIC SCHOOL , JAMUI</a>"], "photo_reference": "Aap_uEDPPC37-wRdfC-f8Z946pajppabDwbGLknfq8RXIN6XeQiGADrnIqzcuwkzJ_Jf2WLhWuGz6HlkJNE-P6WWEICoctO9RY0Fa_pKXCkH8bL7fplO5JVyL4vBIWKHGa6MmxA-Q4DZfKBodO6RYLtlM2YyYJX_qjs61qCHnj_Nlymbha04", "width": 4608}], "place_id": "ChIJ5wvH63Qr8jkRbRCmYrrDLqw", "plus_code": {"compound_code": "W6CG+M7 Jamui, Bihar, India", "global_code": "7MP8W6CG+M7"}, "rating": 5, "reference": "ChIJ5wvH63Qr8jkRbRCmYrrDLqw", "scope": "GOOGLE", "types": ["doctor", "health", "point_of_interest", "establishment"], "user_ratings_total": 2, "vicinity": "Jamui"}, {"business_status": "OPERATIONAL", "geometry": {"location": {"lat": 24.9227058, "lng": 86.223529}, "viewport": {"northeast": {"lat": 24.9240990802915, "lng": 86.22494048029151}, "southwest": {"lat": 24.9214011197085, "lng": 86.2222425197085}}}, "icon": "https://maps.gstatic.com/mapfiles/place_api/icons/v1/png_71/generic_business-71.png", "icon_background_color": "#7B9EB0", "icon_mask_base_uri": "https://maps.gstatic.com/mapfiles/place_api/icons/v2/generic_pinlet", "name": "Dr.Abhishek kumar", "opening_hours": {"open_now": true}, "photos": [{"height": 4032, "html_attributions": ["<a href=\"https://maps.google.com/maps/contrib/115599481764302681208\">Sonu Kumar</a>"], "photo_reference": "Aap_uEBRcDPUtnF5T6WwZQPm078-QAAusLiqwKNH9e9rw24f3r1ZYYUkTlMN1HloTz_MV46JYjgORSRQjH0VcKixr-GIWF3AfZlC4QlKelVv-72WRAJdlH2fQN3f_VmOhmsknceyLmhHfFxXiJROp860qNbJjNO6n6CnXnqBDQa5M7mDLXz8", "width": 3024}], "place_id": "ChIJtYIhcl0r8jkR8CPsJOYhrvM", "plus_code": {"compound_code": "W6FF+3C Jamui, Bihar, India", "global_code": "7MP8W6FF+3C"}, "reference": "ChIJtYIhcl0r8jkR8CPsJOYhrvM", "scope": "GOOGLE", "types": ["doctor", "health", "point_of_interest", "establishment"], "vicinity": "National Highway 333, Jamui"}, {"business_status": "OPERATIONAL", "geometry": {"location": {"lat": 24.9249104, "lng": 86.2247348}, "viewport": {"northeast": {"lat": 24.9262567802915, "lng": 86.2260899802915}, "southwest": {"lat": 24.9235588197085, "lng": 86.2233920197085}}}, "icon": "https://maps.gstatic.com/mapfiles/place_api/icons/v1/png_71/generic_business-71.png", "icon_background_color": "#7B9EB0", "icon_mask_base_uri": "https://maps.gstatic.com/mapfiles/place_api/icons/v2/generic_pinlet", "name": "Star ultrasound & diagnostic centre", "photos": [{"height": 1846, "html_attributions": ["<a href=\"https://maps.google.com/maps/contrib/103482586233784619522\">shivam singh</a>"], "photo_reference": "Aap_uEDkUeek1iK_KOErEXwmLvuh4O94DE0_AgV3YxvOohhRl9giSYq1BLXuyA1VxJupQcT-3KRQGLzoLgChsY4f0895JzC8xxDs_rSSJ1AVC32UaZBGovUJ4YR4X1EDgZwDC6mMtr1odi2DvUP0h6oVclU9qv-Z6IInTaD2hskMqPlbfVto", "width": 4000}], "place_id": "ChIJ8ReaPhor8jkRp5fr5sOCDd8", "plus_code": {"compound_code": "W6FF+XV Jamui, Bihar, India", "global_code": "7MP8W6FF+XV"}, "rating": 5, "reference": "ChIJ8ReaPhor8jkRp5fr5sOCDd8", "scope": "GOOGLE", "types": ["doctor", "health", "point_of_interest", "establishment"], "user_ratings_total": 2, "vicinity": "Sardar Hospital Road, Jamui"}, {"business_status": "OPERATIONAL", "geometry": {"location": {"lat": 24.9250235, "lng": 86.2232348}, "viewport": {"northeast": {"lat": 24.9263758802915, "lng": 86.2245751302915}, "southwest": {"lat": 24.9236779197085, "lng": 86.22187716970849}}}, "icon": "https://maps.gstatic.com/mapfiles/place_api/icons/v1/png_71/generic_business-71.png", "icon_background_color": "#7B9EB0", "icon_mask_base_uri": "https://maps.gstatic.com/mapfiles/place_api/icons/v2/generic_pinlet", "name": "Dr. Syed Naushad Ahmad", "photos": [{"height": 1920, "html_attributions": ["<a href=\"https://maps.google.com/maps/contrib/118324305762913288505\">Pankaj Kushwaha</a>"], "photo_reference": "Aap_uEDRytvuBjW3RogiF5HsYmMLPduEly8HJjxmXs56K9eoIHRuUTuFqJ0YghSnGNjLGsoqlmXjfRr4WCpIEhg40MoIRgzfBFiIPqKPqFiXoVldwObaTXveLPaozagYSHHqetVrvM_P-ObVYjMiBphxy3DJ_ee2jKplXBCxmSnYQsXbpdm3", "width": 1080}], "place_id": "ChIJ5ZzYMScr8jkR97tsdDBin9M", "plus_code": {"compound_code": "W6GF+27 Jamui, Bihar, India", "global_code": "7MP8W6GF+27"}, "rating": 4, "reference": "ChIJ5ZzYMScr8jkR97tsdDBin9M", "scope": "GOOGLE", "types": ["doctor", "health", "point_of_interest", "establishment"], "user_ratings_total": 4, "vicinity": "near sadar Aspatal, Jamui"}, {"business_status": "OPERATIONAL", "geometry": {"location": {"lat": 24.93013939999999, "lng": 86.2308556}, "viewport": {"northeast": {"lat": 24.9314846802915, "lng": 86.23224918029152}, "southwest": {"lat": 24.9287867197085, "lng": 86.2295512197085}}}, "icon": "https://maps.gstatic.com/mapfiles/place_api/icons/v1/png_71/generic_business-71.png", "icon_background_color": "#7B9EB0", "icon_mask_base_uri": "https://maps.gstatic.com/mapfiles/place_api/icons/v2/generic_pinlet", "name": "N.k Agarbatti agency", "photos": [{"height": 1182, "html_attributions": ["<a href=\"https://maps.google.com/maps/contrib/115628058351366759637\">N.k Industries</a>"], "photo_reference": "Aap_uECI6h1M2N9nezsDm3dbJj8oR8YXqEycMMfxjpK1Ij7fBJPS0k92TLDFeUnLgX47tI6ANJi94CapJBWNgb7_m-ueSQVvo7oe0yKz61sxJUYNpv0MWYFJ_rsHvWePEhm3Cb2L2PcqdyFwRVp0NyZ4wOHHDTqsXlSKuTEJvTZdTpbQiySi", "width": 720}], "place_id": "ChIJocwdmxQr8jkRBH8yxWyql2k", "plus_code": {"compound_code": "W6JJ+38 Jamui, Bihar, India", "global_code": "7MP8W6JJ+38"}, "reference": "ChIJocwdmxQr8jkRBH8yxWyql2k", "scope": "GOOGLE", "types": ["doctor", "health", "point_of_interest", "establishment"], "vicinity": "Ashok Town Hall Road, Jamui"}], "status": "OK"}