{"html_attributions": [], "results": [{"business_status": "OPERATIONAL", "geometry": {"location": {"lat": 24.9514613, "lng": 86.5930592}, "viewport": {"northeast": {"lat": 24.9522636302915, "lng": 86.59408228029152}, "southwest": {"lat": 24.94956566970849, "lng": 86.5913843197085}}}, "icon": "https://maps.gstatic.com/mapfiles/place_api/icons/v1/png_71/generic_business-71.png", "icon_background_color": "#7B9EB0", "icon_mask_base_uri": "https://maps.gstatic.com/mapfiles/place_api/icons/v2/generic_pinlet", "name": "dr. mandal clinic", "place_id": "ChIJW__4tm-h8TkRZgr1FZra-lk", "plus_code": {"compound_code": "XH2V+H6 Sangrampur, Bihar, India", "global_code": "7MP8XH2V+H6"}, "reference": "ChIJW__4tm-h8TkRZgr1FZra-lk", "scope": "GOOGLE", "types": ["doctor", "health", "point_of_interest", "establishment"], "vicinity": "front gali of state bank of india, Sangrampur"}, {"business_status": "OPERATIONAL", "geometry": {"location": {"lat": 24.9507108, "lng": 86.5876538}, "viewport": {"northeast": {"lat": 24.9520510802915, "lng": 86.5889993302915}, "southwest": {"lat": 24.9493531197085, "lng": 86.5863013697085}}}, "icon": "https://maps.gstatic.com/mapfiles/place_api/icons/v1/png_71/generic_business-71.png", "icon_background_color": "#7B9EB0", "icon_mask_base_uri": "https://maps.gstatic.com/mapfiles/place_api/icons/v2/generic_pinlet", "name": "Rishav Raj Homeo Clinic ( Dr Kumar Rajiv Ranjan)", "opening_hours": {"open_now": false}, "photos": [{"height": 1080, "html_attributions": ["<a href=\"https://maps.google.com/maps/contrib/102767803975272860114\">Ashok Arya</a>"], "photo_reference": "Aap_uEDg8xGhzbMetEtJsUXzyiZIXVko1I0LWrQLzR36qVIJRWNtDiq89ZDajca_x0XULYuTtdUE-vnLRdjLz-A_XY30aGaqFhULrNr9-X1E-krgKWZ--wbK1oJApAte46oAwMh31t4rM7e1nCE7mDnLzTsJCJxgJRxbJdqMGLdTn4H7Yrtg", "width": 1920}], "place_id": "ChIJwySVR6yh8TkRf-2H9ngHUB4", "plus_code": {"compound_code": "XH2Q+73 Sangrampur, Bihar, India", "global_code": "7MP8XH2Q+73"}, "rating": 5, "reference": "ChIJwySVR6yh8TkRf-2H9ngHUB4", "scope": "GOOGLE", "types": ["doctor", "health", "point_of_interest", "establishment"], "user_ratings_total": 2, "vicinity": "Gaighat - Sangrampur Road, Sangrampur"}, {"business_status": "OPERATIONAL", "geometry": {"location": {"lat": 24.9502737, "lng": 86.59229739999999}, "viewport": {"northeast": {"lat": 24.9516800302915, "lng": 86.59368058029149}, "southwest": {"lat": 24.9489820697085, "lng": 86.59098261970848}}}, "icon": "https://maps.gstatic.com/mapfiles/place_api/icons/v1/png_71/generic_business-71.png", "icon_background_color": "#7B9EB0", "icon_mask_base_uri": "https://maps.gstatic.com/mapfiles/place_api/icons/v2/generic_pinlet", "name": "Dr. Raj Kamal Homeo Clinic", "place_id": "ChIJY1lkRvCh8TkRT1vlPP2aO9o", "rating": 5, "reference": "ChIJY1lkRvCh8TkRT1vlPP2aO9o", "scope": "GOOGLE", "types": ["doctor", "health", "point_of_interest", "establishment"], "user_ratings_total": 1, "vicinity": "XH2R+4W3, Sangrampur"}], "status": "OK"}