{"html_attributions": [], "results": [{"business_status": "OPERATIONAL", "geometry": {"location": {"lat": 26.0794808, "lng": 89.8934888}, "viewport": {"northeast": {"lat": 26.0807946802915, "lng": 89.8948304302915}, "southwest": {"lat": 26.0780967197085, "lng": 89.89213246970849}}}, "icon": "https://maps.gstatic.com/mapfiles/place_api/icons/v1/png_71/hospital-71.png", "icon_background_color": "#F88181", "icon_mask_base_uri": "https://maps.gstatic.com/mapfiles/place_api/icons/v2/hospital-H_pinlet", "name": "Kobiraaj Ortho", "opening_hours": {"open_now": true}, "place_id": "ChIJG_IKNPqY4jkRiSmvMzM9YgE", "rating": 5, "reference": "ChIJG_IKNPqY4jkRiSmvMzM9YgE", "scope": "GOOGLE", "types": ["hospital", "health", "point_of_interest", "establishment"], "user_ratings_total": 2, "vicinity": "3VHV+Q9X, Debattar Hasdaha Pt.IV"}, {"business_status": "OPERATIONAL", "geometry": {"location": {"lat": 26.0797347, "lng": 89.8715175}, "viewport": {"northeast": {"lat": 26.0810206302915, "lng": 89.8728313802915}, "southwest": {"lat": 26.07832266970849, "lng": 89.8701334197085}}}, "icon": "https://maps.gstatic.com/mapfiles/place_api/icons/v1/png_71/hospital-71.png", "icon_background_color": "#F88181", "icon_mask_base_uri": "https://maps.gstatic.com/mapfiles/place_api/icons/v2/hospital-H_pinlet", "name": "Dhepdhepi Mini Primary Health Centre", "photos": [{"height": 1970, "html_attributions": ["<a href=\"https://maps.google.com/maps/contrib/102735027896391724110\">M\u00f8\u00f1\u00f4w\u00e1r H\u00f8ss\u00e4\u00ee\u00f1</a>"], "photo_reference": "Aap_uEAYatHXB6OQBc-beIfS0Vxw9bceNqzvO4CBOeZhPABRXFtN5mG4UUbvWbNaGi95WMD_gAoApXy9g6vWVMWIYdPOcflMGHBQgyGTtxe9dm3dhVi_BhmnnrPCEnHNi87U7tRa-iuhfV54SsmAhLA6fZ_bIasy-hst7QSFQDcysrwThaSC", "width": 4160}], "place_id": "ChIJdZJOjz2Z4jkRAgK5NDTOZ6s", "plus_code": {"compound_code": "3VHC+VJ Balajan, Assam, India", "global_code": "7MRF3VHC+VJ"}, "rating": 5, "reference": "ChIJdZJOjz2Z4jkRAgK5NDTOZ6s", "scope": "GOOGLE", "types": ["hospital", "health", "point_of_interest", "establishment"], "user_ratings_total": 1, "vicinity": "Dhepdhepi, Road, Balajan"}, {"business_status": "OPERATIONAL", "geometry": {"location": {"lat": 26.07962109999999, "lng": 89.87152960000002}, "viewport": {"northeast": {"lat": 26.08095863029151, "lng": 89.8728721802915}, "southwest": {"lat": 26.0782606697085, "lng": 89.87017421970847}}}, "icon": "https://maps.gstatic.com/mapfiles/place_api/icons/v1/png_71/hospital-71.png", "icon_background_color": "#F88181", "icon_mask_base_uri": "https://maps.gstatic.com/mapfiles/place_api/icons/v2/hospital-H_pinlet", "name": "Devdevi Hospital", "opening_hours": {"open_now": true}, "photos": [{"height": 1970, "html_attributions": ["<a href=\"https://maps.google.com/maps/contrib/102735027896391724110\">M\u00f8\u00f1\u00f4w\u00e1r H\u00f8ss\u00e4\u00ee\u00f1</a>"], "photo_reference": "Aap_uEDs1Azcenbkn2YVeqo9t4SnSt8_mUoJqt5cacO7e0pepTQp8ldNPzsv5LLXYplhWsb-8myP-tQdo4uYtnKieT01mAyb_xe6P4k3hmbRQMwBil0Tjo0cGhYcevoHfUYDf8acentjqN8J3IojumtiHMP3_JQ77ewyze_I-X30D8dXfQu6", "width": 4160}], "place_id": "ChIJjQhlVUiY4jkRmLcvo08xVXY", "rating": 4.3, "reference": "ChIJjQhlVUiY4jkRmLcvo08xVXY", "scope": "GOOGLE", "types": ["hospital", "health", "point_of_interest", "establishment"], "user_ratings_total": 10, "vicinity": "3VHC+RJR, Kheksialy"}], "status": "OK"}