{"html_attributions": [], "results": [{"business_status": "OPERATIONAL", "geometry": {"location": {"lat": 26.0173719, "lng": 89.96822189999999}, "viewport": {"northeast": {"lat": 26.0185975802915, "lng": 89.96970713029151}, "southwest": {"lat": 26.0158996197085, "lng": 89.9670091697085}}}, "icon": "https://maps.gstatic.com/mapfiles/place_api/icons/v1/png_71/hospital-71.png", "icon_background_color": "#F88181", "icon_mask_base_uri": "https://maps.gstatic.com/mapfiles/place_api/icons/v2/hospital-H_pinlet", "name": "PRADHAN MANTRI BHARTIYA JANAUSHADHI KENDRA", "opening_hours": {"open_now": true}, "photos": [{"height": 4896, "html_attributions": ["<a href=\"https://maps.google.com/maps/contrib/111803695126454455708\">PRADHAN MANTRI BHARTIYA JANAUSHADHI KENDRA</a>"], "photo_reference": "Aap_uEASKcWXqrsENQsICFLtrBlAfyQUXEQN9565uJynv9tt9Z3aiA-ORky3REczwOQ0FM7x5kKsAhRnuUgpdcwfbhWEqEskEtXQVwzjCgpLcOKQSt-etxS9zJvJ_psYOKpQ425iEQnTEjPdAMOg3kKrlGUEEPiGszIhmpOtcP9_5TNs5_C8", "width": 6528}], "place_id": "ChIJswrtXYKh4jkRy6AAuV7L4h8", "plus_code": {"compound_code": "2X89+W7 Dhubri, Assam, India", "global_code": "7MRF2X89+W7"}, "rating": 5, "reference": "ChIJswrtXYKh4jkRy6AAuV7L4h8", "scope": "GOOGLE", "types": ["pharmacy", "hospital", "health", "point_of_interest", "store", "establishment"], "user_ratings_total": 1, "vicinity": "Dhubri Match Factory, Nuniapatty Near Jain Mandir A.M.C.o Road, Road, Dhubri"}, {"business_status": "OPERATIONAL", "geometry": {"location": {"lat": 26.0165835, "lng": 89.97298649999999}, "viewport": {"northeast": {"lat": 26.0179256802915, "lng": 89.9743366802915}, "southwest": {"lat": 26.01522771970849, "lng": 89.97163871970848}}}, "icon": "https://maps.gstatic.com/mapfiles/place_api/icons/v1/png_71/hospital-71.png", "icon_background_color": "#F88181", "icon_mask_base_uri": "https://maps.gstatic.com/mapfiles/place_api/icons/v2/hospital-H_pinlet", "name": "Hayat Medical Hall", "opening_hours": {"open_now": true}, "place_id": "ChIJfbESfMOh4jkRXIkBIfyaH6A", "plus_code": {"compound_code": "2X8F+J5 Dhubri, Assam, India", "global_code": "7MRF2X8F+J5"}, "rating": 5, "reference": "ChIJfbESfMOh4jkRXIkBIfyaH6A", "scope": "GOOGLE", "types": ["hospital", "health", "point_of_interest", "establishment"], "user_ratings_total": 1, "vicinity": "Assam Match Company Road, Hazari Gaon, Bhati Gaon, Dhubri"}, {"business_status": "OPERATIONAL", "geometry": {"location": {"lat": 26.0133285, "lng": 89.96962429999999}, "viewport": {"northeast": {"lat": 26.0147406302915, "lng": 89.9713450302915}, "southwest": {"lat": 26.0120426697085, "lng": 89.9686470697085}}}, "icon": "https://maps.gstatic.com/mapfiles/place_api/icons/v1/png_71/hospital-71.png", "icon_background_color": "#F88181", "icon_mask_base_uri": "https://maps.gstatic.com/mapfiles/place_api/icons/v2/hospital-H_pinlet", "name": "Airanjongla Sub Centre", "place_id": "ChIJqQT0H0mg4jkRHqhrFPgnEMw", "plus_code": {"compound_code": "2X79+8R Dhubri, Assam, India", "global_code": "7MRF2X79+8R"}, "reference": "ChIJqQT0H0mg4jkRHqhrFPgnEMw", "scope": "GOOGLE", "types": ["hospital", "health", "point_of_interest", "establishment"], "vicinity": "Vill Bogulamari,PO AMCo Road,pin Aironjangla, Dhubri"}, {"business_status": "OPERATIONAL", "geometry": {"location": {"lat": 26.0168845, "lng": 89.9753961}, "viewport": {"northeast": {"lat": 26.0181732302915, "lng": 89.9767521302915}, "southwest": {"lat": 26.0154752697085, "lng": 89.9740541697085}}}, "icon": "https://maps.gstatic.com/mapfiles/place_api/icons/v1/png_71/hospital-71.png", "icon_background_color": "#F88181", "icon_mask_base_uri": "https://maps.gstatic.com/mapfiles/place_api/icons/v2/hospital-H_pinlet", "name": "T.B Hospital,Dhubri", "photos": [{"height": 4000, "html_attributions": ["<a href=\"https://maps.google.com/maps/contrib/114018835334868469461\">Firoz Ali</a>"], "photo_reference": "Aap_uEBGTTRur2OUUOY2UwuAA-zKQT0vcBe2EuEw-6NCAdS7g3Jvn-fx32W83HcjFNMu24QRayO_7nQLif0rTt0mxIiD9FRFw_RmZs6o2OhJ9FKm82grLgWLWSuzlnV3HTmQi9SRRezSILrVZsknbQPyvxzUCfQGsqhAI-Z9lLau5JMAuNnm", "width": 3000}], "place_id": "ChIJo3FbaEeg4jkRgSBrT-1Mc18", "rating": 4, "reference": "ChIJo3FbaEeg4jkRgSBrT-1Mc18", "scope": "GOOGLE", "types": ["hospital", "health", "point_of_interest", "establishment"], "user_ratings_total": 2, "vicinity": "2X8G+Q52, Santi Nagar, Dhubri"}, {"business_status": "OPERATIONAL", "geometry": {"location": {"lat": 26.0169833, "lng": 89.9769826}, "viewport": {"northeast": {"lat": 26.0183434802915, "lng": 89.9783280802915}, "southwest": {"lat": 26.0156455197085, "lng": 89.9756301197085}}}, "icon": "https://maps.gstatic.com/mapfiles/place_api/icons/v1/png_71/hospital-71.png", "icon_background_color": "#F88181", "icon_mask_base_uri": "https://maps.gstatic.com/mapfiles/place_api/icons/v2/hospital-H_pinlet", "name": "Tuberculosis Hospital", "opening_hours": {"open_now": true}, "place_id": "ChIJr8_-sUCg4jkRL6jlY6pISkY", "plus_code": {"compound_code": "2X8G+QQ Dhubri, Assam, India", "global_code": "7MRF2X8G+QQ"}, "rating": 1, "reference": "ChIJr8_-sUCg4jkRL6jlY6pISkY", "scope": "GOOGLE", "types": ["hospital", "health", "point_of_interest", "establishment"], "user_ratings_total": 1, "vicinity": "Assam Match Company Road, Santi Nagar, Dhubri"}], "status": "OK"}