{"html_attributions": [], "results": [{"business_status": "OPERATIONAL", "geometry": {"location": {"lat": 26.02145389999999, "lng": 89.98456689999999}, "viewport": {"northeast": {"lat": 26.0228157802915, "lng": 89.98592078029151}, "southwest": {"lat": 26.0201178197085, "lng": 89.9832228197085}}}, "icon": "https://maps.gstatic.com/mapfiles/place_api/icons/v1/png_71/hospital-71.png", "icon_background_color": "#F88181", "icon_mask_base_uri": "https://maps.gstatic.com/mapfiles/place_api/icons/v2/hospital-H_pinlet", "name": "Police Reserve Hospital", "opening_hours": {"open_now": false}, "place_id": "ChIJVbEjVhSg4jkRAar9rPBtbjw", "plus_code": {"compound_code": "2XCM+HR Dhubri, Assam, India", "global_code": "7MRF2XCM+HR"}, "rating": 5, "reference": "ChIJVbEjVhSg4jkRAar9rPBtbjw", "scope": "GOOGLE", "types": ["hospital", "health", "point_of_interest", "establishment"], "user_ratings_total": 4, "vicinity": "CR Das Road, Boro Bazar, Dhubri"}, {"business_status": "OPERATIONAL", "geometry": {"location": {"lat": 26.0203636, "lng": 89.9838819}, "viewport": {"northeast": {"lat": 26.0217533302915, "lng": 89.9852450802915}, "southwest": {"lat": 26.0190553697085, "lng": 89.98254711970849}}}, "icon": "https://maps.gstatic.com/mapfiles/place_api/icons/v1/png_71/hospital-71.png", "icon_background_color": "#F88181", "icon_mask_base_uri": "https://maps.gstatic.com/mapfiles/place_api/icons/v2/hospital-H_pinlet", "name": "Zemans homeopathy", "place_id": "ChIJ3UYpc7yh4jkRqJqvmWYATJ0", "reference": "ChIJ3UYpc7yh4jkRqJqvmWYATJ0", "scope": "GOOGLE", "types": ["hospital", "health", "point_of_interest", "establishment"], "vicinity": "2XCM+4HR, Boro Bazar, Dhubri"}, {"business_status": "OPERATIONAL", "geometry": {"location": {"lat": 26.0203111, "lng": 89.98406969999999}, "viewport": {"northeast": {"lat": 26.0217006302915, "lng": 89.98543283029151}, "southwest": {"lat": 26.0190026697085, "lng": 89.98273486970851}}}, "icon": "https://maps.gstatic.com/mapfiles/place_api/icons/v1/png_71/hospital-71.png", "icon_background_color": "#F88181", "icon_mask_base_uri": "https://maps.gstatic.com/mapfiles/place_api/icons/v2/hospital-H_pinlet", "name": "Apex Pathology", "photos": [{"height": 2560, "html_attributions": ["<a href=\"https://maps.google.com/maps/contrib/109277001854790256147\">Muktar Hossain</a>"], "photo_reference": "Aap_uED1GGAkVL8FREqukpLQGwscgtgCFZUbl0uXnM65EKxLv-v9JgbB0jA0fTyFJKyCMxf-mcLk-eO-u0TpzKcWMSxF4Ktdlhp_TREMMOFzenS0GHiOA1hDK7U-K2DMTpgQeeXStDWXLUVA7up8E_Q0_848WllYLbaK9CSosPa45Z6Y7CrN", "width": 1440}], "place_id": "ChIJ1eje-xSg4jkR0Ne5cYgrVT4", "plus_code": {"compound_code": "2XCM+4J Dhubri, Assam, India", "global_code": "7MRF2XCM+4J"}, "rating": 5, "reference": "ChIJ1eje-xSg4jkR0Ne5cYgrVT4", "scope": "GOOGLE", "types": ["hospital", "health", "point_of_interest", "establishment"], "user_ratings_total": 3, "vicinity": "CR Das Road, Boro Bazar, Dhubri"}, {"business_status": "OPERATIONAL", "geometry": {"location": {"lat": 26.0202807, "lng": 89.98478560000001}, "viewport": {"northeast": {"lat": 26.0216174302915, "lng": 89.98613338029152}, "southwest": {"lat": 26.0189194697085, "lng": 89.98343541970851}}}, "icon": "https://maps.gstatic.com/mapfiles/place_api/icons/v1/png_71/hospital-71.png", "icon_background_color": "#F88181", "icon_mask_base_uri": "https://maps.gstatic.com/mapfiles/place_api/icons/v2/hospital-H_pinlet", "name": "Nehar Medical Hall", "opening_hours": {"open_now": true}, "place_id": "ChIJpyMhUFuh4jkRN4kurnfktJ0", "plus_code": {"compound_code": "2XCM+4W Dhubri, Assam, India", "global_code": "7MRF2XCM+4W"}, "rating": 5, "reference": "ChIJpyMhUFuh4jkRN4kurnfktJ0", "scope": "GOOGLE", "types": ["hospital", "health", "point_of_interest", "establishment"], "user_ratings_total": 1, "vicinity": "CR Das Road, Boro Bazar, Dhubri"}, {"business_status": "OPERATIONAL", "geometry": {"location": {"lat": 26.0209203, "lng": 89.9864491}, "viewport": {"northeast": {"lat": 26.0222718802915, "lng": 89.9876713302915}, "southwest": {"lat": 26.0195739197085, "lng": 89.9849733697085}}}, "icon": "https://maps.gstatic.com/mapfiles/place_api/icons/v1/png_71/hospital-71.png", "icon_background_color": "#F88181", "icon_mask_base_uri": "https://maps.gstatic.com/mapfiles/place_api/icons/v2/hospital-H_pinlet", "name": "Dhubri City Hospital", "opening_hours": {"open_now": false}, "place_id": "ChIJS6EHgxOg4jkR40M4TtM34XM", "plus_code": {"compound_code": "2XCP+9H Dhubri, Assam, India", "global_code": "7MRF2XCP+9H"}, "rating": 3, "reference": "ChIJS6EHgxOg4jkR40M4TtM34XM", "scope": "GOOGLE", "types": ["hospital", "health", "point_of_interest", "establishment"], "user_ratings_total": 2, "vicinity": "Boro Bazar, Dhubri"}, {"business_status": "OPERATIONAL", "geometry": {"location": {"lat": 26.0207124, "lng": 89.98651749999999}, "viewport": {"northeast": {"lat": 26.0220647302915, "lng": 89.9877029302915}, "southwest": {"lat": 26.0193667697085, "lng": 89.9850049697085}}}, "icon": "https://maps.gstatic.com/mapfiles/place_api/icons/v1/png_71/hospital-71.png", "icon_background_color": "#F88181", "icon_mask_base_uri": "https://maps.gstatic.com/mapfiles/place_api/icons/v2/hospital-H_pinlet", "name": "National Health Mission,Dhuhri", "place_id": "ChIJvXmfghOg4jkR0lyZJLrgnOE", "plus_code": {"compound_code": "2XCP+7J Dhubri, Assam, India", "global_code": "7MRF2XCP+7J"}, "rating": 3, "reference": "ChIJvXmfghOg4jkR0lyZJLrgnOE", "scope": "GOOGLE", "types": ["hospital", "health", "point_of_interest", "establishment"], "user_ratings_total": 1, "vicinity": "Boro Bazar, Dhubri"}, {"business_status": "OPERATIONAL", "geometry": {"location": {"lat": 26.0198051, "lng": 89.9861253}, "viewport": {"northeast": {"lat": 26.0211601302915, "lng": 89.98744913029151}, "southwest": {"lat": 26.0184621697085, "lng": 89.9847511697085}}}, "icon": "https://maps.gstatic.com/mapfiles/place_api/icons/v1/png_71/hospital-71.png", "icon_background_color": "#F88181", "icon_mask_base_uri": "https://maps.gstatic.com/mapfiles/place_api/icons/v2/hospital-H_pinlet", "name": "Janata Medical Hall,Dhubri", "place_id": "ChIJU2xQ1Kah4jkRO4eRswJbUUs", "reference": "ChIJU2xQ1Kah4jkRO4eRswJbUUs", "scope": "GOOGLE", "types": ["hospital", "health", "point_of_interest", "establishment"], "vicinity": "2X9P+WFC, Boro Bazar, Dhubri"}, {"business_status": "OPERATIONAL", "geometry": {"location": {"lat": 26.0209178, "lng": 89.9809415}, "viewport": {"northeast": {"lat": 26.0221596302915, "lng": 89.9825125802915}, "southwest": {"lat": 26.0194616697085, "lng": 89.97981461970849}}}, "icon": "https://maps.gstatic.com/mapfiles/place_api/icons/v1/png_71/hospital-71.png", "icon_background_color": "#F88181", "icon_mask_base_uri": "https://maps.gstatic.com/mapfiles/place_api/icons/v2/hospital-H_pinlet", "name": "Garukata Rating An", "place_id": "ChIJV4FnTXKh4jkRAd8nPWHJPzM", "reference": "ChIJV4FnTXKh4jkRAd8nPWHJPzM", "scope": "GOOGLE", "types": ["hospital", "health", "point_of_interest", "establishment"], "vicinity": "2XCJ+998, Dhubri"}, {"business_status": "OPERATIONAL", "geometry": {"location": {"lat": 26.0197548, "lng": 89.98610490000002}, "viewport": {"northeast": {"lat": 26.0211082802915, "lng": 89.9874343302915}, "southwest": {"lat": 26.01841031970849, "lng": 89.98473636970849}}}, "icon": "https://maps.gstatic.com/mapfiles/place_api/icons/v1/png_71/hospital-71.png", "icon_background_color": "#F88181", "icon_mask_base_uri": "https://maps.gstatic.com/mapfiles/place_api/icons/v2/hospital-H_pinlet", "name": "Dr Checking Hospital", "place_id": "ChIJcQ4OZkah4jkRh42DKX_COtU", "plus_code": {"compound_code": "2X9P+WC Dhubri, Assam, India", "global_code": "7MRF2X9P+WC"}, "reference": "ChIJcQ4OZkah4jkRh42DKX_COtU", "scope": "GOOGLE", "types": ["hospital", "health", "point_of_interest", "establishment"], "vicinity": "AK Azad Road, Boro Bazar, Dhubri"}, {"business_status": "OPERATIONAL", "geometry": {"location": {"lat": 26.0184521, "lng": 89.9851238}, "viewport": {"northeast": {"lat": 26.0198103302915, "lng": 89.9864243302915}, "southwest": {"lat": 26.0171123697085, "lng": 89.98372636970849}}}, "icon": "https://maps.gstatic.com/mapfiles/place_api/icons/v1/png_71/hospital-71.png", "icon_background_color": "#F88181", "icon_mask_base_uri": "https://maps.gstatic.com/mapfiles/place_api/icons/v2/hospital-H_pinlet", "name": "Assam Pharma", "place_id": "ChIJfXR8uqqh4jkRzFZBNGJmkfU", "plus_code": {"compound_code": "2X9P+92 Dhubri, Assam, India", "global_code": "7MRF2X9P+92"}, "reference": "ChIJfXR8uqqh4jkRzFZBNGJmkfU", "scope": "GOOGLE", "types": ["hospital", "health", "point_of_interest", "establishment"], "vicinity": "RK Bose Road, Boro Bazar, Dhubri"}, {"business_status": "OPERATIONAL", "geometry": {"location": {"lat": 26.0200327, "lng": 89.9877681}, "viewport": {"northeast": {"lat": 26.0213821802915, "lng": 89.98911623029151}, "southwest": {"lat": 26.0186842197085, "lng": 89.98641826970851}}}, "icon": "https://maps.gstatic.com/mapfiles/place_api/icons/v1/png_71/hospital-71.png", "icon_background_color": "#F88181", "icon_mask_base_uri": "https://maps.gstatic.com/mapfiles/place_api/icons/v2/hospital-H_pinlet", "name": "Medicine Hub (Dr Anees Infertility)", "place_id": "ChIJSbVq7fyh4jkRrZS3q85jlDo", "plus_code": {"compound_code": "2XCQ+24 Dhubri, Assam, India", "global_code": "7MRF2XCQ+24"}, "reference": "ChIJSbVq7fyh4jkRrZS3q85jlDo", "scope": "GOOGLE", "types": ["hospital", "health", "point_of_interest", "establishment"], "vicinity": "Hari Narayan Road, Boro Bazar, Dhubri"}, {"business_status": "OPERATIONAL", "geometry": {"location": {"lat": 26.0173096, "lng": 89.9852844}, "viewport": {"northeast": {"lat": 26.0186627302915, "lng": 89.9866125802915}, "southwest": {"lat": 26.01596476970849, "lng": 89.98391461970849}}}, "icon": "https://maps.gstatic.com/mapfiles/place_api/icons/v1/png_71/hospital-71.png", "icon_background_color": "#F88181", "icon_mask_base_uri": "https://maps.gstatic.com/mapfiles/place_api/icons/v2/hospital-H_pinlet", "name": "Bihar pharmacy", "opening_hours": {"open_now": true}, "photos": [{"height": 4032, "html_attributions": ["<a href=\"https://maps.google.com/maps/contrib/100070359849415690674\">Ashok Singh</a>"], "photo_reference": "Aap_uEBbfsPvMYFdPQGXrUnK63Q02BZBIZHtjCjRg3YqJhYymxShwbfjxfKuCc_WBqVAwpX_FnE8OT8AtKLyl-z6Vf5C6yUzcSIm2ajrm96NcnlbgXuqGxH14Kp-PYgSHr2p90OZFzVrFzxv2YeKg19N5NWSZkIO4_0MjSanosdjE4eowO_W", "width": 3024}], "place_id": "ChIJ1-U27gGh4jkRmoustxWFmHE", "plus_code": {"compound_code": "2X8P+W4 Dhubri, Assam, India", "global_code": "7MRF2X8P+W4"}, "reference": "ChIJ1-U27gGh4jkRmoustxWFmHE", "scope": "GOOGLE", "types": ["hospital", "health", "point_of_interest", "establishment"], "vicinity": "CH Paul Road, Boro Bazar, Dhubri"}, {"business_status": "OPERATIONAL", "geometry": {"location": {"lat": 26.0202407, "lng": 89.9891261}, "viewport": {"northeast": {"lat": 26.0216002302915, "lng": 89.99051073029149}, "southwest": {"lat": 26.01890226970849, "lng": 89.98781276970848}}}, "icon": "https://maps.gstatic.com/mapfiles/place_api/icons/v1/png_71/hospital-71.png", "icon_background_color": "#F88181", "icon_mask_base_uri": "https://maps.gstatic.com/mapfiles/place_api/icons/v2/hospital-H_pinlet", "name": "Jyoti optical", "place_id": "ChIJTWMNlAih4jkRCNsMJmTAabs", "plus_code": {"compound_code": "2XCQ+3M Dhubri, Assam, India", "global_code": "7MRF2XCQ+3M"}, "reference": "ChIJTWMNlAih4jkRCNsMJmTAabs", "scope": "GOOGLE", "types": ["hospital", "health", "point_of_interest", "establishment"], "vicinity": "Tarun Ram Phukan Road, Boro Bazar, Dhubri"}, {"business_status": "OPERATIONAL", "geometry": {"location": {"lat": 26.0148883, "lng": 89.9823467}, "viewport": {"northeast": {"lat": 26.0162419302915, "lng": 89.98372163029153}, "southwest": {"lat": 26.0135439697085, "lng": 89.9810236697085}}}, "icon": "https://maps.gstatic.com/mapfiles/place_api/icons/v1/png_71/hospital-71.png", "icon_background_color": "#F88181", "icon_mask_base_uri": "https://maps.gstatic.com/mapfiles/place_api/icons/v2/hospital-H_pinlet", "name": "Urban Primary Health & Wellness Centre", "photos": [{"height": 4000, "html_attributions": ["<a href=\"https://maps.google.com/maps/contrib/105928410114213817937\">Sultana Sharmin</a>"], "photo_reference": "Aap_uEDkLQc2MBtrfwsP7UKpLDiftH69Mzm0hriSqSS5qA2Gx-xTgnB54UZE8hh2RGs-r_ICndkTo5AXjHx1_1pEXry12K95yFWPXIbcosmDHHabLszSJBgRSUEp2kkG0clX7R3obduH5xaZlK077MLc7ZAWF158vapaOCKoGsdWZKA-VXly", "width": 2250}], "place_id": "ChIJm_BmowSh4jkRhlyKRZ3U8Ys", "plus_code": {"compound_code": "2X7J+XW Dhubri, Assam, India", "global_code": "7MRF2X7J+XW"}, "rating": 2, "reference": "ChIJm_BmowSh4jkRhlyKRZ3U8Ys", "scope": "GOOGLE", "types": ["hospital", "health", "point_of_interest", "establishment"], "user_ratings_total": 3, "vicinity": "Ward No. 11, Baluchar, Behind Iddgah"}, {"business_status": "OPERATIONAL", "geometry": {"location": {"lat": 26.0169833, "lng": 89.9769826}, "viewport": {"northeast": {"lat": 26.0183434802915, "lng": 89.9783280802915}, "southwest": {"lat": 26.0156455197085, "lng": 89.9756301197085}}}, "icon": "https://maps.gstatic.com/mapfiles/place_api/icons/v1/png_71/hospital-71.png", "icon_background_color": "#F88181", "icon_mask_base_uri": "https://maps.gstatic.com/mapfiles/place_api/icons/v2/hospital-H_pinlet", "name": "Tuberculosis Hospital", "opening_hours": {"open_now": true}, "place_id": "ChIJr8_-sUCg4jkRL6jlY6pISkY", "plus_code": {"compound_code": "2X8G+QQ Dhubri, Assam, India", "global_code": "7MRF2X8G+QQ"}, "rating": 1, "reference": "ChIJr8_-sUCg4jkRL6jlY6pISkY", "scope": "GOOGLE", "types": ["hospital", "health", "point_of_interest", "establishment"], "user_ratings_total": 1, "vicinity": "Assam Match Company Road, Santi Nagar, Dhubri"}, {"business_status": "OPERATIONAL", "geometry": {"location": {"lat": 26.0168845, "lng": 89.9753961}, "viewport": {"northeast": {"lat": 26.0181732302915, "lng": 89.9767521302915}, "southwest": {"lat": 26.0154752697085, "lng": 89.9740541697085}}}, "icon": "https://maps.gstatic.com/mapfiles/place_api/icons/v1/png_71/hospital-71.png", "icon_background_color": "#F88181", "icon_mask_base_uri": "https://maps.gstatic.com/mapfiles/place_api/icons/v2/hospital-H_pinlet", "name": "T.B Hospital,Dhubri", "photos": [{"height": 4000, "html_attributions": ["<a href=\"https://maps.google.com/maps/contrib/114018835334868469461\">Firoz Ali</a>"], "photo_reference": "Aap_uEAGXfCE4Ap07koOnqsg5fNFJ1BBbJoPqgocNQRhAXFa-v6SoTzrPrNGIZHDkTZFWlXDWA8hlbSZAXgfSlYDQ1NutPmyMjySt0HBJkx2js5zMAvnpP_wrAlMmMDY54BtXwIuXitlTukauCncLblXPhE4_VAx8ptU7jYKV5LRw02it4uj", "width": 3000}], "place_id": "ChIJo3FbaEeg4jkRgSBrT-1Mc18", "rating": 4, "reference": "ChIJo3FbaEeg4jkRgSBrT-1Mc18", "scope": "GOOGLE", "types": ["hospital", "health", "point_of_interest", "establishment"], "user_ratings_total": 2, "vicinity": "2X8G+Q52, Santi Nagar, Dhubri"}, {"business_status": "OPERATIONAL", "geometry": {"location": {"lat": 26.0165835, "lng": 89.97298649999999}, "viewport": {"northeast": {"lat": 26.0179256802915, "lng": 89.9743366802915}, "southwest": {"lat": 26.01522771970849, "lng": 89.97163871970848}}}, "icon": "https://maps.gstatic.com/mapfiles/place_api/icons/v1/png_71/hospital-71.png", "icon_background_color": "#F88181", "icon_mask_base_uri": "https://maps.gstatic.com/mapfiles/place_api/icons/v2/hospital-H_pinlet", "name": "Hayat Medical Hall", "opening_hours": {"open_now": true}, "place_id": "ChIJfbESfMOh4jkRXIkBIfyaH6A", "plus_code": {"compound_code": "2X8F+J5 Dhubri, Assam, India", "global_code": "7MRF2X8F+J5"}, "rating": 5, "reference": "ChIJfbESfMOh4jkRXIkBIfyaH6A", "scope": "GOOGLE", "types": ["hospital", "health", "point_of_interest", "establishment"], "user_ratings_total": 1, "vicinity": "Assam Match Company Road, Hazari Gaon, Bhati Gaon, Dhubri"}], "status": "OK"}