{"html_attributions": [], "results": [{"business_status": "OPERATIONAL", "geometry": {"location": {"lat": 25.7082441, "lng": 90.18681749999999}, "viewport": {"northeast": {"lat": 25.70939428029151, "lng": 90.18756128029149}, "southwest": {"lat": 25.7066963197085, "lng": 90.18486331970848}}}, "icon": "https://maps.gstatic.com/mapfiles/place_api/icons/v1/png_71/hospital-71.png", "icon_background_color": "#F88181", "icon_mask_base_uri": "https://maps.gstatic.com/mapfiles/place_api/icons/v2/hospital-H_pinlet", "name": "Dadenggre CHC", "photos": [{"height": 3096, "html_attributions": ["<a href=\"https://maps.google.com/maps/contrib/117000247311850453025\">Daiante Marak</a>"], "photo_reference": "Aap_uECiS2AeT7d11izjLkz58fMhE4vEIL1tv4yCXoIy5Wo27vokFqw6-xhYl4Trq2aCWwyuz4xA7zuqt9rWBzLYjBWkulHyaEtXwDZN74p9cKrT4WfzsAQwY3bVTtBHNBd87huYbpFliLheeFA4DpuHFnXG2NFqn9uJba5QsjYq430E3cTZ", "width": 4128}], "place_id": "ChIJ8dQsdAAdWDcR_2e4cLSLOBU", "rating": 2.7, "reference": "ChIJ8dQsdAAdWDcR_2e4cLSLOBU", "scope": "GOOGLE", "types": ["hospital", "health", "point_of_interest", "establishment"], "user_ratings_total": 3, "vicinity": "P55P+7PW"}, {"business_status": "OPERATIONAL", "geometry": {"location": {"lat": 25.708453, "lng": 90.186656}, "viewport": {"northeast": {"lat": 25.7099081802915, "lng": 90.1874717802915}, "southwest": {"lat": 25.7072102197085, "lng": 90.18477381970848}}}, "icon": "https://maps.gstatic.com/mapfiles/place_api/icons/v1/png_71/hospital-71.png", "icon_background_color": "#F88181", "icon_mask_base_uri": "https://maps.gstatic.com/mapfiles/place_api/icons/v2/hospital-H_pinlet", "name": "Dadeng Hospital Cheast Lack", "place_id": "ChIJV-5hPM8dWDcRQCftuPablNE", "reference": "ChIJV-5hPM8dWDcRQCftuPablNE", "scope": "GOOGLE", "types": ["hospital", "health", "point_of_interest", "establishment"], "vicinity": "P55P+9MJ, Dadenggre"}, {"business_status": "OPERATIONAL", "geometry": {"location": {"lat": 25.708439, "lng": 90.1869258}, "viewport": {"northeast": {"lat": 25.7099200802915, "lng": 90.1876113302915}, "southwest": {"lat": 25.7072221197085, "lng": 90.1849133697085}}}, "icon": "https://maps.gstatic.com/mapfiles/place_api/icons/v1/png_71/hospital-71.png", "icon_background_color": "#F88181", "icon_mask_base_uri": "https://maps.gstatic.com/mapfiles/place_api/icons/v2/hospital-H_pinlet", "name": "Community Health Centere", "photos": [{"height": 2448, "html_attributions": ["<a href=\"https://maps.google.com/maps/contrib/109776887733224480484\">H Sangma</a>"], "photo_reference": "Aap_uEB7FJmQmSsphaYdG2MaMzVTpQZc2mbu0Ti5f2_WPpv1vFX8Sadj2B3B0JWTevZx3VOVrL1OR2NFLOXAcp4tstKSRU2xhGQW2JzU-suz6X6x0sFDuj76s8msj4kH_w9RPVSIhWlsA71tl8v8DLfLl5dyZantlfoSmz4qrjUZekljMmWx", "width": 3264}], "place_id": "ChIJFQVwdQAdWDcRwTHG5T64ev8", "rating": 3, "reference": "ChIJFQVwdQAdWDcRwTHG5T64ev8", "scope": "GOOGLE", "types": ["hospital", "health", "point_of_interest", "establishment"], "user_ratings_total": 1, "vicinity": "P55P+9QF, Dadenggre"}], "status": "OK"}