{"html_attributions": [], "results": [{"business_status": "OPERATIONAL", "geometry": {"location": {"lat": 26.2257902, "lng": 90.2294476}, "viewport": {"northeast": {"lat": 26.2270443302915, "lng": 90.2307832302915}, "southwest": {"lat": 26.2243463697085, "lng": 90.22808526970849}}}, "icon": "https://maps.gstatic.com/mapfiles/place_api/icons/v1/png_71/hospital-71.png", "icon_background_color": "#F88181", "icon_mask_base_uri": "https://maps.gstatic.com/mapfiles/place_api/icons/v2/hospital-H_pinlet", "name": "Bilasipara Eye OPD", "place_id": "ChIJg3Pon9RpWDcRZF2EiyGasgE", "reference": "ChIJg3Pon9RpWDcRZF2EiyGasgE", "scope": "GOOGLE", "types": ["hospital", "health", "point_of_interest", "establishment"], "vicinity": "66GH+8Q8, Bilasipara"}, {"business_status": "OPERATIONAL", "geometry": {"location": {"lat": 26.2257017, "lng": 90.2297741}, "viewport": {"northeast": {"lat": 26.2269811802915, "lng": 90.2311133302915}, "southwest": {"lat": 26.2242832197085, "lng": 90.2284153697085}}}, "icon": "https://maps.gstatic.com/mapfiles/place_api/icons/v1/png_71/hospital-71.png", "icon_background_color": "#F88181", "icon_mask_base_uri": "https://maps.gstatic.com/mapfiles/place_api/icons/v2/hospital-H_pinlet", "name": "Bilasipara Subsidiary Health Center, Hospital", "opening_hours": {"open_now": true}, "photos": [{"height": 2742, "html_attributions": ["<a href=\"https://maps.google.com/maps/contrib/110027483188921925344\">Monish Paul</a>"], "photo_reference": "Aap_uEBzrb3nG3i1wN4tUtcBQXJ32QvWPJH4Z_3LBqoqlLNvli4I_iYWeupHtypoSEXhe07Dz1xgSV-j6lA9HrKhZnXo8sxtypZTUKQJUSXGfc8YVNcDQe6Cpqq14sFx4OzddsEEy9LpGmldV6FqNIz3q86A587JGLGJLyntZlEbkSpJBnXX", "width": 3996}], "place_id": "ChIJ71zQQqloWDcRdLvkkVHXYE0", "rating": 3.1, "reference": "ChIJ71zQQqloWDcRdLvkkVHXYE0", "scope": "GOOGLE", "types": ["hospital", "health", "point_of_interest", "establishment"], "user_ratings_total": 15, "vicinity": "66GH+7WJ, Bilasipara"}, {"business_status": "OPERATIONAL", "geometry": {"location": {"lat": 26.2288884, "lng": 90.2308079}, "viewport": {"northeast": {"lat": 26.2302451802915, "lng": 90.2321038302915}, "southwest": {"lat": 26.2275472197085, "lng": 90.22940586970849}}}, "icon": "https://maps.gstatic.com/mapfiles/place_api/icons/v1/png_71/hospital-71.png", "icon_background_color": "#F88181", "icon_mask_base_uri": "https://maps.gstatic.com/mapfiles/place_api/icons/v2/hospital-H_pinlet", "name": "Deporkuti Hospital", "opening_hours": {"open_now": false}, "place_id": "ChIJncCwx6loWDcR814uwnkoOSA", "rating": 5, "reference": "ChIJncCwx6loWDcR814uwnkoOSA", "scope": "GOOGLE", "types": ["hospital", "health", "point_of_interest", "establishment"], "user_ratings_total": 1, "vicinity": "66HJ+H83, Diporkuti"}, {"business_status": "OPERATIONAL", "geometry": {"location": {"lat": 26.2297598, "lng": 90.2304034}, "viewport": {"northeast": {"lat": 26.2311518802915, "lng": 90.2317438302915}, "southwest": {"lat": 26.2284539197085, "lng": 90.22904586970849}}}, "icon": "https://maps.gstatic.com/mapfiles/place_api/icons/v1/png_71/hospital-71.png", "icon_background_color": "#F88181", "icon_mask_base_uri": "https://maps.gstatic.com/mapfiles/place_api/icons/v2/hospital-H_pinlet", "name": "Diparkuti Sub-Divitional Hospital,Diparkuti,Bilasipara", "photos": [{"height": 4160, "html_attributions": ["<a href=\"https://maps.google.com/maps/contrib/118105807274187173906\">Nabajit Das</a>"], "photo_reference": "Aap_uEBkoNTejNfz6Z-YJ9KKd2bkSq1YAvUeFEQHMyc6rG97Hg8dZNHQ8GF20OwKsvKyKHF5kxWn5Nk_D6DObhaPF6d1RyPPvbAV98WTaiOoxUQrYIgaq8goB5ALDrQfszOTTFzUvbPFyPAwof_vZUlty-c-sfLJTDcv31k7iZt93pNqeTDA", "width": 1920}], "place_id": "ChIJj5qAurtpWDcRCQxR8GViW0k", "plus_code": {"compound_code": "66HJ+W5 Bilasipara, Assam, India", "global_code": "7MRG66HJ+W5"}, "reference": "ChIJj5qAurtpWDcRCQxR8GViW0k", "scope": "GOOGLE", "types": ["hospital", "health", "point_of_interest", "establishment"], "vicinity": "Diparkuti, Sub- Division, Hospital, Ps, Dt, Bilasipara"}, {"business_status": "OPERATIONAL", "geometry": {"location": {"lat": 26.2297599, "lng": 90.2304034}, "viewport": {"northeast": {"lat": 26.2311519302915, "lng": 90.2317438302915}, "southwest": {"lat": 26.2284539697085, "lng": 90.22904586970849}}}, "icon": "https://maps.gstatic.com/mapfiles/place_api/icons/v1/png_71/hospital-71.png", "icon_background_color": "#F88181", "icon_mask_base_uri": "https://maps.gstatic.com/mapfiles/place_api/icons/v2/hospital-H_pinlet", "name": "seven star polyclinic", "place_id": "ChIJP7Ipyv9pWDcRVn2XZNCuqzY", "plus_code": {"compound_code": "66HJ+W5 Bilasipara, Assam, India", "global_code": "7MRG66HJ+W5"}, "reference": "ChIJP7Ipyv9pWDcRVn2XZNCuqzY", "scope": "GOOGLE", "types": ["hospital", "health", "point_of_interest", "establishment"], "vicinity": "bilasipara W/No-7, PO-BILASIPARA, DIST-DHUBRI"}, {"business_status": "OPERATIONAL", "geometry": {"location": {"lat": 26.2297599, "lng": 90.2304034}, "viewport": {"northeast": {"lat": 26.2311519302915, "lng": 90.2317438302915}, "southwest": {"lat": 26.2284539697085, "lng": 90.22904586970849}}}, "icon": "https://maps.gstatic.com/mapfiles/place_api/icons/v1/png_71/hospital-71.png", "icon_background_color": "#F88181", "icon_mask_base_uri": "https://maps.gstatic.com/mapfiles/place_api/icons/v2/hospital-H_pinlet", "name": "seven star polyclinic", "photos": [{"height": 640, "html_attributions": ["<a href=\"https://maps.google.com/maps/contrib/105026370077301164547\">seven star polyclinic</a>"], "photo_reference": "Aap_uECCU65K8GARD81cLgH6D6loJS8pYxQPG4ksm2vwu6CRYnxZ-y2CrcQIez14ZOj2EmEPBaETPvrU0E16tWAVBTGcT8_EHNxiNv-u9kXqtIXa2NfySe4AFHcemBnTSKaZekFjqXFaMC6n4k3o8JcBkkkpq4-yWVug2cbsZsUiiS3DJO92", "width": 640}], "place_id": "ChIJaYolFkNpWDcRAB_EKpBUu60", "plus_code": {"compound_code": "66HJ+W5 Bilasipara, Assam, India", "global_code": "7MRG66HJ+W5"}, "reference": "ChIJaYolFkNpWDcRAB_EKpBUu60", "scope": "GOOGLE", "types": ["hospital", "health", "point_of_interest", "establishment"], "vicinity": "bilasipara W/No-7, PO-BILASIPARA, DIST-DHUBRI"}, {"business_status": "OPERATIONAL", "geometry": {"location": {"lat": 26.2297599, "lng": 90.2304034}, "viewport": {"northeast": {"lat": 26.2311519302915, "lng": 90.2317438302915}, "southwest": {"lat": 26.2284539697085, "lng": 90.22904586970849}}}, "icon": "https://maps.gstatic.com/mapfiles/place_api/icons/v1/png_71/hospital-71.png", "icon_background_color": "#F88181", "icon_mask_base_uri": "https://maps.gstatic.com/mapfiles/place_api/icons/v2/hospital-H_pinlet", "name": "A.K Boruah Medical", "place_id": "ChIJOYGi3aloWDcRSegqXIdehDA", "reference": "ChIJOYGi3aloWDcRSegqXIdehDA", "scope": "GOOGLE", "types": ["hospital", "health", "point_of_interest", "establishment"], "vicinity": "66HJ+W52, Bilasipara"}, {"business_status": "OPERATIONAL", "geometry": {"location": {"lat": 26.2301039, "lng": 90.2308862}, "viewport": {"northeast": {"lat": 26.2314384302915, "lng": 90.2321817302915}, "southwest": {"lat": 26.2287404697085, "lng": 90.22948376970848}}}, "icon": "https://maps.gstatic.com/mapfiles/place_api/icons/v1/png_71/hospital-71.png", "icon_background_color": "#F88181", "icon_mask_base_uri": "https://maps.gstatic.com/mapfiles/place_api/icons/v2/hospital-H_pinlet", "name": "Janata Pharmaceuticals", "photos": [{"height": 3000, "html_attributions": ["<a href=\"https://maps.google.com/maps/contrib/117999660296694163244\">Nilmoni Paul</a>"], "photo_reference": "Aap_uEBHFPID6B1N51GZYaWMfqAEnFXIXKCxhUP6MQVUk1c8_bnqCFm-Cf_5ZRs62XsG8emYp6hIIBuebhLdPvgavrTVR4H_G6LRDVL3PjYVGCkR0vR0feJP6wCzMYh8zSHxg8ZpXDD2ihKAtBNCvbZ7HSQ7e_UkeBUm-9_fon2yBlCFog-S", "width": 4000}], "place_id": "ChIJ0ZPtI-9pWDcRubqVB78NqG8", "rating": 3, "reference": "ChIJ0ZPtI-9pWDcRubqVB78NqG8", "scope": "GOOGLE", "types": ["hospital", "health", "point_of_interest", "establishment"], "user_ratings_total": 1, "vicinity": "66JJ+29R, Ward No.3, Nayapara, Bilasipara"}, {"business_status": "OPERATIONAL", "geometry": {"location": {"lat": 26.2300182, "lng": 90.23189219999999}, "viewport": {"northeast": {"lat": 26.2313579802915, "lng": 90.23330523029149}, "southwest": {"lat": 26.2286600197085, "lng": 90.23060726970849}}}, "icon": "https://maps.gstatic.com/mapfiles/place_api/icons/v1/png_71/hospital-71.png", "icon_background_color": "#F88181", "icon_mask_base_uri": "https://maps.gstatic.com/mapfiles/place_api/icons/v2/hospital-H_pinlet", "name": "Mili Hospital & Research Centre", "place_id": "ChIJfcYWKahoWDcRCQkmWxhnvug", "reference": "ChIJfcYWKahoWDcRCQkmWxhnvug", "scope": "GOOGLE", "types": ["hospital", "health", "point_of_interest", "establishment"], "vicinity": "66JJ+2Q2"}, {"business_status": "OPERATIONAL", "geometry": {"location": {"lat": 26.2303009, "lng": 90.2321345}, "viewport": {"northeast": {"lat": 26.2316189802915, "lng": 90.23349038029151}, "southwest": {"lat": 26.22892101970849, "lng": 90.23079241970851}}}, "icon": "https://maps.gstatic.com/mapfiles/place_api/icons/v1/png_71/hospital-71.png", "icon_background_color": "#F88181", "icon_mask_base_uri": "https://maps.gstatic.com/mapfiles/place_api/icons/v2/hospital-H_pinlet", "name": "Royal Medical", "opening_hours": {"open_now": false}, "place_id": "ChIJIXoGmwJmWDcR8is-hVW2FyI", "plus_code": {"compound_code": "66JJ+4V Bilasipara, Assam, India", "global_code": "7MRG66JJ+4V"}, "rating": 3.5, "reference": "ChIJIXoGmwJmWDcR8is-hVW2FyI", "scope": "GOOGLE", "types": ["hospital", "health", "point_of_interest", "establishment"], "user_ratings_total": 2, "vicinity": "Bilasipara Main Road, Ward No.3, Bilasipara"}, {"business_status": "OPERATIONAL", "geometry": {"location": {"lat": 26.2319754, "lng": 90.230689}, "viewport": {"northeast": {"lat": 26.2333611302915, "lng": 90.2320289802915}, "southwest": {"lat": 26.2306631697085, "lng": 90.2293310197085}}}, "icon": "https://maps.gstatic.com/mapfiles/place_api/icons/v1/png_71/hospital-71.png", "icon_background_color": "#F88181", "icon_mask_base_uri": "https://maps.gstatic.com/mapfiles/place_api/icons/v2/hospital-H_pinlet", "name": "APOLLO PHARMACY", "opening_hours": {"open_now": true}, "photos": [{"height": 510, "html_attributions": ["<a href=\"https://maps.google.com/maps/contrib/100684836567013110805\">APOLLO PHARMACY</a>"], "photo_reference": "Aap_uED0mAms1TcfRoIRRWoqmk3Z5KHD0WmAtW66R8k53Cofxv4DW99-EWfoXIEL53guC7DzyZIPiDw-jQ1e8oAc8SuV9e1OcXQpJYeZ3FW7zotvBT2NoH2M9LWmUzCe5FMUc_pw85LPF7UdxNSFXZOD9Gggskurt98rmivLmBJvzJEiGiJE", "width": 907}], "place_id": "ChIJi32rEHplWDcRYptxt7A4j3s", "plus_code": {"compound_code": "66JJ+Q7 Bilasipara, Assam, India", "global_code": "7MRG66JJ+Q7"}, "reference": "ChIJi32rEHplWDcRYptxt7A4j3s", "scope": "GOOGLE", "types": ["hospital", "health", "point_of_interest", "establishment"], "vicinity": "Bilasipara"}, {"business_status": "OPERATIONAL", "geometry": {"location": {"lat": 26.2320729, "lng": 90.2306485}, "viewport": {"northeast": {"lat": 26.2334255302915, "lng": 90.2319966302915}, "southwest": {"lat": 26.2307275697085, "lng": 90.2292986697085}}}, "icon": "https://maps.gstatic.com/mapfiles/place_api/icons/v1/png_71/hospital-71.png", "icon_background_color": "#F88181", "icon_mask_base_uri": "https://maps.gstatic.com/mapfiles/place_api/icons/v2/hospital-H_pinlet", "name": "Bilasipara Medical (K.L. Das)", "opening_hours": {"open_now": true}, "photos": [{"height": 1080, "html_attributions": ["<a href=\"https://maps.google.com/maps/contrib/114765158827555136321\">Rajesh Adhikary</a>"], "photo_reference": "Aap_uEA8X783KYzgo7wn4ydyMwHc-7cB30M9IiNhDf1baX6tfI7ajGZEanTInl2IBSgQj2ypiXlDLW9gGwe_BdKwOMBAgY_SYUqqrXStLe2iu2Ha4SFexa3q0qdhaonIybrWAV4EuVHBnwfVH8MnQek5Yw3sGNaYS2UH2zv1w0vJ8xr_nhOF", "width": 1920}], "place_id": "ChIJV7Z98s5nWDcRBmEhRkJg1_s", "plus_code": {"compound_code": "66JJ+R7 Bilasipara, Assam, India", "global_code": "7MRG66JJ+R7"}, "rating": 5, "reference": "ChIJV7Z98s5nWDcRBmEhRkJg1_s", "scope": "GOOGLE", "types": ["hospital", "health", "point_of_interest", "establishment"], "user_ratings_total": 1, "vicinity": "Ambedkar Bhavan, Bilasipara Main Road, Bilasipara"}], "status": "OK"}