{"html_attributions": [], "results": [{"business_status": "OPERATIONAL", "geometry": {"location": {"lat": 26.3334025, "lng": 90.4421534}, "viewport": {"northeast": {"lat": 26.3346080802915, "lng": 90.4434083302915}, "southwest": {"lat": 26.33191011970849, "lng": 90.4407103697085}}}, "icon": "https://maps.gstatic.com/mapfiles/place_api/icons/v1/png_71/hospital-71.png", "icon_background_color": "#F88181", "icon_mask_base_uri": "https://maps.gstatic.com/mapfiles/place_api/icons/v2/hospital-H_pinlet", "name": "Champawati Mphc", "place_id": "ChIJx_Nv50BZWDcRCXldEqkGNbI", "plus_code": {"compound_code": "8CMR+9V Haldibari, Assam, India", "global_code": "7MRG8CMR+9V"}, "rating": 4, "reference": "ChIJx_Nv50BZWDcRCXldEqkGNbI", "scope": "GOOGLE", "types": ["hospital", "health", "point_of_interest", "establishment"], "user_ratings_total": 1, "vicinity": "Bahalpur - Kokrajhar Road, Haldibari"}, {"business_status": "OPERATIONAL", "geometry": {"location": {"lat": 26.3336612, "lng": 90.4420418}, "viewport": {"northeast": {"lat": 26.3350934802915, "lng": 90.44322348029151}, "southwest": {"lat": 26.3323955197085, "lng": 90.4405255197085}}}, "icon": "https://maps.gstatic.com/mapfiles/place_api/icons/v1/png_71/hospital-71.png", "icon_background_color": "#F88181", "icon_mask_base_uri": "https://maps.gstatic.com/mapfiles/place_api/icons/v2/hospital-H_pinlet", "name": "Rangamati Hospital", "opening_hours": {"open_now": true}, "photos": [{"height": 2340, "html_attributions": ["<a href=\"https://maps.google.com/maps/contrib/102474572861386585570\">Dildar Rezzak</a>"], "photo_reference": "Aap_uECpxy6CHaebUOOQnmfJ997Nu9npm13GcqcIdP8qaRK-pAAOTsSy33TrdJfeMkLPHNDo4iep4gb66eTYFjtRxxr5jRKsbcWPu2dh2MqJr0QQ581fcbPm38RXBdFIF6zFptr_fIxFC0M6_MxK9bOagXfhhwOSrqBQzM_evXapuHIK2iqU", "width": 4160}], "place_id": "ChIJHZpTkBhZWDcRZvd6V0Y68Ek", "plus_code": {"compound_code": "8CMR+FR Rangamati, Assam, India", "global_code": "7MRG8CMR+FR"}, "rating": 5, "reference": "ChIJHZpTkBhZWDcRZvd6V0Y68Ek", "scope": "GOOGLE", "types": ["hospital", "health", "point_of_interest", "establishment"], "user_ratings_total": 1, "vicinity": "Majergaon, Rangamati"}, {"business_status": "OPERATIONAL", "geometry": {"location": {"lat": 26.3337766, "lng": 90.4417746}, "viewport": {"northeast": {"lat": 26.3351444302915, "lng": 90.4430856802915}, "southwest": {"lat": 26.3324464697085, "lng": 90.4403877197085}}}, "icon": "https://maps.gstatic.com/mapfiles/place_api/icons/v1/png_71/hospital-71.png", "icon_background_color": "#F88181", "icon_mask_base_uri": "https://maps.gstatic.com/mapfiles/place_api/icons/v2/hospital-H_pinlet", "name": "Rangamati Primary Health Centre", "place_id": "ChIJ67mVjfpZWDcRX3ntJRv1sy4", "reference": "ChIJ67mVjfpZWDcRX3ntJRv1sy4", "scope": "GOOGLE", "types": ["hospital", "health", "point_of_interest", "establishment"], "vicinity": "8CMR+GP6, Majergaon"}, {"business_status": "OPERATIONAL", "geometry": {"location": {"lat": 26.334474, "lng": 90.44165559999999}, "viewport": {"northeast": {"lat": 26.3357546302915, "lng": 90.4431853302915}, "southwest": {"lat": 26.3330566697085, "lng": 90.44048736970849}}}, "icon": "https://maps.gstatic.com/mapfiles/place_api/icons/v1/png_71/hospital-71.png", "icon_background_color": "#F88181", "icon_mask_base_uri": "https://maps.gstatic.com/mapfiles/place_api/icons/v2/hospital-H_pinlet", "name": "Champawati Mphc", "place_id": "ChIJ9SahgHRZWDcRl-ieywHUW0k", "reference": "ChIJ9SahgHRZWDcRl-ieywHUW0k", "scope": "GOOGLE", "types": ["hospital", "health", "point_of_interest", "establishment"], "vicinity": "8CMR+QMJ, Majergaon"}], "status": "OK"}