{"html_attributions": [], "results": [{"business_status": "OPERATIONAL", "geometry": {"location": {"lat": 23.7724407, "lng": 86.8078134}, "viewport": {"northeast": {"lat": 23.7737444302915, "lng": 86.8091474302915}, "southwest": {"lat": 23.7710464697085, "lng": 86.80644946970848}}}, "icon": "https://maps.gstatic.com/mapfiles/place_api/icons/v1/png_71/civic_building-71.png", "name": "Panchayat Bhawan", "place_id": "ChIJaRlrIsLd9jkRcppOptd_zUg", "plus_code": {"compound_code": "QRC5+X4 Maithon, Jharkhand, India", "global_code": "7MM8QRC5+X4"}, "reference": "ChIJaRlrIsLd9jkRcppOptd_zUg", "scope": "GOOGLE", "types": ["local_government_office", "point_of_interest", "establishment"], "vicinity": "Amkura Basti, Maithon"}, {"business_status": "OPERATIONAL", "geometry": {"location": {"lat": 23.7720751, "lng": 86.8069697}, "viewport": {"northeast": {"lat": 23.7734178302915, "lng": 86.80838228029151}, "southwest": {"lat": 23.7707198697085, "lng": 86.80568431970849}}}, "icon": "https://maps.gstatic.com/mapfiles/place_api/icons/v1/png_71/civic_building-71.png", "name": "Maithan Sports Hostel", "opening_hours": {"open_now": true}, "place_id": "ChIJ_f___8vd9jkR9YKuoK4JBH4", "plus_code": {"compound_code": "QRC4+RQ Maithon, Jharkhand, India", "global_code": "7MM8QRC4+RQ"}, "reference": "ChIJ_f___8vd9jkR9YKuoK4JBH4", "scope": "GOOGLE", "types": ["local_government_office", "point_of_interest", "establishment"], "vicinity": "Sport's Hostel Maithan Near - Gogna PO/PS- Maithan Dm Dist-Dhanbad State-Jharkhand Pin No, 828207"}, {"business_status": "OPERATIONAL", "geometry": {"location": {"lat": 23.78644839999999, "lng": 86.81841969999999}, "viewport": {"northeast": {"lat": 23.7877936302915, "lng": 86.81983603029151}, "southwest": {"lat": 23.78509566970849, "lng": 86.81713806970849}}}, "icon": "https://maps.gstatic.com/mapfiles/place_api/icons/v1/png_71/civic_building-71.png", "name": "Makhon hydral power plant", "place_id": "ChIJBQUXly7d9jkRYysYSPA35gM", "plus_code": {"compound_code": "QRP9+H9 Hadla, West Bengal, India", "global_code": "7MM8QRP9+H9"}, "reference": "ChIJBQUXly7d9jkRYysYSPA35gM", "scope": "GOOGLE", "types": ["local_government_office", "point_of_interest", "establishment"], "vicinity": "Hadla"}, {"business_status": "OPERATIONAL", "geometry": {"location": {"lat": 23.7760325, "lng": 86.79863329999999}, "viewport": {"northeast": {"lat": 23.7774962302915, "lng": 86.8000502302915}, "southwest": {"lat": 23.7747982697085, "lng": 86.79735226970848}}}, "icon": "https://maps.gstatic.com/mapfiles/place_api/icons/v1/png_71/civic_building-71.png", "name": "water supply office", "place_id": "ChIJNbAo6bTd9jkRXbcxFaraKYk", "plus_code": {"compound_code": "QQGX+CF Maithon, Jharkhand, India", "global_code": "7MM8QQGX+CF"}, "rating": 4.3, "reference": "ChIJNbAo6bTd9jkRXbcxFaraKYk", "scope": "GOOGLE", "types": ["local_government_office", "point_of_interest", "establishment"], "user_ratings_total": 3, "vicinity": "India"}], "status": "OK"}