{"html_attributions": [], "results": [{"business_status": "OPERATIONAL", "geometry": {"location": {"lat": 23.806944, "lng": 86.4429663}, "viewport": {"northeast": {"lat": 23.80829643029151, "lng": 86.4443522802915}, "southwest": {"lat": 23.8055984697085, "lng": 86.44165431970849}}}, "icon": "https://maps.gstatic.com/mapfiles/place_api/icons/v1/png_71/civic_building-71.png", "name": "Cmpf Office Dhanbad", "photos": [{"height": 2340, "html_attributions": ["<a href=\"https://maps.google.com/maps/contrib/118113781384276276769\">Abir Gupta</a>"], "photo_reference": "ATtYBwJV1WT9KLK_VzWtzUVfb2QklSMAH_FpeTk52XnLC37N6etsPd_UfUwE0cKR1NWfLtphAxCfGQ3KZ6ZueiLfPSN_9djZnGOm6kUIv-TUu_ykJuRyuXSKItyQSlMEoLvSzjMCKoNF2k08K8qbvV2xh3pwpIHyWXJKhjJ8MEXQNz7ShBQN", "width": 4160}], "place_id": "ChIJN_G565m89jkR60BQ99yEHPs", "plus_code": {"compound_code": "RC4V+Q5 Dhanbad, Jharkhand, India", "global_code": "7MM8RC4V+Q5"}, "rating": 4.2, "reference": "ChIJN_G565m89jkR60BQ99yEHPs", "scope": "GOOGLE", "types": ["local_government_office", "point_of_interest", "establishment"], "user_ratings_total": 5, "vicinity": "CMPF Colony Post Office, CMPF Colony, Dhanbad"}, {"business_status": "OPERATIONAL", "geometry": {"location": {"lat": 23.8112715, "lng": 86.45251619999999}, "viewport": {"northeast": {"lat": 23.8126754302915, "lng": 86.4538703302915}, "southwest": {"lat": 23.80997746970849, "lng": 86.45117236970849}}}, "icon": "https://maps.gstatic.com/mapfiles/place_api/icons/v1/png_71/generic_business-71.png", "name": "Olizy Forex & Travels Pvt. Ltd", "opening_hours": {"open_now": true}, "photos": [{"height": 1440, "html_attributions": ["<a href=\"https://maps.google.com/maps/contrib/110192486152631284316\">Olizy Forex &amp; Travels Pvt. Ltd</a>"], "photo_reference": "ATtYBwL6VzXdMvBKlHhLA7LIJ_-97DbuuaEhz8r8Y52OeTx7Byaq-O_fxfUj2dolM0KrJVDI2ETqARL9ZQug5PQtgiVetMwufNrwwv3wQUX9wRgQ7430nfkSqhisrHpk0v2G1WCRneN4Rlsp6CBSfqEQGXttZw9nyxyibxiW8uUL7FdoMj4A", "width": 1080}], "place_id": "ChIJEyqjA3y89jkRKZH-MksSZkU", "plus_code": {"compound_code": "RF63+G2 Saraidhella, Jharkhand, India", "global_code": "7MM8RF63+G2"}, "rating": 4.9, "reference": "ChIJEyqjA3y89jkRKZH-MksSZkU", "scope": "GOOGLE", "types": ["finance", "travel_agency", "local_government_office", "point_of_interest", "establishment"], "user_ratings_total": 69, "vicinity": "2nd floor Hari om centre, Main Road, Saraidhella"}, {"business_status": "OPERATIONAL", "geometry": {"location": {"lat": 23.7977464, "lng": 86.437108}, "viewport": {"northeast": {"lat": 23.7989887302915, "lng": 86.4381512802915}, "southwest": {"lat": 23.7962907697085, "lng": 86.4354533197085}}}, "icon": "https://maps.gstatic.com/mapfiles/place_api/icons/v1/png_71/civic_building-71.png", "name": "Sales Tax Office", "opening_hours": {"open_now": true}, "photos": [{"height": 1920, "html_attributions": ["<a href=\"https://maps.google.com/maps/contrib/106221194557985977295\">Ravi Roshan Hembrom</a>"], "photo_reference": "ATtYBwJvqo3JGSlIG6rFz36B1DeW4fZ-HOT2v4E8yY2ErUgvrYGHOP1gW4wfihrHLnRL5HmnnA2jkpN3S7oMaIQJlxk1nj0b1dYLHUl8tedglC-jMOsw021HJM3dwMjNpkX9GchUtBfR2DyBM5N5eDQNxGvewD80YxmDWT7nU1ucNYDLAnGu", "width": 1080}], "place_id": "ChIJWeyrRL689jkRzSLe_pVuToY", "plus_code": {"compound_code": "QCXP+3R Dhanbad, Jharkhand, India", "global_code": "7MM8QCXP+3R"}, "rating": 3.3, "reference": "ChIJWeyrRL689jkRzSLe_pVuToY", "scope": "GOOGLE", "types": ["accounting", "finance", "local_government_office", "point_of_interest", "establishment"], "user_ratings_total": 7, "vicinity": "NH-32, Pandey Muhalla, Dhanbad"}, {"business_status": "OPERATIONAL", "geometry": {"location": {"lat": 23.8005591, "lng": 86.4434011}, "viewport": {"northeast": {"lat": 23.8020096802915, "lng": 86.44475638029151}, "southwest": {"lat": 23.79931171970849, "lng": 86.4420584197085}}}, "icon": "https://maps.gstatic.com/mapfiles/place_api/icons/v1/png_71/civic_building-71.png", "name": "Central Excise & Service Tax, Dhanbad", "place_id": "ChIJq6qqupa89jkRATbKG5luA_g", "reference": "ChIJq6qqupa89jkRATbKG5luA_g", "scope": "GOOGLE", "types": ["accounting", "finance", "local_government_office", "point_of_interest", "establishment"], "vicinity": "Central Excise & Service Tax Building, H. E. School Vistipara, Hirapur, Post, Dhanbad"}, {"business_status": "OPERATIONAL", "geometry": {"location": {"lat": 23.801512, "lng": 86.4428178}, "viewport": {"northeast": {"lat": 23.8028171802915, "lng": 86.44413113029151}, "southwest": {"lat": 23.8001192197085, "lng": 86.4414331697085}}}, "icon": "https://maps.gstatic.com/mapfiles/place_api/icons/v1/png_71/civic_building-71.png", "name": "Zila Parishad Office", "photos": [{"height": 720, "html_attributions": ["<a href=\"https://maps.google.com/maps/contrib/110571508390605570527\">NAYAK FOR YOU</a>"], "photo_reference": "ATtYBwJyclwsZsu5qX96k7Mp-3Ezu6UBU2zrH6j-vg2j0d_TOUInc0GYmhGhPHzbuMwWFsJwG1GVaGHu7EJ5PtxEpa6Bq6P2AarFuhr81fWKONR-icB3LQ615NaPTyVNIyNNlTwNZIj7CKAYB4FzhsrCeibxAKL6OgGqfAxmZYwxUvSQZbn3", "width": 1280}], "place_id": "ChIJ823qwJa89jkRcX5jidRcbf8", "plus_code": {"compound_code": "RC2V+J4 Dhanbad, Jharkhand, India", "global_code": "7MM8RC2V+J4"}, "rating": 4, "reference": "ChIJ823qwJa89jkRcX5jidRcbf8", "scope": "GOOGLE", "types": ["local_government_office", "point_of_interest", "establishment"], "user_ratings_total": 11, "vicinity": "Baba Colony, Hirapur, Pandey Muhalla, Dhanbad"}, {"business_status": "OPERATIONAL", "geometry": {"location": {"lat": 23.795816, "lng": 86.4429523}, "viewport": {"northeast": {"lat": 23.7971761802915, "lng": 86.44429938029151}, "southwest": {"lat": 23.7944782197085, "lng": 86.4416014197085}}}, "icon": "https://maps.gstatic.com/mapfiles/place_api/icons/v1/png_71/civic_building-71.png", "name": "\u091c\u093f\u0932\u093e \u092e\u0924\u094d\u0938\u094d\u092f \u0915\u093e\u0930\u094d\u092f\u093e\u0932\u092f", "photos": [{"height": 581, "html_attributions": ["<a href=\"https://maps.google.com/maps/contrib/114781341483612269370\">Ashmita Ray</a>"], "photo_reference": "ATtYBwL-v0SKPZRpiik9PNuRLGafxol7VFF3M1tklPDjbR-aDuXT-pSjyL3LwLg_NTHWSBz2qLdBdbgJXOB3nC7zX83Ei5aaEFi9o1L1Ti0pxSks94gA_4OCgGBTR9A5yneiOSbWx_lXa2rM1ZKKAaYPQKQtx97HuGzHPzXCH1GWmuS9ZGCm", "width": 1032}], "place_id": "ChIJ6SiCw3699jkRYc41BtLXZg8", "plus_code": {"compound_code": "QCWV+85 Dhanbad, Jharkhand, India", "global_code": "7MM8QCWV+85"}, "rating": 3, "reference": "ChIJ6SiCw3699jkRYc41BtLXZg8", "scope": "GOOGLE", "types": ["local_government_office", "point_of_interest", "establishment"], "user_ratings_total": 1, "vicinity": "near, koysalya Sadan, Hirapur Hatia Road, Harimandir Road, Mada Colony, Prem Nagar, Pandey Muhalla, Dhanbad"}, {"business_status": "OPERATIONAL", "geometry": {"location": {"lat": 23.808843, "lng": 86.450403}, "viewport": {"northeast": {"lat": 23.8102183802915, "lng": 86.45187313029149}, "southwest": {"lat": 23.8075204197085, "lng": 86.44917516970848}}}, "icon": "https://maps.gstatic.com/mapfiles/place_api/icons/v1/png_71/civic_building-71.png", "name": "Bihar Koylari Karagar Union", "photos": [{"height": 489, "html_attributions": ["<a href=\"https://maps.google.com/maps/contrib/114781341483612269370\">Ashmita Ray</a>"], "photo_reference": "ATtYBwKYWQdKTbZgefCJ94qMhHOOQuBwPbH5WHd-KysICxrzpZtw6ox-yG15r5VD6Yh7IFmmu96wnyBRETfhaWHvf5PAEzM2lggQ39Zfbj4Awl4Dsem_CWiXgOhXb4xDK4en79EEN1UswTDJLvfbTLTcZ463DyEJAgdDVd6HO7sojukQPe4T", "width": 1032}], "place_id": "ChIJJ2LlH4W89jkR3RBr7tICgdc", "plus_code": {"compound_code": "RF52+G5 Dhanbad, Jharkhand, India", "global_code": "7MM8RF52+G5"}, "reference": "ChIJJ2LlH4W89jkR3RBr7tICgdc", "scope": "GOOGLE", "types": ["local_government_office", "point_of_interest", "establishment"], "vicinity": "CMPF Colony, Dhanbad"}, {"business_status": "OPERATIONAL", "geometry": {"location": {"lat": 23.7940748, "lng": 86.44244570000001}, "viewport": {"northeast": {"lat": 23.7954324802915, "lng": 86.44386983029152}, "southwest": {"lat": 23.7927345197085, "lng": 86.44117186970851}}}, "icon": "https://maps.gstatic.com/mapfiles/place_api/icons/v1/png_71/civic_building-71.png", "name": "Pragya Kendra", "opening_hours": {"open_now": true}, "photos": [{"height": 4096, "html_attributions": ["<a href=\"https://maps.google.com/maps/contrib/114228411006060791194\">Ashwini Pathak</a>"], "photo_reference": "ATtYBwJCdHV_SI87S-UgVtJ_t7VDiddbPLtOB8uC4lLH87v6jmWESXOzxQO3_FQ9MIPDsjiVCglHlnLZwJRICsuy8ZmcSUh7gl0tGDduvCLKWB8Ehnz9rmriOQi7zS5sHgfh9_ruWPETGCPAWZNm3oQGvTFgYHPmhgfOKVgr0P-2AW2UWDzy", "width": 1840}], "place_id": "ChIJd1l4zJS89jkRt-T3bWzT0hE", "plus_code": {"compound_code": "QCVR+JX Dhanbad, Jharkhand, India", "global_code": "7MM8QCVR+JX"}, "rating": 1.7, "reference": "ChIJd1l4zJS89jkRt-T3bWzT0hE", "scope": "GOOGLE", "types": ["local_government_office", "point_of_interest", "establishment"], "user_ratings_total": 3, "vicinity": "Pandey Muhalla, Dhanbad"}, {"business_status": "OPERATIONAL", "geometry": {"location": {"lat": 23.7969014, "lng": 86.439641}, "viewport": {"northeast": {"lat": 23.7982646802915, "lng": 86.4409566802915}, "southwest": {"lat": 23.7955667197085, "lng": 86.4382587197085}}}, "icon": "https://maps.gstatic.com/mapfiles/place_api/icons/v1/png_71/civic_building-71.png", "name": "GST Support Center Jharkhand Zone", "opening_hours": {"open_now": true}, "photos": [{"height": 600, "html_attributions": ["<a href=\"https://maps.google.com/maps/contrib/115621481614701512000\">GST Support Center Jharkhand Zone</a>"], "photo_reference": "ATtYBwJ8-ga1NCRAPQQ1__bz3-9LNM4Lo0OLLOMJJlWoD-ix-u8PqWF1_PCQCq-CL6Al7JdnIQ8h7-rCJyZs-5FPREzmq9lR6NZZCKIPkKid-4EJHanz4mql_7pW9JzcI9Ifd-8B35cCYZcfOEN05DLXkiT1tHVQbrgmmFysI3EppxLaaQvB", "width": 900}], "place_id": "ChIJLTGyYVG99jkRKt0wgGSRaNA", "plus_code": {"compound_code": "QCWQ+QV Dhanbad, Jharkhand, India", "global_code": "7MM8QCWQ+QV"}, "reference": "ChIJLTGyYVG99jkRKt0wgGSRaNA", "scope": "GOOGLE", "types": ["local_government_office", "point_of_interest", "establishment"], "vicinity": "opposite to shree ram fuels petrol pump, Beside Kuchina kichens, opposite to shree ram fuels petrol pump, Harimandir Road, Hirapur, Dhanbad"}, {"business_status": "OPERATIONAL", "geometry": {"location": {"lat": 23.8008403, "lng": 86.4387034}, "viewport": {"northeast": {"lat": 23.8021612302915, "lng": 86.4399731802915}, "southwest": {"lat": 23.7994632697085, "lng": 86.43727521970848}}}, "icon": "https://maps.gstatic.com/mapfiles/place_api/icons/v1/png_71/civic_building-71.png", "name": "JMADA MD Bungalow", "place_id": "ChIJ17G-Fw299jkRz0a26_nxs2I", "plus_code": {"compound_code": "RC2Q+8F Dhanbad, Jharkhand, India", "global_code": "7MM8RC2Q+8F"}, "reference": "ChIJ17G-Fw299jkRz0a26_nxs2I", "scope": "GOOGLE", "types": ["local_government_office", "point_of_interest", "establishment"], "vicinity": "Luby Circular Road, Sardar Patel Nagar, Dhanbad"}, {"business_status": "OPERATIONAL", "geometry": {"location": {"lat": 23.7905309, "lng": 86.4453704}, "viewport": {"northeast": {"lat": 23.7918573302915, "lng": 86.44671443029151}, "southwest": {"lat": 23.7891593697085, "lng": 86.4440164697085}}}, "icon": "https://maps.gstatic.com/mapfiles/place_api/icons/v1/png_71/civic_building-71.png", "name": "Weight & Measurement Office(Batkhara Office)", "place_id": "ChIJvy6aMUS99jkR5Prh5H29Qd4", "plus_code": {"compound_code": "QCRW+64 Dhanbad, Jharkhand, India", "global_code": "7MM8QCRW+64"}, "rating": 5, "reference": "ChIJvy6aMUS99jkR5Prh5H29Qd4", "scope": "GOOGLE", "types": ["local_government_office", "point_of_interest", "establishment"], "user_ratings_total": 1, "vicinity": "chiragora, Binod Nagar, Dhanbad"}, {"business_status": "OPERATIONAL", "geometry": {"location": {"lat": 23.7902657, "lng": 86.4443526}, "viewport": {"northeast": {"lat": 23.7915827802915, "lng": 86.4456132302915}, "southwest": {"lat": 23.7888848197085, "lng": 86.44291526970848}}}, "icon": "https://maps.gstatic.com/mapfiles/place_api/icons/v1/png_71/civic_building-71.png", "name": "Food Corporation Of India, District Office, Dhanbad", "photos": [{"height": 1080, "html_attributions": ["<a href=\"https://maps.google.com/maps/contrib/107322592321857888973\">Animesh Kumar</a>"], "photo_reference": "ATtYBwLhQPfqmoS8JskSpI9Xzd9jaMu6NeaLyiX4TCXdK3AqcgXYpKCbWZE7qeWS6vlX40gCvHGwX9LPwfwbX7MA-aEe0IacAjUa3Sn90ei3SgRDBdeD4G1r40JBZiEcFL_ZQZtbCPZyMFA2FxAVGLB_1HVcaP5C_lA41hMZCvGDq4m1qrw-", "width": 1920}], "place_id": "ChIJwy5MeOy89jkRKfzaKRM8fA4", "plus_code": {"compound_code": "QCRV+4P Dhanbad, Jharkhand, India", "global_code": "7MM8QCRV+4P"}, "rating": 4.9, "reference": "ChIJwy5MeOy89jkRKfzaKRM8fA4", "scope": "GOOGLE", "types": ["local_government_office", "point_of_interest", "establishment"], "user_ratings_total": 8, "vicinity": "Usha Kunj, Chiragora Main Road, Hirapur, Dhanbad"}, {"business_status": "OPERATIONAL", "geometry": {"location": {"lat": 23.797801, "lng": 86.43740799999999}, "viewport": {"northeast": {"lat": 23.7991358302915, "lng": 86.4387008802915}, "southwest": {"lat": 23.79643786970849, "lng": 86.43600291970849}}}, "icon": "https://maps.gstatic.com/mapfiles/place_api/icons/v1/png_71/civic_building-71.png", "name": "Registration Department, Government of Jharkhand, Dhanbad", "opening_hours": {"open_now": true}, "photos": [{"height": 3456, "html_attributions": ["<a href=\"https://maps.google.com/maps/contrib/109450436655586323680\">Aaditya Shivhare</a>"], "photo_reference": "ATtYBwJTnmm2bkhLnkjNvwZ6lsj78x8xGAIGX-CUtEb8j0Ke_sJ3_nB1kFgYWZyrRVreXCvMunPQJT_5yEylmsDYtk8ydLDUTj9vETG7zUKNAlLk2Uhmuib_Z41z0BA4sUuzF8Sbh3DrCS61pnQzZvqfdEkGgz4I8HRQQtseMDUyEUucXFJ4", "width": 4608}], "place_id": "ChIJC-erRr689jkRDC0J1l7zdE4", "plus_code": {"compound_code": "QCXP+4X Dhanbad, Jharkhand, India", "global_code": "7MM8QCXP+4X"}, "rating": 3.2, "reference": "ChIJC-erRr689jkRDC0J1l7zdE4", "scope": "GOOGLE", "types": ["local_government_office", "point_of_interest", "establishment"], "user_ratings_total": 10, "vicinity": "Pandey Muhalla, Dhanbad"}, {"business_status": "CLOSED_TEMPORARILY", "geometry": {"location": {"lat": 23.8018008, "lng": 86.4372975}, "viewport": {"northeast": {"lat": 23.8028431302915, "lng": 86.43837598029151}, "southwest": {"lat": 23.8001451697085, "lng": 86.4356780197085}}}, "icon": "https://maps.gstatic.com/mapfiles/place_api/icons/v1/png_71/civic_building-71.png", "name": "SSP bungalow", "permanently_closed": true, "place_id": "ChIJpxLpl4C99jkRoACcPeFzbos", "plus_code": {"compound_code": "RC2P+PW Dhanbad, Jharkhand, India", "global_code": "7MM8RC2P+PW"}, "rating": 5, "reference": "ChIJpxLpl4C99jkRoACcPeFzbos", "scope": "GOOGLE", "types": ["police", "local_government_office", "point_of_interest", "establishment"], "user_ratings_total": 1, "vicinity": "Luby Circular Road, Sardar Patel Nagar, Dhanbad"}, {"business_status": "OPERATIONAL", "geometry": {"location": {"lat": 23.81169380000001, "lng": 86.4522611}, "viewport": {"northeast": {"lat": 23.8130255302915, "lng": 86.4536722802915}, "southwest": {"lat": 23.8103275697085, "lng": 86.4509743197085}}}, "icon": "https://maps.gstatic.com/mapfiles/place_api/icons/v1/png_71/generic_business-71.png", "name": "Make My Event & Wedding Planner-Dhanbad", "opening_hours": {"open_now": true}, "photos": [{"height": 416, "html_attributions": ["<a href=\"https://maps.google.com/maps/contrib/103670055706551336935\">Make My Event &amp; Wedding Planner-Dhanbad</a>"], "photo_reference": "ATtYBwJeLwRHb5gAEn2VVMTWy99aAFyYrNJEK2tP_rIoEYgXn_aLGr2JHNes_y-cX_Df6iUHXWKZZ2H0SNAbHisJlhX9ITbvJxduMn8NTDMRF9AIG4pngAbiUEPPKZ5JuiCJY9_-a77aPgdq8oV5RssNzh7vVSq6P01Gdn91KeAZ80SwzfxR", "width": 737}], "place_id": "ChIJE1VVVXm89jkRjPKGJ4C14YM", "plus_code": {"compound_code": "RF62+MW Saraidhella, Jharkhand, India", "global_code": "7MM8RF62+MW"}, "rating": 5, "reference": "ChIJE1VVVXm89jkRjPKGJ4C14YM", "scope": "GOOGLE", "types": ["florist", "finance", "local_government_office", "point_of_interest", "store", "establishment"], "user_ratings_total": 22, "vicinity": "opp. ICICI Bank Ltd, 2nd Floor, Hari om center Main road, opp. ICICI Bank Ltd, Saraidhella"}, {"business_status": "OPERATIONAL", "geometry": {"location": {"lat": 23.7987886, "lng": 86.4368872}, "viewport": {"northeast": {"lat": 23.8002004302915, "lng": 86.4382186302915}, "southwest": {"lat": 23.7975024697085, "lng": 86.4355206697085}}}, "icon": "https://maps.gstatic.com/mapfiles/place_api/icons/v1/png_71/civic_building-71.png", "name": "D4", "place_id": "ChIJSSTlZL689jkRJ9Jfn9MGTA0", "plus_code": {"compound_code": "QCXP+GQ Dhanbad, Jharkhand, India", "global_code": "7MM8QCXP+GQ"}, "reference": "ChIJSSTlZL689jkRJ9Jfn9MGTA0", "scope": "GOOGLE", "types": ["local_government_office", "point_of_interest", "establishment"], "vicinity": "Doctors Colony, Court More, Kasturba Nagar, Dhanbad"}, {"business_status": "OPERATIONAL", "geometry": {"location": {"lat": 23.809067, "lng": 86.458756}, "viewport": {"northeast": {"lat": 23.8103794802915, "lng": 86.45993598029149}, "southwest": {"lat": 23.8076815197085, "lng": 86.45723801970848}}}, "icon": "https://maps.gstatic.com/mapfiles/place_api/icons/v1/png_71/civic_building-71.png", "name": "Shram Bhawan, regional labour commission, dhanbad", "opening_hours": {"open_now": true}, "photos": [{"height": 3024, "html_attributions": ["<a href=\"https://maps.google.com/maps/contrib/101306289675803432117\">Vikash Kumar</a>"], "photo_reference": "ATtYBwKXNid9-XRS18r_-wiCYdHeoMwK9Ched82HwQNKWyBKkecYLIj94viCHfcR2xhd23MoU-TfPpPtDkkiAeYtZm8Sj4PS5QEBaqiJtiyvEu1InNJJ0UWk8a0j7R5cZ7cgd0-51pgT-cjteradjIGWXy-VfJ624GB5UJd4ppotkp-ARRZX", "width": 4032}], "place_id": "ChIJD3-BeIe89jkRxEW51kCjCH4", "plus_code": {"compound_code": "RF55+JG Dhanbad, Jharkhand, India", "global_code": "7MM8RF55+JG"}, "rating": 4.5, "reference": "ChIJD3-BeIe89jkRxEW51kCjCH4", "scope": "GOOGLE", "types": ["local_government_office", "point_of_interest", "establishment"], "user_ratings_total": 2, "vicinity": "regional labour commission, Dhaiya, Dhanbad"}, {"business_status": "OPERATIONAL", "geometry": {"location": {"lat": 23.8015685, "lng": 86.4367906}, "viewport": {"northeast": {"lat": 23.8027958302915, "lng": 86.43802988029151}, "southwest": {"lat": 23.80009786970849, "lng": 86.43533191970849}}}, "icon": "https://maps.gstatic.com/mapfiles/place_api/icons/v1/png_71/civic_building-71.png", "name": "S.s.p house dhanbad", "opening_hours": {"open_now": true}, "place_id": "ChIJkWniQuq99jkRf2CwcCFzymg", "plus_code": {"compound_code": "RC2P+JP Dhanbad, Jharkhand, India", "global_code": "7MM8RC2P+JP"}, "reference": "ChIJkWniQuq99jkRf2CwcCFzymg", "scope": "GOOGLE", "types": ["police", "local_government_office", "point_of_interest", "establishment"], "vicinity": "Sardar Patel Nagar, Dhanbad"}, {"business_status": "OPERATIONAL", "geometry": {"location": {"lat": 23.798812, "lng": 86.4366776}, "viewport": {"northeast": {"lat": 23.8002129802915, "lng": 86.43803388029151}, "southwest": {"lat": 23.7975150197085, "lng": 86.43533591970849}}}, "icon": "https://maps.gstatic.com/mapfiles/place_api/icons/v1/png_71/civic_building-71.png", "name": "D2", "place_id": "ChIJVdsUY7689jkRa7MUaczfwpA", "plus_code": {"compound_code": "QCXP+GM Dhanbad, Jharkhand, India", "global_code": "7MM8QCXP+GM"}, "reference": "ChIJVdsUY7689jkRa7MUaczfwpA", "scope": "GOOGLE", "types": ["local_government_office", "point_of_interest", "establishment"], "vicinity": "Doctors Colony Court More, Kasturba Nagar, Dhanbad"}, {"geometry": {"location": {"lat": 23.7991068, "lng": 86.4387764}, "viewport": {"northeast": {"lat": 23.8004707458367, "lng": 86.44012171115642}, "southwest": {"lat": 23.7977727852537, "lng": 86.43742375057342}}}, "icon": "https://maps.gstatic.com/mapfiles/place_api/icons/v1/png_71/civic_building-71.png", "name": "Power Sub Station", "place_id": "ChIJzUdzA7689jkR1YHdml_Fyy0", "reference": "ChIJzUdzA7689jkR1YHdml_Fyy0", "scope": "GOOGLE", "types": ["premise", "local_government_office", "establishment"], "vicinity": "Sardar Patel Nagar"}], "status": "OK"}