{"html_attributions": [], "results": [{"business_status": "OPERATIONAL", "geometry": {"location": {"lat": 23.7220414, "lng": 86.51579699999999}, "viewport": {"northeast": {"lat": 23.7233820802915, "lng": 86.51714613029151}, "southwest": {"lat": 23.7206841197085, "lng": 86.5144481697085}}}, "icon": "https://maps.gstatic.com/mapfiles/place_api/icons/v1/png_71/civic_building-71.png", "name": "Prakhand Sah-Anchal Karyalay", "opening_hours": {"open_now": true}, "photos": [{"height": 1080, "html_attributions": ["<a href=\"https://maps.google.com/maps/contrib/109330950321914978775\">Rishav gupta</a>"], "photo_reference": "ATtYBwKs_-tBBHtywKgUSl7ZMuejmKhUn9wI-g69Sosh0rzAnHkVLN0tcCMvMo569ZJLY69Hi7XxQyiVVZNtIQMD6eEo6UVIbuqqbHXyRiAg93RhJVSNhVdLgzZh7b9CZON0VC0R3TYJHNZxt6WWK7aSJ-TgwWT-pGd30eJZqHiztLTyYNte", "width": 1920}], "place_id": "ChIJZc4PxvWV9jkRCsOavLKZ900", "plus_code": {"compound_code": "PGC8+R8 Dhanbad, Jharkhand, India", "global_code": "7MM8PGC8+R8"}, "rating": 2.8, "reference": "ChIJZc4PxvWV9jkRCsOavLKZ900", "scope": "GOOGLE", "types": ["local_government_office", "point_of_interest", "establishment"], "user_ratings_total": 4, "vicinity": "Baliapur Block, Jharia Road, Baliapur, Dhanbad"}, {"business_status": "OPERATIONAL", "geometry": {"location": {"lat": 23.7218008, "lng": 86.5162987}, "viewport": {"northeast": {"lat": 23.7231529802915, "lng": 86.5176231302915}, "southwest": {"lat": 23.7204550197085, "lng": 86.51492516970849}}}, "icon": "https://maps.gstatic.com/mapfiles/place_api/icons/v1/png_71/civic_building-71.png", "name": "Block Development Office, Baliapur", "opening_hours": {"open_now": true}, "photos": [{"height": 3120, "html_attributions": ["<a href=\"https://maps.google.com/maps/contrib/100086742303384023938\">Abhishek Paul</a>"], "photo_reference": "ATtYBwIUcfGiFfMs1pGK_SPlnoOgEKvaC-jyzkoKhbX5D7R49OYI_LGm__wLByZ6-4Z6oGE6H1LkvfJlqrjBzVW4jMf2vAZJqM8KOEDPEQEKoQOFP16HO-0vZyVN7eeAyaeDX6ZI2Dhrb3IM3fEUAHlipOnrYK5vTr9siG7ech2SOnMaJdNR", "width": 4160}], "place_id": "ChIJR6LhtvWV9jkRYqoyL8jKr64", "plus_code": {"compound_code": "PGC8+PG Baliapur, Jharkhand, India", "global_code": "7MM8PGC8+PG"}, "rating": 3.5, "reference": "ChIJR6LhtvWV9jkRYqoyL8jKr64", "scope": "GOOGLE", "types": ["local_government_office", "point_of_interest", "establishment"], "user_ratings_total": 2, "vicinity": "Baliapur"}, {"business_status": "OPERATIONAL", "geometry": {"location": {"lat": 23.7274685, "lng": 86.519871}, "viewport": {"northeast": {"lat": 23.7287938302915, "lng": 86.52119023029151}, "southwest": {"lat": 23.7260958697085, "lng": 86.5184922697085}}}, "icon": "https://maps.gstatic.com/mapfiles/place_api/icons/v1/png_71/civic_building-71.png", "name": "Panchayat Sachiwalay, Baliapur West", "photos": [{"height": 2352, "html_attributions": ["<a href=\"https://maps.google.com/maps/contrib/107630661488892965879\">Shahbaz Quraishi</a>"], "photo_reference": "ATtYBwLA-5mnuU3CwmIbPIH9ZY0fSZKx7f4TXB7LKkI6IoWRGRHy90hMh-rYHQ6RLMTpvnSpWIHa8Av2IRWkdRB-yWcnnjR4JypU0cb6NrmcJzbVv16X8CX8DF_tFhmE3UYPrygY78GmA7nh4KDNtN6pqSg2S1efw0yffXhCVl1DLWqej-ad", "width": 4160}], "place_id": "ChIJUwPU2vW_9jkR0Ea0litINUE", "plus_code": {"compound_code": "PGG9+XW Baliapur, Jharkhand, India", "global_code": "7MM8PGG9+XW"}, "reference": "ChIJUwPU2vW_9jkR0Ea0litINUE", "scope": "GOOGLE", "types": ["local_government_office", "point_of_interest", "establishment"], "vicinity": "Paharpur, Road, Laladih, Baliapur"}], "status": "OK"}