{"html_attributions": [], "results": [{"business_status": "OPERATIONAL", "geometry": {"location": {"lat": 25.9540947, "lng": 90.07079929999999}, "viewport": {"northeast": {"lat": 25.9554421302915, "lng": 90.07212393029153}, "southwest": {"lat": 25.9527441697085, "lng": 90.06942596970852}}}, "icon": "https://maps.gstatic.com/mapfiles/place_api/icons/v1/png_71/shopping-71.png", "icon_background_color": "#4B96F3", "icon_mask_base_uri": "https://maps.gstatic.com/mapfiles/place_api/icons/v2/shoppingcart_pinlet", "name": "Wolvorin", "photos": [{"height": 2592, "html_attributions": ["<a href=\"https://maps.google.com/maps/contrib/112338262314378282924\">Safiul Hoque</a>"], "photo_reference": "Aap_uEC-S8rnbm3VrtaeRqq6BPM0FnTONtgBo1xbwit7-VDX2xbMjdtwfyajWaMQ8he6DhMV6Dvtef_Gvp56QbdsX1il43gLLr5DzdVdauSdIHmTSZNEhVCLhwwsrKRUOgcj7XW9ZDQiUHkgf7MAzNobuRgZrmDPRU22vVJMX_QJM-1LLllg", "width": 1944}], "place_id": "ChIJZWVRchMLWDcR3TjY7gK7EsA", "reference": "ChIJZWVRchMLWDcR3TjY7gK7EsA", "scope": "GOOGLE", "types": ["supermarket", "grocery_or_supermarket", "food", "point_of_interest", "store", "establishment"], "vicinity": "X33C+J8M, Sunderpara Pt.IV"}, {"business_status": "OPERATIONAL", "geometry": {"location": {"lat": 25.9542005, "lng": 90.0709706}, "viewport": {"northeast": {"lat": 25.9555440302915, "lng": 90.0722354802915}, "southwest": {"lat": 25.9528460697085, "lng": 90.06953751970849}}}, "icon": "https://maps.gstatic.com/mapfiles/place_api/icons/v1/png_71/shopping-71.png", "icon_background_color": "#4B96F3", "icon_mask_base_uri": "https://maps.gstatic.com/mapfiles/place_api/icons/v2/shoppingcart_pinlet", "name": "Fazlul Hoque Pan Shop", "place_id": "ChIJS-RzavkLWDcR3WYCPTt-dbE", "plus_code": {"compound_code": "X33C+M9 Chotokalia Pt.II, Assam, India", "global_code": "7MQGX33C+M9"}, "reference": "ChIJS-RzavkLWDcR3WYCPTt-dbE", "scope": "GOOGLE", "types": ["supermarket", "grocery_or_supermarket", "food", "point_of_interest", "store", "establishment"], "vicinity": "Fakirganj, Chotokalia Pt.II"}, {"business_status": "OPERATIONAL", "geometry": {"location": {"lat": 25.9541146, "lng": 90.07088910000002}, "viewport": {"northeast": {"lat": 25.9554609802915, "lng": 90.07219793029151}, "southwest": {"lat": 25.9527630197085, "lng": 90.0694999697085}}}, "icon": "https://maps.gstatic.com/mapfiles/place_api/icons/v1/png_71/shopping-71.png", "icon_background_color": "#4B96F3", "icon_mask_base_uri": "https://maps.gstatic.com/mapfiles/place_api/icons/v2/shoppingcart_pinlet", "name": "Arshad Chowdhury Store", "photos": [{"height": 1080, "html_attributions": ["<a href=\"https://maps.google.com/maps/contrib/105486038120883938158\">Shafique Ravi</a>"], "photo_reference": "Aap_uEBQmoIqYbOTVMN4Hs-QTfIJ9f1IFqNW5XP1tcvHXeCQPhuu4Zu0gL5K7p8zfbaVAtvJR6ZrIVCFGA9mtnv11VxfxU1ncTGQUD4yZW9xj7AZeMEt6tpz9EE2lyQJSNuvixQXENBs-CGDY78XPixo8skze2mdcfjJTr-FAi5NS_J4TEwp", "width": 1920}], "place_id": "ChIJDVT2QfkLWDcRA10SVpovqbM", "rating": 4.3, "reference": "ChIJDVT2QfkLWDcRA10SVpovqbM", "scope": "GOOGLE", "types": ["supermarket", "grocery_or_supermarket", "food", "point_of_interest", "store", "establishment"], "user_ratings_total": 3, "vicinity": "X33C+J9R, Sunderpara Pt.IV"}, {"business_status": "OPERATIONAL", "geometry": {"location": {"lat": 25.9519613, "lng": 90.0706711}, "viewport": {"northeast": {"lat": 25.95329258029151, "lng": 90.0720268302915}, "southwest": {"lat": 25.9505946197085, "lng": 90.06932886970849}}}, "icon": "https://maps.gstatic.com/mapfiles/place_api/icons/v1/png_71/shopping-71.png", "icon_background_color": "#4B96F3", "icon_mask_base_uri": "https://maps.gstatic.com/mapfiles/place_api/icons/v2/shoppingcart_pinlet", "name": "Shabuddi One Stores", "opening_hours": {"open_now": false}, "photos": [{"height": 3120, "html_attributions": ["<a href=\"https://maps.google.com/maps/contrib/117631946075150847836\">fakirganj 24</a>"], "photo_reference": "Aap_uEAb5QrgJqMU01h_GL2uRPypi-dijjEvfmJLqlxVFEoC9Fi2Bou4EaM7RuL7qgP1dQtet5ka7e9jyiAmDCchTPqbN4ybIgVmG4hCTha5yJyE19xqDWEBNKVmuG-L3XwYQjpdbDG4P8GYc-mvanNoRe94xZs86C5rZPHaUwJ-conXod3d", "width": 4160}], "place_id": "ChIJyeBCCxILWDcRbPcYFWvnj4c", "plus_code": {"compound_code": "X32C+Q7 Baladmara, Assam, India", "global_code": "7MQGX32C+Q7"}, "rating": 4.5, "reference": "ChIJyeBCCxILWDcRbPcYFWvnj4c", "scope": "GOOGLE", "types": ["supermarket", "grocery_or_supermarket", "food", "point_of_interest", "store", "establishment"], "user_ratings_total": 2, "vicinity": "State Highway 46, Baladmara"}], "status": "OK"}