{"html_attributions": [], "results": [{"business_status": "OPERATIONAL", "geometry": {"location": {"lat": 25.6776072, "lng": 89.9229873}, "viewport": {"northeast": {"lat": 25.6790013302915, "lng": 89.92443958029152}, "southwest": {"lat": 25.6763033697085, "lng": 89.9217416197085}}}, "icon": "https://maps.gstatic.com/mapfiles/place_api/icons/v1/png_71/shopping-71.png", "icon_background_color": "#4B96F3", "icon_mask_base_uri": "https://maps.gstatic.com/mapfiles/place_api/icons/v2/shoppingcart_pinlet", "name": "Momirul Jewellery store", "place_id": "ChIJ3YFrYCat4jkRpU_bE0ypwuo", "plus_code": {"compound_code": "MWHF+25 Pipulbari Pt.IV, Assam, India", "global_code": "7MQFMWHF+25"}, "rating": 5, "reference": "ChIJ3YFrYCat4jkRpU_bE0ypwuo", "scope": "GOOGLE", "types": ["grocery_or_supermarket", "supermarket", "food", "point_of_interest", "store", "establishment"], "user_ratings_total": 1, "vicinity": "Manulla para Tinali Bazar, Pipulbari Pt.IV"}, {"business_status": "OPERATIONAL", "geometry": {"location": {"lat": 25.6754304, "lng": 89.9244405}, "viewport": {"northeast": {"lat": 25.67679568029151, "lng": 89.92579238029151}, "southwest": {"lat": 25.6740977197085, "lng": 89.9230944197085}}}, "icon": "https://maps.gstatic.com/mapfiles/place_api/icons/v1/png_71/shopping-71.png", "icon_background_color": "#4B96F3", "icon_mask_base_uri": "https://maps.gstatic.com/mapfiles/place_api/icons/v2/shoppingcart_pinlet", "name": "MANULLA para tin Ali bazar", "opening_hours": {"open_now": false}, "photos": [{"height": 1148, "html_attributions": ["<a href=\"https://maps.google.com/maps/contrib/118258983259707891049\">Minarul Islam</a>"], "photo_reference": "Aap_uECby0XpiDhKAYxhErKFrhEusV4gwZ0a8YoNwbmxAFrogXrRMdU5aB3pM83WrxzhRzcgBCHyrp1VXD1Pu8bT2O6YSwQmjAyriWS6JFPD5I_wPswAGbeQRlwhFXcpUAJ3tN2ToNVYtnbvryGRzdznWKzxq-WsqKG0M855WjvTkc-jznGa", "width": 720}], "place_id": "ChIJOS4wTeKt4jkRvOrZTjHjyZw", "plus_code": {"compound_code": "MWGF+5Q Pipulbari Pt.IV, Assam, India", "global_code": "7MQFMWGF+5Q"}, "rating": 4.1, "reference": "ChIJOS4wTeKt4jkRvOrZTjHjyZw", "scope": "GOOGLE", "types": ["supermarket", "grocery_or_supermarket", "food", "point_of_interest", "store", "establishment"], "user_ratings_total": 46, "vicinity": "Moynabandha Road, Pipulbari Pt.IV"}, {"business_status": "OPERATIONAL", "geometry": {"location": {"lat": 25.6749436, "lng": 89.92510329999999}, "viewport": {"northeast": {"lat": 25.6763490302915, "lng": 89.9264861802915}, "southwest": {"lat": 25.67365106970849, "lng": 89.92378821970848}}}, "icon": "https://maps.gstatic.com/mapfiles/place_api/icons/v1/png_71/shopping-71.png", "icon_background_color": "#4B96F3", "icon_mask_base_uri": "https://maps.gstatic.com/mapfiles/place_api/icons/v2/shoppingcart_pinlet", "name": "Masud Cosmetics store", "opening_hours": {"open_now": false}, "photos": [{"height": 1080, "html_attributions": ["<a href=\"https://maps.google.com/maps/contrib/106921500762316584103\">\u09aa\u09b0\u09be\u09a8 \u09aa\u09be\u0996\u09bf</a>"], "photo_reference": "Aap_uEA2_9fVdAfiWGy4UxwC_Xx8o4XLRFfjgL5vxLHpfwa15j-wityRj8-CbZmCN7kcQOnQ7tm9EoG1TsEDQ9unJpa0sJhQfDRzcTSyAdmwamRQCDXuOCaHUkgpfU0WKlSac4jItCTzAvxU_NFqeNVhuIK6tcCUYPWq-38vN8THqUBLZT2W", "width": 1920}], "place_id": "ChIJ0UaF2E6t4jkRU8buk5xreNQ", "rating": 3, "reference": "ChIJ0UaF2E6t4jkRU8buk5xreNQ", "scope": "GOOGLE", "types": ["supermarket", "grocery_or_supermarket", "food", "point_of_interest", "store", "establishment"], "user_ratings_total": 1, "vicinity": "MWFG+X2H, Pipulbari Pt.IV"}], "status": "OK"}