{"html_attributions": [], "results": [{"business_status": "OPERATIONAL", "geometry": {"location": {"lat": 23.909746, "lng": 86.3636217}, "viewport": {"northeast": {"lat": 23.9111726302915, "lng": 86.3650719302915}, "southwest": {"lat": 23.9084746697085, "lng": 86.3623739697085}}}, "icon": "https://maps.gstatic.com/mapfiles/place_api/icons/v1/png_71/school-71.png", "icon_background_color": "#7B9EB0", "icon_mask_base_uri": "https://maps.gstatic.com/mapfiles/place_api/icons/v2/school_pinlet", "name": "Nps Sapanpur", "photos": [{"height": 3264, "html_attributions": ["<a href=\"https://maps.google.com/maps/contrib/117297856156397665446\">KHIRODHAR KUMAR RAJWAR</a>"], "photo_reference": "Aap_uECUWojBFQ-QoTo7R0r6DeHwh9sUOCHo_LPeygjib2QjDyu02PznnRhhUvtkqjS_r6D3HJTML3zsKmrS2AvVMiyzhwRRGZJTWgdk3yUQ9Xiu8gOVWzE-NOI-Exxz62lk24BCv7ZtVx28y3NXoTP3Vp27ehwzBBQ6jNW_-y358QELKK98", "width": 2448}], "place_id": "ChIJhRwbGM-l9jkR9haPIm7wPQQ", "plus_code": {"compound_code": "W957+VC Sapanpur, Jharkhand, India", "global_code": "7MM8W957+VC"}, "rating": 5, "reference": "ChIJhRwbGM-l9jkR9haPIm7wPQQ", "scope": "GOOGLE", "types": ["school", "point_of_interest", "establishment"], "user_ratings_total": 1, "vicinity": "Sapanpur"}, {"business_status": "OPERATIONAL", "geometry": {"location": {"lat": 23.9049586, "lng": 86.3751216}, "viewport": {"northeast": {"lat": 23.9063790302915, "lng": 86.3763842802915}, "southwest": {"lat": 23.9036810697085, "lng": 86.3736863197085}}}, "icon": "https://maps.gstatic.com/mapfiles/place_api/icons/v1/png_71/school-71.png", "icon_background_color": "#7B9EB0", "icon_mask_base_uri": "https://maps.gstatic.com/mapfiles/place_api/icons/v2/school_pinlet", "name": "Elementary School Chhatatand", "photos": [{"height": 1920, "html_attributions": ["<a href=\"https://maps.google.com/maps/contrib/102485210015679370974\">Rahul Saw</a>"], "photo_reference": "Aap_uECM9lBbC-pBmwc7dOP7DF2uNZi4PgA8A6qCG6Z_9_VQhkR3YaiPsZ6jkB3Erb82u7CwEYCWYvg2za6pQ5OyV_pnuR8MiOg9xQzWerLMQGTfl06UqAVccihu2jSN6qU5V1xdIuPvMOKr9NFGC1zj35gVx6WfCFoNuEsw_Lvi4LIkOLBD", "width": 1080}], "place_id": "ChIJKWF014Ol9jkRKftzs6qajvs", "rating": 4.5, "reference": "ChIJKWF014Ol9jkRKftzs6qajvs", "scope": "GOOGLE", "types": ["school", "point_of_interest", "establishment"], "user_ratings_total": 2, "vicinity": "W93G+X2Q, Chhatatanr"}, {"business_status": "OPERATIONAL", "geometry": {"location": {"lat": 23.9032546, "lng": 86.3578795}, "viewport": {"northeast": {"lat": 23.90464448029151, "lng": 86.35929098029149}, "southwest": {"lat": 23.9019465197085, "lng": 86.35659301970848}}}, "icon": "https://maps.gstatic.com/mapfiles/place_api/icons/v1/png_71/school-71.png", "icon_background_color": "#7B9EB0", "icon_mask_base_uri": "https://maps.gstatic.com/mapfiles/place_api/icons/v2/school_pinlet", "name": "sapanpur", "photos": [{"height": 2848, "html_attributions": ["<a href=\"https://maps.google.com/maps/contrib/114781341483612269370\">Ashmita Ray</a>"], "photo_reference": "Aap_uEBfWcC0scSXaO64AMI8R1ehAXrnPoQYHI3wh7mxqyYgRZyMjlAIRM_WOP6bloH-pG-Ejpnd_7DKoGXNsgEKmGshUAfiaeW7D4ZvKMGc2dfZZ6IwuCST87JdWY-OQsiKsckNL0BKkLEmfQGl2i1lDfEUn3SVk2bbEqZecXtUIeCYMdG2", "width": 4288}], "place_id": "ChIJM8XdQzml9jkRZ03mPbbiFW0", "reference": "ChIJM8XdQzml9jkRZ03mPbbiFW0", "scope": "GOOGLE", "types": ["school", "point_of_interest", "establishment"], "vicinity": "W935+852, Sapanpur"}, {"business_status": "OPERATIONAL", "geometry": {"location": {"lat": 23.9213265, "lng": 86.36870669999999}, "viewport": {"northeast": {"lat": 23.9224230802915, "lng": 86.3696774802915}, "southwest": {"lat": 23.9197251197085, "lng": 86.36697951970848}}}, "icon": "https://maps.gstatic.com/mapfiles/place_api/icons/v1/png_71/school-71.png", "icon_background_color": "#7B9EB0", "icon_mask_base_uri": "https://maps.gstatic.com/mapfiles/place_api/icons/v2/school_pinlet", "name": "primary school karitand", "place_id": "ChIJ9z46nruv9jkRm1-qSpb6__k", "rating": 5, "reference": "ChIJ9z46nruv9jkRm1-qSpb6__k", "scope": "GOOGLE", "types": ["primary_school", "school", "point_of_interest", "establishment"], "user_ratings_total": 1, "vicinity": "W9C9+GFP, Maricho"}], "status": "OK"}