{"html_attributions": [], "results": [{"business_status": "OPERATIONAL", "geometry": {"location": {"lat": 23.4285001, "lng": 86.3860905}, "viewport": {"northeast": {"lat": 23.4298825302915, "lng": 86.3873838302915}, "southwest": {"lat": 23.4271845697085, "lng": 86.38468586970849}}}, "icon": "https://maps.gstatic.com/mapfiles/place_api/icons/v1/png_71/school-71.png", "icon_background_color": "#7B9EB0", "icon_mask_base_uri": "https://maps.gstatic.com/mapfiles/place_api/icons/v2/school_pinlet", "name": "Borowadih Prymari School", "opening_hours": {"open_now": false}, "photos": [{"height": 1840, "html_attributions": ["<a href=\"https://maps.google.com/maps/contrib/107909255071157430754\">SATYAJIT MAHATO</a>"], "photo_reference": "Aap_uECswnE0JKTJZCwgdlZZhQUZjOlTa_Ugwht-7rBKQrMH60RuaRon7J7t3UOCkL-Z2VV26U9oNh7Z3fGjwYfT2DzoRSOv4TU4euyAH4-C5hYQwnwo2aGH60vSypRqQgHPUqKrWPhtJWWiBVjaFf7QMlUGIIN3okqEbk3CBtXnJC86-UnO", "width": 3264}], "place_id": "ChIJ0ancdqmH9jkRhztq0h4OQkI", "plus_code": {"compound_code": "C9HP+CC Baryadi, West Bengal, India", "global_code": "7MM8C9HP+CC"}, "reference": "ChIJ0ancdqmH9jkRhztq0h4OQkI", "scope": "GOOGLE", "types": ["school", "point_of_interest", "establishment"], "vicinity": "vil -borowadih.post_pirargoria.dist"}, {"business_status": "OPERATIONAL", "geometry": {"location": {"lat": 23.4378999, "lng": 86.3902016}, "viewport": {"northeast": {"lat": 23.4392730302915, "lng": 86.3916512802915}, "southwest": {"lat": 23.4365750697085, "lng": 86.38895331970849}}}, "icon": "https://maps.gstatic.com/mapfiles/place_api/icons/v1/png_71/school-71.png", "icon_background_color": "#7B9EB0", "icon_mask_base_uri": "https://maps.gstatic.com/mapfiles/place_api/icons/v2/school_pinlet", "name": "Pirargoria Junior High School", "place_id": "ChIJV6FZQ9iF9jkR6cgRo619vDU", "plus_code": {"compound_code": "C9QR+53 Pirargarya, West Bengal, India", "global_code": "7MM8C9QR+53"}, "rating": 3.7, "reference": "ChIJV6FZQ9iF9jkR6cgRo619vDU", "scope": "GOOGLE", "types": ["school", "point_of_interest", "establishment"], "user_ratings_total": 3, "vicinity": "Pirargarya"}, {"business_status": "OPERATIONAL", "geometry": {"location": {"lat": 23.4380016, "lng": 86.39023259999999}, "viewport": {"northeast": {"lat": 23.4393680302915, "lng": 86.3916542302915}, "southwest": {"lat": 23.43667006970849, "lng": 86.38895626970849}}}, "icon": "https://maps.gstatic.com/mapfiles/place_api/icons/v1/png_71/school-71.png", "icon_background_color": "#7B9EB0", "icon_mask_base_uri": "https://maps.gstatic.com/mapfiles/place_api/icons/v2/school_pinlet", "name": "Pirar Goria Primary School", "place_id": "ChIJZ0ryM86F9jkRT5qyPighxz4", "plus_code": {"compound_code": "C9QR+63 Pirargarya, West Bengal, India", "global_code": "7MM8C9QR+63"}, "reference": "ChIJZ0ryM86F9jkRT5qyPighxz4", "scope": "GOOGLE", "types": ["school", "point_of_interest", "establishment"], "vicinity": "Pirargarya"}, {"business_status": "OPERATIONAL", "geometry": {"location": {"lat": 23.4242006, "lng": 86.3751266}, "viewport": {"northeast": {"lat": 23.42556153029151, "lng": 86.3764223802915}, "southwest": {"lat": 23.4228635697085, "lng": 86.3737244197085}}}, "icon": "https://maps.gstatic.com/mapfiles/place_api/icons/v1/png_71/school-71.png", "icon_background_color": "#7B9EB0", "icon_mask_base_uri": "https://maps.gstatic.com/mapfiles/place_api/icons/v2/school_pinlet", "name": "Sachidanand Primary School Golamara", "place_id": "ChIJhVUlB36H9jkRSXjMDGsn4t4", "reference": "ChIJhVUlB36H9jkRSXjMDGsn4t4", "scope": "GOOGLE", "types": ["school", "point_of_interest", "establishment"], "vicinity": "C9FG+M3J, Golamara"}], "status": "OK"}