{"html_attributions": [], "results": [{"business_status": "OPERATIONAL", "geometry": {"location": {"lat": 23.5240133, "lng": 86.3867436}, "viewport": {"northeast": {"lat": 23.5256593302915, "lng": 86.38814768029151}, "southwest": {"lat": 23.5229613697085, "lng": 86.3854497197085}}}, "icon": "https://maps.gstatic.com/mapfiles/place_api/icons/v1/png_71/school-71.png", "icon_background_color": "#7B9EB0", "icon_mask_base_uri": "https://maps.gstatic.com/mapfiles/place_api/icons/v2/school_pinlet", "name": "Mandirtar Pry School", "opening_hours": {"open_now": false}, "photos": [{"height": 2448, "html_attributions": ["<a href=\"https://maps.google.com/maps/contrib/115769165614031410810\">SHIVAM Entertainment</a>"], "photo_reference": "Aap_uEBRPke4RaNy3twpNKWfK1RO7Z4DdSGkOL-fiQn5Fvdxs_UnXpbb6mVNsImdvQEojTEjgEl3LEVkdBAKCYpSkeEXSdLZbxO61GB0igmmTZHPQZ61XcrxHZZpJ2wYpO3oj4dSei5WM63hFd3fBIbwW-UdVghj8eZ0GPUHnlTdDXgElKzl", "width": 3264}], "place_id": "ChIJ_epTaS6F9jkR4s7wv9x8bXk", "plus_code": {"compound_code": "G9FP+JM Tetalda, West Bengal, India", "global_code": "7MM8G9FP+JM"}, "rating": 5, "reference": "ChIJ_epTaS6F9jkR4s7wv9x8bXk", "scope": "GOOGLE", "types": ["school", "point_of_interest", "establishment"], "user_ratings_total": 3, "vicinity": "Tetalda Mouza PS, Para"}, {"business_status": "OPERATIONAL", "geometry": {"location": {"lat": 23.5335193, "lng": 86.3755563}, "viewport": {"northeast": {"lat": 23.5348888302915, "lng": 86.3769701802915}, "southwest": {"lat": 23.5321908697085, "lng": 86.37427221970849}}}, "icon": "https://maps.gstatic.com/mapfiles/place_api/icons/v1/png_71/school-71.png", "icon_background_color": "#7B9EB0", "icon_mask_base_uri": "https://maps.gstatic.com/mapfiles/place_api/icons/v2/school_pinlet", "name": "Amladih Jr. High School", "opening_hours": {"open_now": false}, "photos": [{"height": 1080, "html_attributions": ["<a href=\"https://maps.google.com/maps/contrib/104196230469868501392\">Biswajit Singha</a>"], "photo_reference": "Aap_uEB8eXBgPQE2RTYK5D0yRmA4Q2NMeq61TZ4I0sAslsEj3qlut5A7OFmR-mgCZjprALUm_rvmB75c5-e5W5ypf61zbYyn0SARmjRV7Zrmbh9ip2j70ABRbu8Cm9LDzIUaR8KvdLpVIIWOoCelFdv0L5DdlEabG_z2QOrvr4SIQC-hb9A", "width": 1920}], "place_id": "ChIJU_TitRib9jkR0Skl-CwgIKM", "plus_code": {"compound_code": "G9MG+C6 Tetalda, West Bengal, India", "global_code": "7MM8G9MG+C6"}, "rating": 1, "reference": "ChIJU_TitRib9jkR0Skl-CwgIKM", "scope": "GOOGLE", "types": ["school", "point_of_interest", "establishment"], "user_ratings_total": 1, "vicinity": "Village -Amladih, Post Office - Tentulda, P.S-PARA,DIST- PURULIA"}, {"business_status": "OPERATIONAL", "geometry": {"location": {"lat": 23.5173608, "lng": 86.3859626}, "viewport": {"northeast": {"lat": 23.5187193802915, "lng": 86.3871195302915}, "southwest": {"lat": 23.51602141970849, "lng": 86.38442156970848}}}, "icon": "https://maps.gstatic.com/mapfiles/place_api/icons/v1/png_71/school-71.png", "icon_background_color": "#7B9EB0", "icon_mask_base_uri": "https://maps.gstatic.com/mapfiles/place_api/icons/v2/school_pinlet", "name": "SHINE SCHOOL", "photos": [{"height": 2560, "html_attributions": ["<a href=\"https://maps.google.com/maps/contrib/113595289987645688393\">SHINE SCHOOL</a>"], "photo_reference": "Aap_uEDAoLBkbKhkw8WAdqULGapowZZNPQiGDSdcxdJ5htWnvJdf7dvnpSJ0a1UIHCdotyimhWPsA2930SYiuYRHtZ1BGkNMVTGO-4bZ9NhnmwXf_k_h68ORAx608RRVcfgTyVeTkxgvXzlYkMRTI6iQJ4Xqr2Aizm4ThzJl8zA4EYxP-l40", "width": 5120}], "place_id": "ChIJS_GkY0GR9jkR97Xb9EVOPBE", "plus_code": {"compound_code": "G98P+W9 Tetalda, West Bengal, India", "global_code": "7MM8G98P+W9"}, "reference": "ChIJS_GkY0GR9jkR97Xb9EVOPBE", "scope": "GOOGLE", "types": ["school", "point_of_interest", "establishment"], "vicinity": "Indratar, Deoli"}], "status": "OK"}