{"html_attributions": [], "results": [{"business_status": "OPERATIONAL", "geometry": {"location": {"lat": 23.6120995, "lng": 86.3843297}, "viewport": {"northeast": {"lat": 23.6134908802915, "lng": 86.3856152802915}, "southwest": {"lat": 23.6107929197085, "lng": 86.3829173197085}}}, "icon": "https://maps.gstatic.com/mapfiles/place_api/icons/v1/png_71/school-71.png", "icon_background_color": "#7B9EB0", "icon_mask_base_uri": "https://maps.gstatic.com/mapfiles/place_api/icons/v2/school_pinlet", "name": "Utkramit Primary School Simulia", "photos": [{"height": 720, "html_attributions": ["<a href=\"https://maps.google.com/maps/contrib/116524545859679500899\">kartik kumar</a>"], "photo_reference": "Aap_uEC5MOGQ1tm1D5RQFElsKJ8D1M2YCPu4OZiDbP2ljPb4fkOD3XoBUIWYDxK8qgMwhm9cUFZ8V4JLPROuTddgWtITXsImxPZ_LrLU6-izylWcyDsK2kZd42_zKWHrC3DHnuvYQy14v5gLQ20eqCnelD7u2jZzbJzG2agKeFikx7hnzX-z", "width": 1280}], "place_id": "ChIJC21rlzGa9jkRX6uTboUVD_c", "rating": 5, "reference": "ChIJC21rlzGa9jkRX6uTboUVD_c", "scope": "GOOGLE", "types": ["school", "point_of_interest", "establishment"], "user_ratings_total": 1, "vicinity": "J96M+RPP, Simulia"}, {"business_status": "OPERATIONAL", "geometry": {"location": {"lat": 23.6104308, "lng": 86.3977561}, "viewport": {"northeast": {"lat": 23.61361935, "lng": 86.39873335}, "southwest": {"lat": 23.60936795000001, "lng": 86.39482435}}}, "icon": "https://maps.gstatic.com/mapfiles/place_api/icons/v1/png_71/school-71.png", "icon_background_color": "#7B9EB0", "icon_mask_base_uri": "https://maps.gstatic.com/mapfiles/place_api/icons/v2/school_pinlet", "name": "Amladih Jr. High School", "photos": [{"height": 1664, "html_attributions": ["<a href=\"https://maps.google.com/maps/contrib/102159985009157503740\">Sudhir Rajwar</a>"], "photo_reference": "Aap_uECsXYznoEHjlf9THfbknofhrVI-QP_OblUCJ4GFj7IXfyq-OW-i5aM95lMWKxzS9Lk3kVq1VfSoXbVuzeLZtVydUSEcrkex9EUKcx_Q3fsohQQp3gyI1FNNH62H0wWaHbEEDLrGpEbBSATxqtKDnBAgb0F0julYD1BqcgmrC1nulAj3", "width": 936}], "place_id": "ChIJ2Xg7oVGb9jkRD0RVUS4iIZ0", "plus_code": {"compound_code": "J96X+54 Laghla, Jharkhand, India", "global_code": "7MM8J96X+54"}, "reference": "ChIJ2Xg7oVGb9jkRD0RVUS4iIZ0", "scope": "GOOGLE", "types": ["school", "point_of_interest", "establishment"], "vicinity": "Amladih, Tentulda 723126, Para"}, {"business_status": "OPERATIONAL", "geometry": {"location": {"lat": 23.5999734, "lng": 86.39432959999999}, "viewport": {"northeast": {"lat": 23.6012736802915, "lng": 86.3955078802915}, "southwest": {"lat": 23.5985757197085, "lng": 86.39280991970848}}}, "icon": "https://maps.gstatic.com/mapfiles/place_api/icons/v1/png_71/school-71.png", "icon_background_color": "#7B9EB0", "icon_mask_base_uri": "https://maps.gstatic.com/mapfiles/place_api/icons/v2/school_pinlet", "name": "High School Simulia(Private)", "opening_hours": {"open_now": false}, "photos": [{"height": 2592, "html_attributions": ["<a href=\"https://maps.google.com/maps/contrib/102777973708529239178\">Rahul Kumar Mahato</a>"], "photo_reference": "Aap_uEDxC2NHXjbcq4chRgmSfg3OvXkKgtLpY9xFjCi2M4jbPcYJUw7Idy8238eSepZTyDC1IuHE-O1JJEFv4cp8rc-AcclqSGQ-JzdLZ4F3ftNhULiWxr9ubXmRuAUl-i_TFyHjMkA-tJuTQ1ofSlSYxLgB_3SRfLN3nrsz__vAgKyH4dTB", "width": 4608}], "place_id": "ChIJNYdoAkGa9jkRapzLFKPPVPI", "plus_code": {"compound_code": "H9XV+XP Simulia, Jharkhand, India", "global_code": "7MM8H9XV+XP"}, "rating": 4.2, "reference": "ChIJNYdoAkGa9jkRapzLFKPPVPI", "scope": "GOOGLE", "types": ["secondary_school", "school", "point_of_interest", "establishment"], "user_ratings_total": 13, "vicinity": "Simulia"}, {"business_status": "OPERATIONAL", "geometry": {"location": {"lat": 23.6002402, "lng": 86.3948352}, "viewport": {"northeast": {"lat": 23.60150743029151, "lng": 86.3964326302915}, "southwest": {"lat": 23.5988094697085, "lng": 86.39373466970848}}}, "icon": "https://maps.gstatic.com/mapfiles/place_api/icons/v1/png_71/school-71.png", "icon_background_color": "#7B9EB0", "icon_mask_base_uri": "https://maps.gstatic.com/mapfiles/place_api/icons/v2/school_pinlet", "name": "Middle School Simulia(Gov.)", "opening_hours": {"open_now": false}, "photos": [{"height": 2592, "html_attributions": ["<a href=\"https://maps.google.com/maps/contrib/102777973708529239178\">Rahul Kumar Mahato</a>"], "photo_reference": "Aap_uEAxvKkThS36IZEJQmm07KT8gmSUwQGiUw5vn_fxqZ8dKKfEDdgfqlo5CQ7n0yH6EXUEnXaXEcgv00fUpAY6WWsympef6OSDTdmUFkMWDuoM1dVHjo3JQkCqgSVBuU6F6MRLW0FBzECZJMQrn88kLm3d29W5dlfGrn50SzYvhIx1Gi1k", "width": 4608}], "place_id": "ChIJy3dkAkGa9jkRaAf_H1I3er8", "plus_code": {"compound_code": "J92V+3W Simulia, Jharkhand, India", "global_code": "7MM8J92V+3W"}, "rating": 3, "reference": "ChIJy3dkAkGa9jkRaAf_H1I3er8", "scope": "GOOGLE", "types": ["school", "point_of_interest", "establishment"], "user_ratings_total": 2, "vicinity": "Simulia"}], "status": "OK"}