{"html_attributions": [], "results": [{"business_status": "OPERATIONAL", "geometry": {"location": {"lat": 23.4901272, "lng": 86.4038745}, "viewport": {"northeast": {"lat": 23.4914626802915, "lng": 86.4051896302915}, "southwest": {"lat": 23.4887647197085, "lng": 86.4024916697085}}}, "icon": "https://maps.gstatic.com/mapfiles/place_api/icons/v1/png_71/school-71.png", "icon_background_color": "#7B9EB0", "icon_mask_base_uri": "https://maps.gstatic.com/mapfiles/place_api/icons/v2/school_pinlet", "name": "BATHANBARI PRIMARY SCHOOL", "place_id": "ChIJA9LMi-aF9jkRv51SR-NaJXA", "rating": 1, "reference": "ChIJA9LMi-aF9jkRv51SR-NaJXA", "scope": "GOOGLE", "types": ["school", "point_of_interest", "establishment"], "user_ratings_total": 1, "vicinity": "FCR3+3G5, Bathanbari"}, {"business_status": "OPERATIONAL", "geometry": {"location": {"lat": 23.4909442, "lng": 86.4041314}, "viewport": {"northeast": {"lat": 23.4923927802915, "lng": 86.4054988802915}, "southwest": {"lat": 23.48969481970849, "lng": 86.40280091970848}}}, "icon": "https://maps.gstatic.com/mapfiles/place_api/icons/v1/png_71/school-71.png", "icon_background_color": "#7B9EB0", "icon_mask_base_uri": "https://maps.gstatic.com/mapfiles/place_api/icons/v2/school_pinlet", "name": "Bathanbari Namopara Rautora", "place_id": "ChIJwWBiJEiF9jkRxKXjvVuHmaE", "plus_code": {"compound_code": "FCR3+9M Nadiha, West Bengal, India", "global_code": "7MM8FCR3+9M"}, "rating": 3, "reference": "ChIJwWBiJEiF9jkRxKXjvVuHmaE", "scope": "GOOGLE", "types": ["school", "point_of_interest", "establishment"], "user_ratings_total": 1, "vicinity": "Unnamed Road, Nadiha"}, {"business_status": "OPERATIONAL", "geometry": {"location": {"lat": 23.4906044, "lng": 86.40360040000002}, "viewport": {"northeast": {"lat": 23.4919583802915, "lng": 86.4049780302915}, "southwest": {"lat": 23.48926041970849, "lng": 86.40228006970848}}}, "icon": "https://maps.gstatic.com/mapfiles/place_api/icons/v1/png_71/school-71.png", "icon_background_color": "#7B9EB0", "icon_mask_base_uri": "https://maps.gstatic.com/mapfiles/place_api/icons/v2/school_pinlet", "name": "Bathanbari Namopara", "opening_hours": {"open_now": false}, "place_id": "ChIJHzEJnpCF9jkRbOWJAZPR688", "rating": 3, "reference": "ChIJHzEJnpCF9jkRbOWJAZPR688", "scope": "GOOGLE", "types": ["school", "point_of_interest", "establishment"], "user_ratings_total": 3, "vicinity": "FCR3+6CX, Nadiha"}, {"business_status": "OPERATIONAL", "geometry": {"location": {"lat": 23.4944129, "lng": 86.4073403}, "viewport": {"northeast": {"lat": 23.4956925302915, "lng": 86.4087742802915}, "southwest": {"lat": 23.4929945697085, "lng": 86.40607631970849}}}, "icon": "https://maps.gstatic.com/mapfiles/place_api/icons/v1/png_71/school-71.png", "icon_background_color": "#7B9EB0", "icon_mask_base_uri": "https://maps.gstatic.com/mapfiles/place_api/icons/v2/school_pinlet", "name": "Dr. B. R. Ambedkar Mission Football Ground Nadiha", "place_id": "ChIJ1Vh2lziF9jkRQVA4_3W0CBg", "plus_code": {"compound_code": "FCV4+QW Nadiha, West Bengal, India", "global_code": "7MM8FCV4+QW"}, "reference": "ChIJ1Vh2lziF9jkRQVA4_3W0CBg", "scope": "GOOGLE", "types": ["school", "point_of_interest", "establishment"], "vicinity": "Vill Nadiha PO-kulgora Hura"}, {"business_status": "OPERATIONAL", "geometry": {"location": {"lat": 23.4944129, "lng": 86.4073403}, "viewport": {"northeast": {"lat": 23.4956925302915, "lng": 86.4087742802915}, "southwest": {"lat": 23.4929945697085, "lng": 86.40607631970849}}}, "icon": "https://maps.gstatic.com/mapfiles/place_api/icons/v1/png_71/school-71.png", "icon_background_color": "#7B9EB0", "icon_mask_base_uri": "https://maps.gstatic.com/mapfiles/place_api/icons/v2/school_pinlet", "name": "Nadiha Namopara", "photos": [{"height": 960, "html_attributions": ["<a href=\"https://maps.google.com/maps/contrib/105142324849679989340\">BIJOY MAHATO NADiHA</a>"], "photo_reference": "Aap_uEASlQ3wGrXh3_Gusz6p1yYjwY5kwEXc4WDyqYTlwg-Gv3Jo3DlJkf9tHFGpVpDYTY-1Ex33s5RgBms5H8urDtuZ8EUx48gal4ijlGR1y6gS32wmz0xrflUj0wz8uo1oCIPmwctRzTj5F5L3nme4QCxe7xBfwBJkBhrR4g8AGyCE0bW-", "width": 720}], "place_id": "ChIJYcMHhaqF9jkRdo9FERGNXmw", "reference": "ChIJYcMHhaqF9jkRdo9FERGNXmw", "scope": "GOOGLE", "types": ["school", "point_of_interest", "establishment"], "vicinity": "FCV4+QW8, Nadiha"}, {"business_status": "OPERATIONAL", "geometry": {"location": {"lat": 23.4955643, "lng": 86.404274}, "viewport": {"northeast": {"lat": 23.4968983302915, "lng": 86.4056215302915}, "southwest": {"lat": 23.4942003697085, "lng": 86.40292356970849}}}, "icon": "https://maps.gstatic.com/mapfiles/place_api/icons/v1/png_71/school-71.png", "icon_background_color": "#7B9EB0", "icon_mask_base_uri": "https://maps.gstatic.com/mapfiles/place_api/icons/v2/school_pinlet", "name": "Nadiha primary school", "photos": [{"height": 4160, "html_attributions": ["<a href=\"https://maps.google.com/maps/contrib/113388268397438907230\">Saby A</a>"], "photo_reference": "Aap_uEC5ZxDC_yODP7lWqM9jYjQl69726FQQIlXkIuHsOyhOsKbKZr49Nj-04INg9iy4jDSRkxruLmDHVdS58KGoQwjUHej3k95C0Fenq_7-PkiUdOmTb2qoRORDg2DnRHj7ip73RrpGkOSnyQTZ4NIQzEHRqdaDyjBzFHc-CscLD4CHH7M", "width": 3120}], "place_id": "ChIJ23kU43GF9jkRjmS5NvvYHg4", "rating": 3, "reference": "ChIJ23kU43GF9jkRjmS5NvvYHg4", "scope": "GOOGLE", "types": ["school", "point_of_interest", "establishment"], "user_ratings_total": 1, "vicinity": "FCW3+6PC, Nadiha"}, {"business_status": "OPERATIONAL", "geometry": {"location": {"lat": 23.49548600000001, "lng": 86.40327099999999}, "viewport": {"northeast": {"lat": 23.49678508029151, "lng": 86.4046352802915}, "southwest": {"lat": 23.4940871197085, "lng": 86.40193731970848}}}, "icon": "https://maps.gstatic.com/mapfiles/place_api/icons/v1/png_71/school-71.png", "icon_background_color": "#7B9EB0", "icon_mask_base_uri": "https://maps.gstatic.com/mapfiles/place_api/icons/v2/school_pinlet", "name": "Nadiha High School", "photos": [{"height": 1836, "html_attributions": ["<a href=\"https://maps.google.com/maps/contrib/118385291200963560880\">Dipak Rajwar</a>"], "photo_reference": "Aap_uEDnEcHHjK6S0IGm93msohXaU4C8gCw2_3hg2AkvyElDjCSlsXFYksHl1K9BxVjdonPeeFCOMMY_LxRY4ii831ztheJc_x23nw4_EETs-0sGg3DSo5qrAOnRTh1ZOYUHwWYl-Lm_t-wS9OjtKdXjx9tMMdZ2r8Bew5pFsKGx9DlzZs6S", "width": 3264}], "place_id": "ChIJCUBFAXKF9jkR4KeKih7Aips", "rating": 4.9, "reference": "ChIJCUBFAXKF9jkR4KeKih7Aips", "scope": "GOOGLE", "types": ["secondary_school", "school", "point_of_interest", "establishment"], "user_ratings_total": 7, "vicinity": "FCW3+58R, Nadiha"}, {"business_status": "OPERATIONAL", "geometry": {"location": {"lat": 23.4841811, "lng": 86.39967349999999}, "viewport": {"northeast": {"lat": 23.4854845802915, "lng": 86.4009880302915}, "southwest": {"lat": 23.4827866197085, "lng": 86.39829006970848}}}, "icon": "https://maps.gstatic.com/mapfiles/place_api/icons/v1/png_71/school-71.png", "icon_background_color": "#7B9EB0", "icon_mask_base_uri": "https://maps.gstatic.com/mapfiles/place_api/icons/v2/school_pinlet", "name": "Raotora Primary Schhol", "place_id": "ChIJXcEbt06F9jkRiiQQYsIKMBQ", "plus_code": {"compound_code": "F9MX+MV Rautara, West Bengal, India", "global_code": "7MM8F9MX+MV"}, "reference": "ChIJXcEbt06F9jkRiiQQYsIKMBQ", "scope": "GOOGLE", "types": ["primary_school", "school", "point_of_interest", "establishment"], "vicinity": "Unnamed Road, Rautara"}], "status": "OK"}