{"html_attributions": [], "results": [{"business_status": "OPERATIONAL", "geometry": {"location": {"lat": 23.56839519999999, "lng": 86.4022907}, "viewport": {"northeast": {"lat": 23.5698148302915, "lng": 86.4035994802915}, "southwest": {"lat": 23.5671168697085, "lng": 86.4009015197085}}}, "icon": "https://maps.gstatic.com/mapfiles/place_api/icons/v1/png_71/school-71.png", "icon_background_color": "#7B9EB0", "icon_mask_base_uri": "https://maps.gstatic.com/mapfiles/place_api/icons/v2/school_pinlet", "name": "Darda Primary School", "place_id": "ChIJKbwr642a9jkRO_h6iwdrgyY", "reference": "ChIJKbwr642a9jkRO_h6iwdrgyY", "scope": "GOOGLE", "types": ["school", "point_of_interest", "establishment"], "vicinity": "HC92+9W3, Donrda"}, {"business_status": "OPERATIONAL", "geometry": {"location": {"lat": 23.5667726, "lng": 86.4012406}, "viewport": {"northeast": {"lat": 23.5681150802915, "lng": 86.4026539802915}, "southwest": {"lat": 23.5654171197085, "lng": 86.3999560197085}}}, "icon": "https://maps.gstatic.com/mapfiles/place_api/icons/v1/png_71/school-71.png", "icon_background_color": "#7B9EB0", "icon_mask_base_uri": "https://maps.gstatic.com/mapfiles/place_api/icons/v2/school_pinlet", "name": "Mangala gosari shop", "place_id": "ChIJu9e9zwOb9jkRs3R4PsfgM2o", "plus_code": {"compound_code": "HC82+PF Donrda, West Bengal, India", "global_code": "7MM8HC82+PF"}, "reference": "ChIJu9e9zwOb9jkRs3R4PsfgM2o", "scope": "GOOGLE", "types": ["school", "point_of_interest", "establishment"], "vicinity": "Chandankiyari - Dubra - Raghunathpur Road, Donrda"}, {"business_status": "OPERATIONAL", "geometry": {"location": {"lat": 23.5658112, "lng": 86.4007968}, "viewport": {"northeast": {"lat": 23.5671200802915, "lng": 86.40235503029149}, "southwest": {"lat": 23.5644221197085, "lng": 86.39965706970848}}}, "icon": "https://maps.gstatic.com/mapfiles/place_api/icons/v1/png_71/school-71.png", "icon_background_color": "#7B9EB0", "icon_mask_base_uri": "https://maps.gstatic.com/mapfiles/place_api/icons/v2/school_pinlet", "name": "Darda manibala high school (10+2)", "photos": [{"height": 1908, "html_attributions": ["<a href=\"https://maps.google.com/maps/contrib/101514399027645336429\">Samar Singh</a>"], "photo_reference": "Aap_uED7xjwiEXiqqkrtZXjEjOYu1awyAYVhpnVyKe_5dhsn5N_tvaNgyhw6CiaVu3KfCkZwOttMKo_acf9SLIhJoGrHLH2YQClbDhoHod29VqBqqeHFctZyUgaXUn73dlUuKLx5r6H4zNB3xPUSBeOYspcO4DTUb2iAoneJfjfwfNVReK_e", "width": 4032}], "place_id": "ChIJTZVTipKa9jkROH37ASoqwDE", "rating": 4.3, "reference": "ChIJTZVTipKa9jkROH37ASoqwDE", "scope": "GOOGLE", "types": ["secondary_school", "school", "point_of_interest", "establishment"], "user_ratings_total": 7, "vicinity": "HC82+88F, Darda"}, {"business_status": "OPERATIONAL", "geometry": {"location": {"lat": 23.5595872, "lng": 86.40673919999999}, "viewport": {"northeast": {"lat": 23.56444015, "lng": 86.4074580802915}, "southwest": {"lat": 23.55796955, "lng": 86.4047601197085}}}, "icon": "https://maps.gstatic.com/mapfiles/place_api/icons/v1/png_71/school-71.png", "icon_background_color": "#7B9EB0", "icon_mask_base_uri": "https://maps.gstatic.com/mapfiles/place_api/icons/v2/school_pinlet", "name": "Sourav Yo Man", "place_id": "ChIJxVJ4F5ea9jkRAAAA0CaDFhw", "plus_code": {"compound_code": "HC54+RM Parasiri, West Bengal, India", "global_code": "7MM8HC54+RM"}, "reference": "ChIJxVJ4F5ea9jkRAAAA0CaDFhw", "scope": "GOOGLE", "types": ["school", "point_of_interest", "establishment"], "vicinity": "9547459714 Bahara, Parasiri"}, {"business_status": "OPERATIONAL", "geometry": {"location": {"lat": 23.5614751, "lng": 86.3979703}, "viewport": {"northeast": {"lat": 23.5627940802915, "lng": 86.3993074802915}, "southwest": {"lat": 23.5600961197085, "lng": 86.39660951970848}}}, "icon": "https://maps.gstatic.com/mapfiles/place_api/icons/v1/png_71/school-71.png", "icon_background_color": "#7B9EB0", "icon_mask_base_uri": "https://maps.gstatic.com/mapfiles/place_api/icons/v2/school_pinlet", "name": "\u09ab\u09a4\u09c7\u09aa\u09c1\u09b0 II \u09aa\u09cd\u09b0\u09be\u09a5\u09ae\u09bf\u0995 \u09ac\u09bf\u09a6\u09cd\u09af\u09be\u09b2\u09df", "place_id": "ChIJE7Uvr-ya9jkRQg3nJrjiSqU", "plus_code": {"compound_code": "H96X+H5 Fatepur, West Bengal, India", "global_code": "7MM8H96X+H5"}, "rating": 5, "reference": "ChIJE7Uvr-ya9jkRQg3nJrjiSqU", "scope": "GOOGLE", "types": ["school", "point_of_interest", "establishment"], "user_ratings_total": 1, "vicinity": "723146, Fatepur"}], "status": "OK"}