{"html_attributions": [], "next_page_token": "Aap_uEBLMEcAASuOEW2XgBZe7dS8sPmbNGw_EHyUhv_pNqgg5xcfMOTG5v3m-sT5DCYykuVjoC08pehy6P0cDwgcYNLqZ3JC3zYSadnd5FLxW1s4BnPDbZK3aMY42DIOS479EuqTazfgAMAvxrPyylGjj5StElaHt5Yi1MzMlkDFXDZsEbg6HbFPM-e67IjuVO7qH5G_uty7J9cxyaKkoG_6KaLjBjQkme41ICr-HNpmzl9GIfR8zErGL0TXCBsmbY40Yw3kEZ3vvKqJyWJwUyPM1fwnWgceNeqKGocCMX1c-v801RZWylbjypORDBBi8hqhHGSZu0Qa6Zgu4GRWldGWnQfMvtIe8c-B4GrnGqwFpEt4IdmUcSISFOFNycgq3w0Ja94-V70hyUhGVMezdjJTydRY7bFQajqYWvHWFGzS6s2xeIv93w8llJeUlTth8AJMMnY0LsFlajwKo6x0ap0SkPBMoCulZwqYCbZFrjYuhc1WkjGEY43qwWCligA3yAo_hmDcaYWnvpUOlyBFt4vFombUZ-HAGaOlvS09YTzlS8_MmNAtKecg7vLq9VbEi98pXN3OYFcnMOuWAcehLAfaiomqBH-aKgR2ov4xNKB3p79PdjmdYfI9avBtVQghXWNKuU9Crth9", "results": [{"business_status": "OPERATIONAL", "geometry": {"location": {"lat": 23.7529002, "lng": 86.41350489999999}, "viewport": {"northeast": {"lat": 23.7543175802915, "lng": 86.4148614302915}, "southwest": {"lat": 23.7516196197085, "lng": 86.41216346970849}}}, "icon": "https://maps.gstatic.com/mapfiles/place_api/icons/v1/png_71/school-71.png", "icon_background_color": "#7B9EB0", "icon_mask_base_uri": "https://maps.gstatic.com/mapfiles/place_api/icons/v2/school_pinlet", "name": "Jhariya Raaj Uchcha Vidyalaya", "photos": [{"height": 622, "html_attributions": ["<a href=\"https://maps.google.com/maps/contrib/111379510729632393486\">Kumar Divyanshu</a>"], "photo_reference": "Aap_uEDYjJP98cq1NgACOznqDJClD02VHmtc9tJLsw0JnHFIDjEEoTybabfif2PcqaFXZm14rVtyZNDVs9aSGuER3jay64BwJXtWNqmNAP1tq-GOvZlTaOkA3H0CgtmioPSLcSd1hljEXdMTOnmc6fx9WquIBqIfuBtO9wkisNUpdW0tnzJq", "width": 1280}], "place_id": "ChIJVZSqoc6i9jkRODy5-TdwuBU", "rating": 4.1, "reference": "ChIJVZSqoc6i9jkRODy5-TdwuBU", "scope": "GOOGLE", "types": ["school", "point_of_interest", "establishment"], "user_ratings_total": 14, "vicinity": "QC37+5C6, Rajapur, Dhanbad"}, {"business_status": "OPERATIONAL", "geometry": {"location": {"lat": 23.742628, "lng": 86.4111374}, "viewport": {"northeast": {"lat": 23.7439792302915, "lng": 86.4124992302915}, "southwest": {"lat": 23.7412812697085, "lng": 86.4098012697085}}}, "icon": "https://maps.gstatic.com/mapfiles/place_api/icons/v1/png_71/school-71.png", "icon_background_color": "#7B9EB0", "icon_mask_base_uri": "https://maps.gstatic.com/mapfiles/place_api/icons/v2/school_pinlet", "name": "Kids garden secondary school", "opening_hours": {"open_now": false}, "photos": [{"height": 4000, "html_attributions": ["<a href=\"https://maps.google.com/maps/contrib/113229739923443117235\">Raja Shaw</a>"], "photo_reference": "Aap_uEBq8yrBmzURveAogGw_5C-thYuPUZIPVfU63FrXwEmoRVdA2xijpihG3EmQxoFEVcKKr243decncuGXDHfEdm7bnV22OY9ikS1iVLbBpSHZa2mXN6Vtwrtbsw_MuDHHiuzZ9kRVdVeUa_KRyil366lijPuoeIIQmNtf8SXDA7HKEZCl", "width": 3000}], "place_id": "ChIJy4aE3f6j9jkR1ex87bkqYnI", "rating": 3.3, "reference": "ChIJy4aE3f6j9jkR1ex87bkqYnI", "scope": "GOOGLE", "types": ["school", "point_of_interest", "establishment"], "user_ratings_total": 7, "vicinity": "PCV6+3F2, Jharia"}, {"business_status": "OPERATIONAL", "geometry": {"location": {"lat": 23.74199309999999, "lng": 86.4104946}, "viewport": {"northeast": {"lat": 23.7433472802915, "lng": 86.41185133029151}, "southwest": {"lat": 23.7406493197085, "lng": 86.40915336970849}}}, "icon": "https://maps.gstatic.com/mapfiles/place_api/icons/v1/png_71/school-71.png", "icon_background_color": "#7B9EB0", "icon_mask_base_uri": "https://maps.gstatic.com/mapfiles/place_api/icons/v2/school_pinlet", "name": "Steps Of Learning Jharia", "opening_hours": {"open_now": false}, "photos": [{"height": 3096, "html_attributions": ["<a href=\"https://maps.google.com/maps/contrib/107165040643882436930\">Anurag Garg</a>"], "photo_reference": "Aap_uEDxBoBNZNZAX4uID0d0vP-f-VWHdfxFyw2YajzTeYjbbljYvxXI38EmWabNLeVWyQuZD3QC-ruvi45m_t9ZBacXp6NEebmT4NisQd0AJXPvAaqVshcHi2wNHjIuGP0hbSILRoxlYLHDzwAkGhChKoDemO-f8e6FAwA6cr0-YL40VPur", "width": 4128}], "place_id": "ChIJDcGt5SSj9jkRw6ubEn4ZSAo", "plus_code": {"compound_code": "PCR6+Q5 Sindri, Jharkhand, India", "global_code": "7MM8PCR6+Q5"}, "rating": 3.3, "reference": "ChIJDcGt5SSj9jkRw6ubEn4ZSAo", "scope": "GOOGLE", "types": ["school", "point_of_interest", "establishment"], "user_ratings_total": 3, "vicinity": "Main Road, Sindri"}, {"business_status": "OPERATIONAL", "geometry": {"location": {"lat": 23.7473943, "lng": 86.4147464}, "viewport": {"northeast": {"lat": 23.7487476802915, "lng": 86.41612943029149}, "southwest": {"lat": 23.7460497197085, "lng": 86.41343146970848}}}, "icon": "https://maps.gstatic.com/mapfiles/place_api/icons/v1/png_71/school-71.png", "icon_background_color": "#7B9EB0", "icon_mask_base_uri": "https://maps.gstatic.com/mapfiles/place_api/icons/v2/school_pinlet", "name": "Jharkhand In Dhanbad Ranidi Kahna", "place_id": "ChIJ2VutJJKj9jkRJ6I5pXycFK4", "plus_code": {"compound_code": "PCW7+XV Jharia, Jharkhand, India", "global_code": "7MM8PCW7+XV"}, "reference": "ChIJ2VutJJKj9jkRJ6I5pXycFK4", "scope": "GOOGLE", "types": ["school", "point_of_interest", "establishment"], "vicinity": "Jharia-Dhanbad Road, Rajapur, Jharia"}, {"business_status": "OPERATIONAL", "geometry": {"location": {"lat": 23.7418933, "lng": 86.410748}, "viewport": {"northeast": {"lat": 23.7432396802915, "lng": 86.41209703029149}, "southwest": {"lat": 23.7405417197085, "lng": 86.40939906970848}}}, "icon": "https://maps.gstatic.com/mapfiles/place_api/icons/v1/png_71/school-71.png", "icon_background_color": "#7B9EB0", "icon_mask_base_uri": "https://maps.gstatic.com/mapfiles/place_api/icons/v2/school_pinlet", "name": "The School Of Music", "photos": [{"height": 368, "html_attributions": ["<a href=\"https://maps.google.com/maps/contrib/100677325116961547263\">Moni Lal</a>"], "photo_reference": "Aap_uEDI3td4vl_bhCB0BFlInxC5I_N9mVJ2f3ucz9XxLahxM8Q13yRJtQL4udCI_oIRIQKOTiiffaKWMngcyKJ7OM--vjaZ4TW8nMl3Lv_sieu9hAv-8HwNXCcMUh6Gw2VtbLmXt6ipR7yl7DY8uTJACPjjF1BSIu2OtFDuyAFB-ZDjVCE", "width": 552}], "place_id": "ChIJN7-1BLei9jkRuqK5xsyUhC4", "plus_code": {"compound_code": "PCR6+Q7 Jharia, Jharkhand, India", "global_code": "7MM8PCR6+Q7"}, "rating": 5, "reference": "ChIJN7-1BLei9jkRuqK5xsyUhC4", "scope": "GOOGLE", "types": ["school", "point_of_interest", "establishment"], "user_ratings_total": 5, "vicinity": "Thana More, Jharia"}, {"business_status": "OPERATIONAL", "geometry": {"location": {"lat": 23.7568029, "lng": 86.4094039}, "viewport": {"northeast": {"lat": 23.7581478802915, "lng": 86.41079613029152}, "southwest": {"lat": 23.7554499197085, "lng": 86.4080981697085}}}, "icon": "https://maps.gstatic.com/mapfiles/place_api/icons/v1/png_71/school-71.png", "icon_background_color": "#7B9EB0", "icon_mask_base_uri": "https://maps.gstatic.com/mapfiles/place_api/icons/v2/school_pinlet", "name": "PRATHMIK VHIDYALAYA ENA COLLIERY", "opening_hours": {"open_now": false}, "place_id": "ChIJdVmg5c-i9jkRPTANC5GXM4c", "plus_code": {"compound_code": "QC45+PQ Jharia, Jharkhand, India", "global_code": "7MM8QC45+PQ"}, "reference": "ChIJdVmg5c-i9jkRPTANC5GXM4c", "scope": "GOOGLE", "types": ["primary_school", "school", "point_of_interest", "establishment"], "vicinity": "Ena Colliery Bouripara, Jharia"}, {"business_status": "OPERATIONAL", "geometry": {"location": {"lat": 23.7439295, "lng": 86.4135462}, "viewport": {"northeast": {"lat": 23.7453293302915, "lng": 86.4149295302915}, "southwest": {"lat": 23.7426313697085, "lng": 86.4122315697085}}}, "icon": "https://maps.gstatic.com/mapfiles/place_api/icons/v1/png_71/school-71.png", "icon_background_color": "#7B9EB0", "icon_mask_base_uri": "https://maps.gstatic.com/mapfiles/place_api/icons/v2/school_pinlet", "name": "Anand Bhawan Public School", "photos": [{"height": 3264, "html_attributions": ["<a href=\"https://maps.google.com/maps/contrib/116660102280016043476\">Sujeet Rana</a>"], "photo_reference": "Aap_uEAxys8IjubBhcO-mnN8ZB80ZkO6dtqqcdcs_46CtpFXn5E_D8_wfgrpKJ2zLOocN9y6PeAq9jGIWYkvlIxC0emjdUIvMU9AGWetlCIYgBfGlV-mtUIoftLBs4R3Ecf41Y2Sg_GOflpkUQjgYLhIEdZcTLNn56pnL4R04lMmD7LN1Vg2", "width": 2448}], "place_id": "ChIJt1sBd7ai9jkR50q5vtDI4f4", "plus_code": {"compound_code": "PCV7+HC Jharia, Jharkhand, India", "global_code": "7MM8PCV7+HC"}, "rating": 4.2, "reference": "ChIJt1sBd7ai9jkR50q5vtDI4f4", "scope": "GOOGLE", "types": ["school", "point_of_interest", "establishment"], "user_ratings_total": 5, "vicinity": "Raja Talab, Jharia Main Road, Jharia"}, {"business_status": "OPERATIONAL", "geometry": {"location": {"lat": 23.7566222, "lng": 86.41025929999999}, "viewport": {"northeast": {"lat": 23.7580265802915, "lng": 86.4116445802915}, "southwest": {"lat": 23.7553286197085, "lng": 86.40894661970849}}}, "icon": "https://maps.gstatic.com/mapfiles/place_api/icons/v1/png_71/school-71.png", "icon_background_color": "#7B9EB0", "icon_mask_base_uri": "https://maps.gstatic.com/mapfiles/place_api/icons/v2/school_pinlet", "name": "K.B ITI ENA", "place_id": "ChIJK3KVxM-i9jkR-Ltlig1UC40", "reference": "ChIJK3KVxM-i9jkR-Ltlig1UC40", "scope": "GOOGLE", "types": ["school", "point_of_interest", "establishment"], "vicinity": "QC46+J4R, Bhagatdih"}, {"business_status": "OPERATIONAL", "geometry": {"location": {"lat": 23.7563472, "lng": 86.41106049999999}, "viewport": {"northeast": {"lat": 23.7576973302915, "lng": 86.41240833029151}, "southwest": {"lat": 23.7549993697085, "lng": 86.40971036970849}}}, "icon": "https://maps.gstatic.com/mapfiles/place_api/icons/v1/png_71/school-71.png", "icon_background_color": "#7B9EB0", "icon_mask_base_uri": "https://maps.gstatic.com/mapfiles/place_api/icons/v2/school_pinlet", "name": "Madarsa Ena", "photos": [{"height": 5632, "html_attributions": ["<a href=\"https://maps.google.com/maps/contrib/109723037051931261890\">Rashid Ansari</a>"], "photo_reference": "Aap_uECJlKYlH2I8Uy1k8KbzF770rCtUIMpHgRdc-3f15MTNWR_9-SyoDIwRTqI4lzDv5aqxGvLfkg_NaNDiGQu6zxUpPo0ZxTVeeUmdMlbu_IJXBT5HM7rVzgaOlQInEqmLodDd4w8ZvtJ7B1KYF6XNSDUOHN6wm2b5Yupng2VBtDo0g8IR", "width": 2816}], "place_id": "ChIJaRpey8-i9jkR5_iMIA2TtcI", "plus_code": {"compound_code": "QC46+GC Dhanbad, Jharkhand, India", "global_code": "7MM8QC46+GC"}, "reference": "ChIJaRpey8-i9jkR5_iMIA2TtcI", "scope": "GOOGLE", "types": ["school", "point_of_interest", "establishment"], "vicinity": "ENA Islampur, Jharia, Dhanbad"}, {"business_status": "OPERATIONAL", "geometry": {"location": {"lat": 23.7407538, "lng": 86.4022246}, "viewport": {"northeast": {"lat": 23.7421747802915, "lng": 86.4034412302915}, "southwest": {"lat": 23.7394768197085, "lng": 86.4007432697085}}}, "icon": "https://maps.gstatic.com/mapfiles/place_api/icons/v1/png_71/school-71.png", "icon_background_color": "#7B9EB0", "icon_mask_base_uri": "https://maps.gstatic.com/mapfiles/place_api/icons/v2/school_pinlet", "name": "Utkarmit Madhya Vidalay Bhalgora", "place_id": "ChIJi5D8PJmj9jkRYiDu1cfZxj8", "rating": 5, "reference": "ChIJi5D8PJmj9jkRYiDu1cfZxj8", "scope": "GOOGLE", "types": ["school", "point_of_interest", "establishment"], "user_ratings_total": 1, "vicinity": "PCR2+8V5, Dhaska Patti, Jharia"}, {"business_status": "OPERATIONAL", "geometry": {"location": {"lat": 23.7430505, "lng": 86.4133523}, "viewport": {"northeast": {"lat": 23.74437153029151, "lng": 86.41497343029151}, "southwest": {"lat": 23.7416735697085, "lng": 86.41227546970849}}}, "icon": "https://maps.gstatic.com/mapfiles/place_api/icons/v1/png_71/school-71.png", "icon_background_color": "#7B9EB0", "icon_mask_base_uri": "https://maps.gstatic.com/mapfiles/place_api/icons/v2/school_pinlet", "name": "Jharia Academy, Jharia", "opening_hours": {"open_now": false}, "photos": [{"height": 3000, "html_attributions": ["<a href=\"https://maps.google.com/maps/contrib/108373887095431776069\">PREM MAHATO</a>"], "photo_reference": "Aap_uEA6rsW8PPy5rzTKYD4Tx7qF7T_7HjH8guVpOMGcIcbu-qIEVcTnEtMozbtdn7ZABpK7Y0GdTpOWxAzd-KboebSy1eb-7l5XDAy0cEwFmB2kDlr_RsksSoiU5fbQjBFohmE2Au4Q4MtlvSAscPjjG78prlUSlJYfz5NQI0AS3vocaXf9", "width": 4000}], "place_id": "ChIJlU5Zgbai9jkRXlFQkId2__A", "plus_code": {"compound_code": "PCV7+68 Jharia, Jharkhand, India", "global_code": "7MM8PCV7+68"}, "rating": 4, "reference": "ChIJlU5Zgbai9jkRXlFQkId2__A", "scope": "GOOGLE", "types": ["school", "point_of_interest", "establishment"], "user_ratings_total": 27, "vicinity": "Amala Para, Jharia"}, {"business_status": "OPERATIONAL", "geometry": {"location": {"lat": 23.7409066, "lng": 86.4014981}, "viewport": {"northeast": {"lat": 23.7422068802915, "lng": 86.4027981802915}, "southwest": {"lat": 23.7395089197085, "lng": 86.40010021970849}}}, "icon": "https://maps.gstatic.com/mapfiles/place_api/icons/v1/png_71/school-71.png", "icon_background_color": "#7B9EB0", "icon_mask_base_uri": "https://maps.gstatic.com/mapfiles/place_api/icons/v2/school_pinlet", "name": "\u0909\u0924\u094d\u0915\u094d\u0930\u092e\u093f\u0924 \u092e\u0927\u094d\u092f \u0935\u093f\u0927\u093e\u0932\u092f \u092d\u093e\u0932\u0917\u094b\u0930\u093e \u0928.5 \u091d\u0930\u093f\u092f\u093e", "photos": [{"height": 4160, "html_attributions": ["<a href=\"https://maps.google.com/maps/contrib/112142310226313473931\">Future funny Thought</a>"], "photo_reference": "Aap_uECMtPyUkoaR3-BKSikJwhmhZiGWa4Qytbdcu7X-oLgw6H3zPAjHFmgnmAhVhP5otwCWo_8e1UsXi9sYg73vuhSYoteV_53w6ZUwX5evYR1b5jmJ5xsVDrlcoFZFWoNk_V556732G6bWbjkQhe1KCGuAB_8NAeax7jpDcaAFDGpIwCC0", "width": 3120}], "place_id": "ChIJlSWPYS-j9jkRiDBx3Tu1p2g", "plus_code": {"compound_code": "PCR2+9H Jharia, Jharkhand, India", "global_code": "7MM8PCR2+9H"}, "rating": 3.5, "reference": "ChIJlSWPYS-j9jkRiDBx3Tu1p2g", "scope": "GOOGLE", "types": ["school", "point_of_interest", "establishment"], "user_ratings_total": 2, "vicinity": "no 5, Burragarh - Jharia Road, Bhalgora, Jharia"}, {"business_status": "OPERATIONAL", "geometry": {"location": {"lat": 23.7574421, "lng": 86.41000439999999}, "viewport": {"northeast": {"lat": 23.7588402302915, "lng": 86.4113096802915}, "southwest": {"lat": 23.7561422697085, "lng": 86.40861171970847}}}, "icon": "https://maps.gstatic.com/mapfiles/place_api/icons/v1/png_71/school-71.png", "icon_background_color": "#7B9EB0", "icon_mask_base_uri": "https://maps.gstatic.com/mapfiles/place_api/icons/v2/school_pinlet", "name": "Ghalib Academy", "place_id": "ChIJQeaG38-i9jkR6rcF8oCcy6g", "reference": "ChIJQeaG38-i9jkR6rcF8oCcy6g", "scope": "GOOGLE", "types": ["school", "point_of_interest", "establishment"], "vicinity": "QC46+X2C, Bhagatdih"}, {"business_status": "OPERATIONAL", "geometry": {"location": {"lat": 23.7436996, "lng": 86.41432119999999}, "viewport": {"northeast": {"lat": 23.74497073029151, "lng": 86.4154779302915}, "southwest": {"lat": 23.7422727697085, "lng": 86.4127799697085}}}, "icon": "https://maps.gstatic.com/mapfiles/place_api/icons/v1/png_71/school-71.png", "icon_background_color": "#7B9EB0", "icon_mask_base_uri": "https://maps.gstatic.com/mapfiles/place_api/icons/v2/school_pinlet", "name": "Kirty Chandra Girls School", "opening_hours": {"open_now": false}, "place_id": "ChIJ4_mkxLWi9jkRqOKVaP2xOao", "plus_code": {"compound_code": "PCV7+FP Jharia, Jharkhand, India", "global_code": "7MM8PCV7+FP"}, "rating": 3.8, "reference": "ChIJ4_mkxLWi9jkRqOKVaP2xOao", "scope": "GOOGLE", "types": ["secondary_school", "school", "point_of_interest", "establishment"], "user_ratings_total": 11, "vicinity": "Raja Talab, Amla Para Main Road, Amala Para, Jharia"}, {"business_status": "OPERATIONAL", "geometry": {"location": {"lat": 23.7432999, "lng": 86.4140484}, "viewport": {"northeast": {"lat": 23.7446601302915, "lng": 86.4154274302915}, "southwest": {"lat": 23.74196216970849, "lng": 86.41272946970848}}}, "icon": "https://maps.gstatic.com/mapfiles/place_api/icons/v1/png_71/school-71.png", "icon_background_color": "#7B9EB0", "icon_mask_base_uri": "https://maps.gstatic.com/mapfiles/place_api/icons/v2/school_pinlet", "name": "Art & Craft", "opening_hours": {"open_now": false}, "photos": [{"height": 4608, "html_attributions": ["<a href=\"https://maps.google.com/maps/contrib/109957895726773109337\">Art &amp; Craft</a>"], "photo_reference": "Aap_uECSK1K026eGCl1INRITibN9yuBhts4N3Dh-CrborQ_k7R1KidnLChcRiQCxaMBJc-5fuve8ltUyg3JpX7rsuO4qAH9Wl1OMY1hXpK22zYaUufCHVJt9XaHTr44vSHh1jQZZ9ZQsondho1u-iaGn9my4L_SjeZe_lnZHLOh3434IvpOC", "width": 2304}], "place_id": "ChIJ60vD0LWi9jkR7do50d2bWZY", "plus_code": {"compound_code": "PCV7+8J Jharia, Jharkhand, India", "global_code": "7MM8PCV7+8J"}, "rating": 4.8, "reference": "ChIJ60vD0LWi9jkR7do50d2bWZY", "scope": "GOOGLE", "types": ["school", "point_of_interest", "establishment"], "user_ratings_total": 21, "vicinity": "Amla Para Main Road, Amala Para, Jharia"}, {"business_status": "OPERATIONAL", "geometry": {"location": {"lat": 23.7431353, "lng": 86.4140048}, "viewport": {"northeast": {"lat": 23.7444888802915, "lng": 86.4153088802915}, "southwest": {"lat": 23.7417909197085, "lng": 86.4126109197085}}}, "icon": "https://maps.gstatic.com/mapfiles/place_api/icons/v1/png_71/school-71.png", "icon_background_color": "#7B9EB0", "icon_mask_base_uri": "https://maps.gstatic.com/mapfiles/place_api/icons/v2/school_pinlet", "name": "Marwari High School", "opening_hours": {"open_now": false}, "photos": [{"height": 640, "html_attributions": ["<a href=\"https://maps.google.com/maps/contrib/107137176363160466027\">pritam chauhan</a>"], "photo_reference": "Aap_uECFFhnZEltKSUDkWxHMowH6-YZrdsTBc4Vc3kP8unzwHpUe5bUxA40kEpAk1CQohHkcM7PsN6A65nO_7o_EOMAV_OMkCm_SmGX9BJuNTjIBFbY9Bs1_r6zr1urD61hXJHIXgB81PyPLR3KXF2Zmnxh2OZJ1LM9zTu5LLAG7BqFCN-pW", "width": 640}], "place_id": "ChIJ20LU1bWi9jkR9JvlrAT1xNY", "plus_code": {"compound_code": "PCV7+7J Jharia, Jharkhand, India", "global_code": "7MM8PCV7+7J"}, "rating": 3.8, "reference": "ChIJ20LU1bWi9jkR9JvlrAT1xNY", "scope": "GOOGLE", "types": ["school", "point_of_interest", "establishment"], "user_ratings_total": 36, "vicinity": "Amala Para, Jharia"}, {"business_status": "OPERATIONAL", "geometry": {"location": {"lat": 23.7424457, "lng": 86.41342519999999}, "viewport": {"northeast": {"lat": 23.7437741802915, "lng": 86.4149713802915}, "southwest": {"lat": 23.7410762197085, "lng": 86.41227341970848}}}, "icon": "https://maps.gstatic.com/mapfiles/place_api/icons/v1/png_71/school-71.png", "icon_background_color": "#7B9EB0", "icon_mask_base_uri": "https://maps.gstatic.com/mapfiles/place_api/icons/v2/school_pinlet", "name": "Acadame high school", "place_id": "ChIJ-Tk9gbai9jkRv-Khn9aBqNg", "reference": "ChIJ-Tk9gbai9jkRv-Khn9aBqNg", "scope": "GOOGLE", "types": ["school", "point_of_interest", "establishment"], "vicinity": "PCR7+X9F, Amala Para, Jharia"}, {"business_status": "OPERATIONAL", "geometry": {"location": {"lat": 23.7419498, "lng": 86.4136582}, "viewport": {"northeast": {"lat": 23.7432907802915, "lng": 86.41504793029151}, "southwest": {"lat": 23.7405928197085, "lng": 86.4123499697085}}}, "icon": "https://maps.gstatic.com/mapfiles/place_api/icons/v1/png_71/school-71.png", "icon_background_color": "#7B9EB0", "icon_mask_base_uri": "https://maps.gstatic.com/mapfiles/place_api/icons/v2/school_pinlet", "name": "Mahadev Vidyalaya", "place_id": "ChIJE7jxDQ-j9jkRG-YoTp88c8Q", "plus_code": {"compound_code": "PCR7+QF Jharia, Jharkhand, India", "global_code": "7MM8PCR7+QF"}, "reference": "ChIJE7jxDQ-j9jkRG-YoTp88c8Q", "scope": "GOOGLE", "types": ["school", "point_of_interest", "establishment"], "vicinity": "Unnamed Road, Amala Para, Jharia"}, {"business_status": "OPERATIONAL", "geometry": {"location": {"lat": 23.7577287, "lng": 86.4113538}, "viewport": {"northeast": {"lat": 23.7590727802915, "lng": 86.4127857802915}, "southwest": {"lat": 23.7563748197085, "lng": 86.4100878197085}}}, "icon": "https://maps.gstatic.com/mapfiles/place_api/icons/v1/png_71/school-71.png", "icon_background_color": "#7B9EB0", "icon_mask_base_uri": "https://maps.gstatic.com/mapfiles/place_api/icons/v2/school_pinlet", "name": "Sahaj Blossom School", "place_id": "ChIJM9dF1NGi9jkRi4JMMO6NJrE", "plus_code": {"compound_code": "QC56+3G Dhanbad, Jharkhand, India", "global_code": "7MM8QC56+3G"}, "reference": "ChIJM9dF1NGi9jkRi4JMMO6NJrE", "scope": "GOOGLE", "types": ["school", "point_of_interest", "establishment"], "vicinity": "Ena Islampur, Dhanbad"}, {"business_status": "OPERATIONAL", "geometry": {"location": {"lat": 23.7417748, "lng": 86.41425869999999}, "viewport": {"northeast": {"lat": 23.7431124302915, "lng": 86.41561518029151}, "southwest": {"lat": 23.7404144697085, "lng": 86.41291721970849}}}, "icon": "https://maps.gstatic.com/mapfiles/place_api/icons/v1/png_71/school-71.png", "icon_background_color": "#7B9EB0", "icon_mask_base_uri": "https://maps.gstatic.com/mapfiles/place_api/icons/v2/school_pinlet", "name": "Little Star School", "opening_hours": {"open_now": false}, "place_id": "ChIJMe4nJbSi9jkRfGJk26hNUz0", "plus_code": {"compound_code": "PCR7+PP Dhanbad, Jharkhand, India", "global_code": "7MM8PCR7+PP"}, "rating": 4, "reference": "ChIJMe4nJbSi9jkRfGJk26hNUz0", "scope": "GOOGLE", "types": ["primary_school", "school", "point_of_interest", "establishment"], "user_ratings_total": 1, "vicinity": "Manbad, Jharia, Dhanbad"}], "status": "OK"}