{"html_attributions": [], "results": [{"business_status": "OPERATIONAL", "geometry": {"location": {"lat": 23.8428235, "lng": 86.4172524}, "viewport": {"northeast": {"lat": 23.84415928029151, "lng": 86.41859978029152}, "southwest": {"lat": 23.8414613197085, "lng": 86.4159018197085}}}, "icon": "https://maps.gstatic.com/mapfiles/place_api/icons/v1/png_71/school-71.png", "icon_background_color": "#7B9EB0", "icon_mask_base_uri": "https://maps.gstatic.com/mapfiles/place_api/icons/v2/school_pinlet", "name": "PANCHAYAT BHAWAN ROAD DHURWADIH", "place_id": "ChIJ6RIc6cqk9jkR0ZQBKWnm-0M", "plus_code": {"compound_code": "RCV8+4W Dhanbad, Jharkhand, India", "global_code": "7MM8RCV8+4W"}, "rating": 5, "reference": "ChIJ6RIc6cqk9jkR0ZQBKWnm-0M", "scope": "GOOGLE", "types": ["school", "point_of_interest", "establishment"], "user_ratings_total": 1, "vicinity": "Unnamed Road, Dhanbad"}, {"business_status": "OPERATIONAL", "geometry": {"location": {"lat": 23.8418151, "lng": 86.40510330000001}, "viewport": {"northeast": {"lat": 23.8431399302915, "lng": 86.4065245802915}, "southwest": {"lat": 23.8404419697085, "lng": 86.4038266197085}}}, "icon": "https://maps.gstatic.com/mapfiles/place_api/icons/v1/png_71/school-71.png", "icon_background_color": "#7B9EB0", "icon_mask_base_uri": "https://maps.gstatic.com/mapfiles/place_api/icons/v2/school_pinlet", "name": "Primari School", "place_id": "ChIJQRqCa8ek9jkRXvzM8JqtqR8", "rating": 5, "reference": "ChIJQRqCa8ek9jkRXvzM8JqtqR8", "scope": "GOOGLE", "types": ["school", "point_of_interest", "establishment"], "user_ratings_total": 1, "vicinity": "RCR4+P2H, Barpichhri Kariatanr"}, {"business_status": "OPERATIONAL", "geometry": {"location": {"lat": 23.8416602, "lng": 86.4050091}, "viewport": {"northeast": {"lat": 23.8430016802915, "lng": 86.40645658029152}, "southwest": {"lat": 23.8403037197085, "lng": 86.4037586197085}}}, "icon": "https://maps.gstatic.com/mapfiles/place_api/icons/v1/png_71/school-71.png", "icon_background_color": "#7B9EB0", "icon_mask_base_uri": "https://maps.gstatic.com/mapfiles/place_api/icons/v2/school_pinlet", "name": "\u0909\u0924\u094d\u0915\u094d\u0930\u092e\u093f\u0924 \u092e\u0927\u094d\u092f \u0935\u093f\u0926\u094d\u092f\u093e\u0932\u092f \u092c\u095c\u093e \u092a\u093f\u091b\u0930\u0940", "place_id": "ChIJDfQEeD2l9jkRqGZORmhJ-UA", "reference": "ChIJDfQEeD2l9jkRqGZORmhJ-UA", "scope": "GOOGLE", "types": ["school", "point_of_interest", "establishment"], "vicinity": "RCR4+M26, Barpichhri Kariatanr"}, {"business_status": "OPERATIONAL", "geometry": {"location": {"lat": 23.8556365, "lng": 86.4114168}, "viewport": {"northeast": {"lat": 23.8568057302915, "lng": 86.41271998029151}, "southwest": {"lat": 23.8541077697085, "lng": 86.4100220197085}}}, "icon": "https://maps.gstatic.com/mapfiles/place_api/icons/v1/png_71/school-71.png", "icon_background_color": "#7B9EB0", "icon_mask_base_uri": "https://maps.gstatic.com/mapfiles/place_api/icons/v2/school_pinlet", "name": "Chetna Shikshan Sansthan Kalyanpur", "photos": [{"height": 3264, "html_attributions": ["<a href=\"https://maps.google.com/maps/contrib/106151302421910520521\">aayush JH</a>"], "photo_reference": "Aap_uEBuM1CpKiasANGlQNALLMNG4fGaazvhvognVxOxsJkkJuFlxxxVqSG3WlP6zTJze7YHqSTa_w6Hy6kCmBsUMM2uy36TO68W6wURu40jKaciJM0c1raV-TkV-QxXCHoP5PkVtuwaw-BpL0Tbc0thgNIwW2BDR5L3JiV0u91gYrppx4Lq", "width": 2448}], "place_id": "ChIJaW3PANGk9jkR9X2KUvMte_k", "rating": 4, "reference": "ChIJaW3PANGk9jkR9X2KUvMte_k", "scope": "GOOGLE", "types": ["school", "point_of_interest", "establishment"], "user_ratings_total": 2, "vicinity": "VC46+7H3, Damkarabarwa"}, {"business_status": "OPERATIONAL", "geometry": {"location": {"lat": 23.85684449999999, "lng": 86.409733}, "viewport": {"northeast": {"lat": 23.85820033029151, "lng": 86.41115618029151}, "southwest": {"lat": 23.8555023697085, "lng": 86.40845821970849}}}, "icon": "https://maps.gstatic.com/mapfiles/place_api/icons/v1/png_71/school-71.png", "icon_background_color": "#7B9EB0", "icon_mask_base_uri": "https://maps.gstatic.com/mapfiles/place_api/icons/v2/school_pinlet", "name": "Middle School Phuphuwadih", "place_id": "ChIJIWtvldCk9jkR4wJmnLycqP8", "rating": 4, "reference": "ChIJIWtvldCk9jkR4wJmnLycqP8", "scope": "GOOGLE", "types": ["school", "point_of_interest", "establishment"], "user_ratings_total": 2, "vicinity": "VC45+PVQ, Udaypur"}, {"business_status": "OPERATIONAL", "geometry": {"location": {"lat": 23.8569399, "lng": 86.4097486}, "viewport": {"northeast": {"lat": 23.85825913029151, "lng": 86.41117728029151}, "southwest": {"lat": 23.8555611697085, "lng": 86.4084793197085}}}, "icon": "https://maps.gstatic.com/mapfiles/place_api/icons/v1/png_71/school-71.png", "icon_background_color": "#7B9EB0", "icon_mask_base_uri": "https://maps.gstatic.com/mapfiles/place_api/icons/v2/school_pinlet", "name": "Kalyanpur middle school", "photos": [{"height": 3456, "html_attributions": ["<a href=\"https://maps.google.com/maps/contrib/113678280613235812326\">Shubham Kumar</a>"], "photo_reference": "Aap_uECx_Cf-CJk3HXCJvWy2tk8vhSexGUaNochYEsdXgkT4wFc4FEPjyNC56RcmEbyWhK3BS4tU6902nMURShzFVzAfRKF18XYZu2WkceJ_nw1WKUP9mWU4wqFTtcszEB0EdZJAtMrKgZTqvBe07NSC_LVbucyQZfv7QA1_SUSl37t4J8qI", "width": 4608}], "place_id": "ChIJr0O4sCyl9jkRJvTHYXjyEig", "rating": 3.3, "reference": "ChIJr0O4sCyl9jkRJvTHYXjyEig", "scope": "GOOGLE", "types": ["school", "point_of_interest", "establishment"], "user_ratings_total": 3, "vicinity": "VC45+QVH, Udaypur"}, {"business_status": "OPERATIONAL", "geometry": {"location": {"lat": 23.8429912, "lng": 86.41327199999999}, "viewport": {"northeast": {"lat": 23.8443227802915, "lng": 86.41462133029151}, "southwest": {"lat": 23.8416248197085, "lng": 86.4119233697085}}}, "icon": "https://maps.gstatic.com/mapfiles/place_api/icons/v1/png_71/school-71.png", "icon_background_color": "#7B9EB0", "icon_mask_base_uri": "https://maps.gstatic.com/mapfiles/place_api/icons/v2/school_pinlet", "name": "\u0906\u0917\u0935\u093e\u095c\u0940 \u0915\u0947\u0902\u0926\u094d\u0930 \u0915\u0941\u0930\u094d\u092e\u0940\u0921\u0940\u0939 2", "place_id": "ChIJR0eivEal9jkRPRce8P9tO74", "rating": 5, "reference": "ChIJR0eivEal9jkRPRce8P9tO74", "scope": "GOOGLE", "types": ["school", "point_of_interest", "establishment"], "user_ratings_total": 1, "vicinity": "RCV7+58R, Kurmidih"}, {"business_status": "OPERATIONAL", "geometry": {"location": {"lat": 23.8534675, "lng": 86.4165956}, "viewport": {"northeast": {"lat": 23.8551112302915, "lng": 86.41801513029151}, "southwest": {"lat": 23.8524132697085, "lng": 86.4153171697085}}}, "icon": "https://maps.gstatic.com/mapfiles/place_api/icons/v1/png_71/school-71.png", "icon_background_color": "#7B9EB0", "icon_mask_base_uri": "https://maps.gstatic.com/mapfiles/place_api/icons/v2/school_pinlet", "name": "\u0906\u0935\u093e\u0938\u0940\u092f \u091c\u094d\u091e\u093e\u0928\u0926\u093e \u0935\u093f\u0926\u094d\u092f\u093e\u092a\u0940\u0920 \u0932\u094b\u0939\u093e\u0930 \u092c\u0930\u0935\u093e\u0905\u0921\u094d\u0921\u093e \u0927\u0928\u092c\u093e\u0926", "opening_hours": {"open_now": true}, "photos": [{"height": 1080, "html_attributions": ["<a href=\"https://maps.google.com/maps/contrib/100896187819109763188\">DKM DHANBAD</a>"], "photo_reference": "Aap_uEADOzp0_t7FKc8JHdTwgUO9uyLe67UiNukpqCCDlG0nGNf7cwbT6MYSPkvrxR4ZSYdPireDtdlQS3O8_9DJD7GpA8LIUEV78X3ag8K3xfUWkFcDf3QiJIxrYMRejezsG40DQInXOlNVRo_6rdRUF7WqEVdMybrpL4AK6kgaICraeFtS", "width": 1920}], "place_id": "ChIJM2JvWY2l9jkR9f3hdaG1C54", "plus_code": {"compound_code": "VC38+9J Damkarabarwa, Jharkhand, India", "global_code": "7MM8VC38+9J"}, "rating": 5, "reference": "ChIJM2JvWY2l9jkR9f3hdaG1C54", "scope": "GOOGLE", "types": ["school", "point_of_interest", "establishment"], "user_ratings_total": 1, "vicinity": "Lohar Barwa More, Damkarabarwa"}, {"business_status": "OPERATIONAL", "geometry": {"location": {"lat": 23.8538086, "lng": 86.39486959999999}, "viewport": {"northeast": {"lat": 23.85518058029151, "lng": 86.3961180302915}, "southwest": {"lat": 23.8524826197085, "lng": 86.3934200697085}}}, "icon": "https://maps.gstatic.com/mapfiles/place_api/icons/v1/png_71/school-71.png", "icon_background_color": "#7B9EB0", "icon_mask_base_uri": "https://maps.gstatic.com/mapfiles/place_api/icons/v2/school_pinlet", "name": "HOLY CHILD PUBLIC SCHOOL", "photos": [{"height": 1080, "html_attributions": ["<a href=\"https://maps.google.com/maps/contrib/101050701003861353222\">HOLY CHILD PUBLIC SCHOOL</a>"], "photo_reference": "Aap_uEBrqIBUYTOgFYOLQMg2oRpQ8ihmqor2GHTqswhWYtMeJ8ZdtFvxAJBeqS0AoBWprKJ-YGm2UqpOvo3M-PFWgMEQN5OOamlgJ_lZVYevU-ZTkvOh1fKC84RHBTCVMr7m5Plahv8DiUTS3TqOw1n7qxi4Fc6cwMJxFsPmNawrATRNLYRd", "width": 1920}], "place_id": "ChIJGWb3gwul9jkRPzPvNE4k3hg", "plus_code": {"compound_code": "V93V+GW Udaypur, Jharkhand, India", "global_code": "7MM8V93V+GW"}, "rating": 5, "reference": "ChIJGWb3gwul9jkRPzPvNE4k3hg", "scope": "GOOGLE", "types": ["school", "point_of_interest", "establishment"], "user_ratings_total": 1, "vicinity": "Unnamed Road, Udaypur"}, {"business_status": "OPERATIONAL", "geometry": {"location": {"lat": 23.8572677, "lng": 86.3975464}, "viewport": {"northeast": {"lat": 23.8589859302915, "lng": 86.3989888802915}, "southwest": {"lat": 23.8562879697085, "lng": 86.39629091970849}}}, "icon": "https://maps.gstatic.com/mapfiles/place_api/icons/v1/png_71/school-71.png", "icon_background_color": "#7B9EB0", "icon_mask_base_uri": "https://maps.gstatic.com/mapfiles/place_api/icons/v2/school_pinlet", "name": "Aims Academy", "place_id": "ChIJg8bWReek9jkRLLDA9S65XyM", "rating": 3, "reference": "ChIJg8bWReek9jkRLLDA9S65XyM", "scope": "GOOGLE", "types": ["school", "point_of_interest", "establishment"], "user_ratings_total": 2, "vicinity": "V94X+W23, Udaypur"}, {"business_status": "OPERATIONAL", "geometry": {"location": {"lat": 23.8510991, "lng": 86.3931601}, "viewport": {"northeast": {"lat": 23.8524440802915, "lng": 86.3945082802915}, "southwest": {"lat": 23.8497461197085, "lng": 86.3918103197085}}}, "icon": "https://maps.gstatic.com/mapfiles/place_api/icons/v1/png_71/school-71.png", "icon_background_color": "#7B9EB0", "icon_mask_base_uri": "https://maps.gstatic.com/mapfiles/place_api/icons/v2/school_pinlet", "name": "Middle School Udaypur Dhanbad", "place_id": "ChIJxfoVTO-k9jkR9fojaJWOZe4", "rating": 5, "reference": "ChIJxfoVTO-k9jkR9fojaJWOZe4", "scope": "GOOGLE", "types": ["school", "point_of_interest", "establishment"], "user_ratings_total": 1, "vicinity": "V92V+C7M, Udaypur"}, {"business_status": "OPERATIONAL", "geometry": {"location": {"lat": 23.8606944, "lng": 86.4105024}, "viewport": {"northeast": {"lat": 23.8620049802915, "lng": 86.4122598802915}, "southwest": {"lat": 23.8593070197085, "lng": 86.4095619197085}}}, "icon": "https://maps.gstatic.com/mapfiles/place_api/icons/v1/png_71/school-71.png", "icon_background_color": "#7B9EB0", "icon_mask_base_uri": "https://maps.gstatic.com/mapfiles/place_api/icons/v2/school_pinlet", "name": "Soni Studio", "place_id": "ChIJoQIAENek9jkRAAAA0Dayyho", "plus_code": {"compound_code": "VC66+76 Kalyanpur, Jharkhand, India", "global_code": "7MM8VC66+76"}, "reference": "ChIJoQIAENek9jkRAAAA0Dayyho", "scope": "GOOGLE", "types": ["school", "point_of_interest", "establishment"], "vicinity": "Jorapipal Karmagora, Po, Kalyanpur"}, {"business_status": "CLOSED_TEMPORARILY", "geometry": {"location": {"lat": 23.8542092, "lng": 86.4184137}, "viewport": {"northeast": {"lat": 23.85555168029151, "lng": 86.41979053029151}, "southwest": {"lat": 23.8528537197085, "lng": 86.4170925697085}}}, "icon": "https://maps.gstatic.com/mapfiles/place_api/icons/v1/png_71/school-71.png", "icon_background_color": "#7B9EB0", "icon_mask_base_uri": "https://maps.gstatic.com/mapfiles/place_api/icons/v2/school_pinlet", "name": "Little Champs Play School", "permanently_closed": true, "photos": [{"height": 3024, "html_attributions": ["<a href=\"https://maps.google.com/maps/contrib/105472980524960378965\">Niraj Kumar</a>"], "photo_reference": "Aap_uEB2NggzuXkF_CutMQu_goBznFAvM2NJqt6sp0xBBx_ulh00eQVn1WytCHbgPM8tiR15Jx-uuldzCl0vk6PbY3GkLd76nt0tmrRsBuvUNNIk4lWc849TlZCNhyglfsCGBP0TKmcoqvS8CmwMJWP9kU9njKRou0EzIDBLXFLmp-Ghs1VI", "width": 4032}], "place_id": "ChIJs534ydKk9jkR-J5-evTyGbU", "plus_code": {"compound_code": "VC39+M9 Dhanbad, Jharkhand, India", "global_code": "7MM8VC39+M9"}, "rating": 5, "reference": "ChIJs534ydKk9jkR-J5-evTyGbU", "scope": "GOOGLE", "types": ["school", "point_of_interest", "establishment"], "user_ratings_total": 17, "vicinity": "Loharbarwa, Barwadda, Dhaiya, Dhanbad"}], "status": "OK"}