{"html_attributions": [], "results": [{"business_status": "OPERATIONAL", "geometry": {"location": {"lat": 23.4894194, "lng": 86.4309042}, "viewport": {"northeast": {"lat": 23.4908270302915, "lng": 86.4322072802915}, "southwest": {"lat": 23.4881290697085, "lng": 86.42950931970849}}}, "icon": "https://maps.gstatic.com/mapfiles/place_api/icons/v1/png_71/school-71.png", "icon_background_color": "#7B9EB0", "icon_mask_base_uri": "https://maps.gstatic.com/mapfiles/place_api/icons/v2/school_pinlet", "name": "Bhalagora Jr High School, Para, West Bengal.", "place_id": "ChIJRRV9jpyP9jkR_yUzRfmE5r4", "rating": 5, "reference": "ChIJRRV9jpyP9jkR_yUzRfmE5r4", "scope": "GOOGLE", "types": ["school", "point_of_interest", "establishment"], "user_ratings_total": 1, "vicinity": "FCQJ+Q96, Bhalagara"}, {"business_status": "OPERATIONAL", "geometry": {"location": {"lat": 23.4891715, "lng": 86.4310192}, "viewport": {"northeast": {"lat": 23.4905094802915, "lng": 86.43239773029151}, "southwest": {"lat": 23.4878115197085, "lng": 86.4296997697085}}}, "icon": "https://maps.gstatic.com/mapfiles/place_api/icons/v1/png_71/school-71.png", "icon_background_color": "#7B9EB0", "icon_mask_base_uri": "https://maps.gstatic.com/mapfiles/place_api/icons/v2/school_pinlet", "name": "Bhalagora Jr High School", "place_id": "ChIJtQHkqguP9jkRnKxuX16WNVM", "reference": "ChIJtQHkqguP9jkRnKxuX16WNVM", "scope": "GOOGLE", "types": ["school", "point_of_interest", "establishment"], "vicinity": "FCQJ+MC6, Bhalagara"}, {"business_status": "OPERATIONAL", "geometry": {"location": {"lat": 23.4892645, "lng": 86.43108099999999}, "viewport": {"northeast": {"lat": 23.4905753802915, "lng": 86.43241523029151}, "southwest": {"lat": 23.4878774197085, "lng": 86.4297172697085}}}, "icon": "https://maps.gstatic.com/mapfiles/place_api/icons/v1/png_71/school-71.png", "icon_background_color": "#7B9EB0", "icon_mask_base_uri": "https://maps.gstatic.com/mapfiles/place_api/icons/v2/school_pinlet", "name": "Bhalagora Primary School", "place_id": "ChIJ82N-Uz6P9jkRn_7IFAeqLq0", "plus_code": {"compound_code": "FCQJ+PC Para, West Bengal, India", "global_code": "7MM8FCQJ+PC"}, "reference": "ChIJ82N-Uz6P9jkRn_7IFAeqLq0", "scope": "GOOGLE", "types": ["school", "point_of_interest", "establishment"], "vicinity": "Bhalagora, Para"}, {"business_status": "OPERATIONAL", "geometry": {"location": {"lat": 23.48581699999999, "lng": 86.4203323}, "viewport": {"northeast": {"lat": 23.4872266302915, "lng": 86.42171558029149}, "southwest": {"lat": 23.48452866970849, "lng": 86.41901761970848}}}, "icon": "https://maps.gstatic.com/mapfiles/place_api/icons/v1/png_71/school-71.png", "icon_background_color": "#7B9EB0", "icon_mask_base_uri": "https://maps.gstatic.com/mapfiles/place_api/icons/v2/school_pinlet", "name": "Chalka Primary School", "place_id": "ChIJH7E7eWyP9jkRmCkqh-klHFE", "reference": "ChIJH7E7eWyP9jkRmCkqh-klHFE", "scope": "GOOGLE", "types": ["school", "point_of_interest", "establishment"], "vicinity": "FCPC+84G, Chalka"}, {"business_status": "OPERATIONAL", "geometry": {"location": {"lat": 23.4955067, "lng": 86.4280704}, "viewport": {"northeast": {"lat": 23.4968327302915, "lng": 86.42946163029151}, "southwest": {"lat": 23.4941347697085, "lng": 86.4267636697085}}}, "icon": "https://maps.gstatic.com/mapfiles/place_api/icons/v1/png_71/school-71.png", "icon_background_color": "#7B9EB0", "icon_mask_base_uri": "https://maps.gstatic.com/mapfiles/place_api/icons/v2/school_pinlet", "name": "Hurrah Primary School", "place_id": "ChIJ67AdRYWP9jkRqd7w6czUsfI", "rating": 5, "reference": "ChIJ67AdRYWP9jkRqd7w6czUsfI", "scope": "GOOGLE", "types": ["school", "point_of_interest", "establishment"], "user_ratings_total": 1, "vicinity": "FCWH+664, Chaktor"}, {"business_status": "OPERATIONAL", "geometry": {"location": {"lat": 23.4971789, "lng": 86.4301473}, "viewport": {"northeast": {"lat": 23.4985365302915, "lng": 86.43152433029151}, "southwest": {"lat": 23.4958385697085, "lng": 86.4288263697085}}}, "icon": "https://maps.gstatic.com/mapfiles/place_api/icons/v1/png_71/school-71.png", "icon_background_color": "#7B9EB0", "icon_mask_base_uri": "https://maps.gstatic.com/mapfiles/place_api/icons/v2/school_pinlet", "name": "Hurrah New Pry School", "place_id": "ChIJKcdYy32P9jkRkuZEMdurYk8", "plus_code": {"compound_code": "FCWJ+V3 Chaktor, West Bengal, India", "global_code": "7MM8FCWJ+V3"}, "reference": "ChIJKcdYy32P9jkRkuZEMdurYk8", "scope": "GOOGLE", "types": ["school", "point_of_interest", "establishment"], "vicinity": "village-Hurrah, Post-udaypur,Dist - Purulia"}, {"business_status": "OPERATIONAL", "geometry": {"location": {"lat": 23.4774383, "lng": 86.42634780000002}, "viewport": {"northeast": {"lat": 23.4787871802915, "lng": 86.42769878029151}, "southwest": {"lat": 23.47608921970849, "lng": 86.4250008197085}}}, "icon": "https://maps.gstatic.com/mapfiles/place_api/icons/v1/png_71/school-71.png", "icon_background_color": "#7B9EB0", "icon_mask_base_uri": "https://maps.gstatic.com/mapfiles/place_api/icons/v2/school_pinlet", "name": "Panduka JBS", "place_id": "ChIJ-S5cB0-P9jkROj_C13qQHHo", "reference": "ChIJ-S5cB0-P9jkROj_C13qQHHo", "scope": "GOOGLE", "types": ["primary_school", "school", "point_of_interest", "establishment"], "vicinity": "FCGG+XGH, Panruka"}], "status": "OK"}