{"html_attributions": [], "next_page_token": "Aap_uED4bACCrpAcjPG6cTq-kk_SoFtQLddIQLf7cuLSwTyhMnHVPFk3Z4w1145M1JJVLfrLGKwU093gmsKPe1uy_wl2UA7maW8AYheUoksGhERioIQ73vbJmIn9XoJs4GdKffFlUix4cpmH_LLHjtbJjxLbygUe3HhkixWIFYE5P-mCSa3jF27XH0mR1BNcN1Gip6vj4l03OKBhOSqyz4MA9XhOZfdUNc6pXfbzXiBFli0IMr5YuBAM6MSJmjJcTdC4KNNr4C516YzamX_nU8Q0tkDU-WHmp7fKux5NfCy8MUVeLRDtpFUX4b57spTDiAIn3vVLbMICFrAhutIp2EexMd3fds_kF7G-xd-su3mdiddPfFlgxGkruzgtdshclDeqGGNiVHKaETiL-OrORxm4DJsDeWuVsfIVFCRaD4SdSReq1wsP0g4", "results": [{"business_status": "OPERATIONAL", "geometry": {"location": {"lat": 23.8379236, "lng": 86.4212616}, "viewport": {"northeast": {"lat": 23.8392936802915, "lng": 86.4226141802915}, "southwest": {"lat": 23.8365957197085, "lng": 86.4199162197085}}}, "icon": "https://maps.gstatic.com/mapfiles/place_api/icons/v1/png_71/school-71.png", "icon_background_color": "#7B9EB0", "icon_mask_base_uri": "https://maps.gstatic.com/mapfiles/place_api/icons/v2/school_pinlet", "name": "Ambition Convent School", "place_id": "ChIJ_____0q79jkR8gkHPh2Qxvk", "reference": "ChIJ_____0q79jkR8gkHPh2Qxvk", "scope": "GOOGLE", "types": ["school", "point_of_interest", "establishment"], "vicinity": "RCQC+5G6, Kurmidih"}, {"business_status": "OPERATIONAL", "geometry": {"location": {"lat": 23.829155, "lng": 86.4147902}, "viewport": {"northeast": {"lat": 23.8306133802915, "lng": 86.41623048029152}, "southwest": {"lat": 23.8279154197085, "lng": 86.4135325197085}}}, "icon": "https://maps.gstatic.com/mapfiles/place_api/icons/v1/png_71/school-71.png", "icon_background_color": "#7B9EB0", "icon_mask_base_uri": "https://maps.gstatic.com/mapfiles/place_api/icons/v2/school_pinlet", "name": "Internaitonal school of learning", "opening_hours": {"open_now": true}, "photos": [{"height": 1498, "html_attributions": ["<a href=\"https://maps.google.com/maps/contrib/102162128350002407330\">SWEETY KUMARI</a>"], "photo_reference": "Aap_uEDQ2jXHVPvOo2gIzYJSzD5m--R1Ie_BG4kYC0ctQDIvx0sAJEyuFiOR81NhkDDwhl6FM5aClyC55HKjVQV81kxlTimxgq576socHFUIXr5PO1bw51zj0PmtCgVdZWG26gXiy6fYmL_ZxslAE4bz-44m95q62_Th6He3n3rBYIGbgdAe", "width": 1600}], "place_id": "ChIJ41x0C7Kk9jkREAfKKnId-JM", "rating": 3.9, "reference": "ChIJ41x0C7Kk9jkREAfKKnId-JM", "scope": "GOOGLE", "types": ["school", "point_of_interest", "establishment"], "user_ratings_total": 49, "vicinity": "RCH7+MW7, Dhanbad"}, {"business_status": "OPERATIONAL", "geometry": {"location": {"lat": 23.8354491, "lng": 86.43474599999999}, "viewport": {"northeast": {"lat": 23.8368093302915, "lng": 86.43609803029149}, "southwest": {"lat": 23.8341113697085, "lng": 86.43340006970848}}}, "icon": "https://maps.gstatic.com/mapfiles/place_api/icons/v1/png_71/school-71.png", "icon_background_color": "#7B9EB0", "icon_mask_base_uri": "https://maps.gstatic.com/mapfiles/place_api/icons/v2/school_pinlet", "name": "Vananchal Public School", "place_id": "ChIJA6niWEG79jkRZ3FrZyrGaDI", "plus_code": {"compound_code": "RCPM+5V Dhanbad, Jharkhand, India", "global_code": "7MM8RCPM+5V"}, "rating": 5, "reference": "ChIJA6niWEG79jkRZ3FrZyrGaDI", "scope": "GOOGLE", "types": ["school", "point_of_interest", "establishment"], "user_ratings_total": 1, "vicinity": "Sushnilewa, Dhaiya, Dhanbad"}, {"business_status": "OPERATIONAL", "geometry": {"location": {"lat": 23.8327151, "lng": 86.4389345}, "viewport": {"northeast": {"lat": 23.8340223802915, "lng": 86.44035428029152}, "southwest": {"lat": 23.83132441970849, "lng": 86.43765631970851}}}, "icon": "https://maps.gstatic.com/mapfiles/place_api/icons/v1/png_71/school-71.png", "icon_background_color": "#7B9EB0", "icon_mask_base_uri": "https://maps.gstatic.com/mapfiles/place_api/icons/v2/school_pinlet", "name": "Kamal Katesaria Montessori School", "opening_hours": {"open_now": true}, "photos": [{"height": 2592, "html_attributions": ["<a href=\"https://maps.google.com/maps/contrib/106910895203675108873\">A</a>"], "photo_reference": "Aap_uEA0tEbJTCowrQO8YSkEkB_g5oPv2zBKpjPEhR96aDqjqjisjB4zFomTVEs_ERQnQ4huvhueSYc0_eDgazMaFNrWQj2J_tokdtGAy_PQnYsDBdwQyGJ4vJluwbZCfi1TOiHIHEXaZIDc9hXXm3f2eo83yHG6Bcg8SfevhbDzO_65bF4C", "width": 4608}], "place_id": "ChIJp-f31Wm79jkRH4lrLzX3x8Q", "plus_code": {"compound_code": "RCMQ+3H Dhanbad, Jharkhand, India", "global_code": "7MM8RCMQ+3H"}, "rating": 3.5, "reference": "ChIJp-f31Wm79jkRH4lrLzX3x8Q", "scope": "GOOGLE", "types": ["school", "point_of_interest", "establishment"], "user_ratings_total": 28, "vicinity": "near Memco, University More, Bhiphore Hirak Rd, Satyam Nagar, near Memco, Chowk, Dhanbad"}, {"business_status": "OPERATIONAL", "geometry": {"location": {"lat": 23.8289282, "lng": 86.42816359999999}, "viewport": {"northeast": {"lat": 23.8302678802915, "lng": 86.4295367302915}, "southwest": {"lat": 23.8275699197085, "lng": 86.4268387697085}}}, "icon": "https://maps.gstatic.com/mapfiles/place_api/icons/v1/png_71/school-71.png", "icon_background_color": "#7B9EB0", "icon_mask_base_uri": "https://maps.gstatic.com/mapfiles/place_api/icons/v2/school_pinlet", "name": "School of Wisdom", "opening_hours": {"open_now": false}, "photos": [{"height": 672, "html_attributions": ["<a href=\"https://maps.google.com/maps/contrib/102582508277327802082\">School of Wisdom</a>"], "photo_reference": "Aap_uECHdmMix0vUsUP0bJabGVGsgpxbQImXZwFfj67KBMy_3Zp2y3Ht0_NFnui13ilp94NxnZmexQG7NUD-1Rb-3obObNcS5vMOsvywcY86z0vwINDwfn0iaQgJOjc8ZRtlM57jrsQJBVwAH1hQpI0nGnRqSEsU4nWME1QBqwtvG7EI_9Uk", "width": 1200}], "place_id": "ChIJy191DoO79jkRgPUn13RYu0A", "plus_code": {"compound_code": "RCHH+H7 Dhanbad, Jharkhand, India", "global_code": "7MM8RCHH+H7"}, "rating": 5, "reference": "ChIJy191DoO79jkRgPUn13RYu0A", "scope": "GOOGLE", "types": ["school", "point_of_interest", "establishment"], "user_ratings_total": 4, "vicinity": "Ice-Cream Factory,Thakur kulhi, Dhaiya, Dhanbad"}, {"business_status": "OPERATIONAL", "geometry": {"location": {"lat": 23.8326255, "lng": 86.4256731}, "viewport": {"northeast": {"lat": 23.83399753029151, "lng": 86.4270207802915}, "southwest": {"lat": 23.8312995697085, "lng": 86.4243228197085}}}, "icon": "https://maps.gstatic.com/mapfiles/place_api/icons/v1/png_71/school-71.png", "icon_background_color": "#7B9EB0", "icon_mask_base_uri": "https://maps.gstatic.com/mapfiles/place_api/icons/v2/school_pinlet", "name": "Izon center", "place_id": "ChIJmTD8UB679jkRR6KqmIeUOsM", "plus_code": {"compound_code": "RCMG+37 Dhanbad, Jharkhand, India", "global_code": "7MM8RCMG+37"}, "reference": "ChIJmTD8UB679jkRR6KqmIeUOsM", "scope": "GOOGLE", "types": ["school", "point_of_interest", "establishment"], "vicinity": "Memco Road, Chanchani Colony, Dhanbad"}, {"business_status": "OPERATIONAL", "geometry": {"location": {"lat": 23.8320346, "lng": 86.4288244}, "viewport": {"northeast": {"lat": 23.8334100302915, "lng": 86.43019203029151}, "southwest": {"lat": 23.8307120697085, "lng": 86.4274940697085}}}, "icon": "https://maps.gstatic.com/mapfiles/place_api/icons/v1/png_71/school-71.png", "icon_background_color": "#7B9EB0", "icon_mask_base_uri": "https://maps.gstatic.com/mapfiles/place_api/icons/v2/school_pinlet", "name": "Tejash Transport", "opening_hours": {"open_now": false}, "photos": [{"height": 900, "html_attributions": ["<a href=\"https://maps.google.com/maps/contrib/117451643387571197221\">1984rinku kumar</a>"], "photo_reference": "Aap_uEB9SX5NeBzvITPWJI43f5Nyj3a4XKTyrFTojCN45-vuXfwaCfQLvWUhq6H4MHh4VfGplKFoVH9cTJURWp5TD9vgT3C_X5wPYzYKFIp68CIpvxZ8lU1MvfLHr5qAAgFEypp8d8643udYph__gVg3t8cYQhLtuuQw6-qPGsZ21sgUvERR", "width": 1812}], "place_id": "ChIJx1D54b279jkRZCYFz2_vCgg", "plus_code": {"compound_code": "RCJH+RG Dhanbad, Jharkhand, India", "global_code": "7MM8RCJH+RG"}, "reference": "ChIJx1D54b279jkRZCYFz2_vCgg", "scope": "GOOGLE", "types": ["school", "point_of_interest", "establishment"], "vicinity": "memko, more, Dhanbad"}, {"business_status": "OPERATIONAL", "geometry": {"location": {"lat": 23.83199699999999, "lng": 86.4288945}, "viewport": {"northeast": {"lat": 23.83337313029149, "lng": 86.43026088029151}, "southwest": {"lat": 23.83067516970849, "lng": 86.4275629197085}}}, "icon": "https://maps.gstatic.com/mapfiles/place_api/icons/v1/png_71/school-71.png", "icon_background_color": "#7B9EB0", "icon_mask_base_uri": "https://maps.gstatic.com/mapfiles/place_api/icons/v2/school_pinlet", "name": "Ananda marga school", "place_id": "ChIJdesAdXe79jkRwHqDJHLxBlM", "reference": "ChIJdesAdXe79jkRwHqDJHLxBlM", "scope": "GOOGLE", "types": ["school", "point_of_interest", "establishment"], "vicinity": "RCJH+QHR, Memclub bhalukbindha"}, {"business_status": "OPERATIONAL", "geometry": {"location": {"lat": 23.8339488, "lng": 86.42600660000001}, "viewport": {"northeast": {"lat": 23.8355827802915, "lng": 86.42721193029152}, "southwest": {"lat": 23.8328848197085, "lng": 86.4245139697085}}}, "icon": "https://maps.gstatic.com/mapfiles/place_api/icons/v1/png_71/school-71.png", "icon_background_color": "#7B9EB0", "icon_mask_base_uri": "https://maps.gstatic.com/mapfiles/place_api/icons/v2/school_pinlet", "name": "Kasturba.G.B.V. Baliapur", "place_id": "ChIJe872aey79jkRUaMj3KssYME", "plus_code": {"compound_code": "RCMG+HC Kurmidih, Jharkhand, India", "global_code": "7MM8RCMG+HC"}, "reference": "ChIJe872aey79jkRUaMj3KssYME", "scope": "GOOGLE", "types": ["school", "point_of_interest", "establishment"], "vicinity": "Hawai patti Road, Baliapur"}, {"business_status": "OPERATIONAL", "geometry": {"location": {"lat": 23.8284464, "lng": 86.4320625}, "viewport": {"northeast": {"lat": 23.8298159302915, "lng": 86.43343758029151}, "southwest": {"lat": 23.8271179697085, "lng": 86.4307396197085}}}, "icon": "https://maps.gstatic.com/mapfiles/place_api/icons/v1/png_71/school-71.png", "icon_background_color": "#7B9EB0", "icon_mask_base_uri": "https://maps.gstatic.com/mapfiles/place_api/icons/v2/school_pinlet", "name": "GLOBAL KIDS DHANBAD", "opening_hours": {"open_now": false}, "photos": [{"height": 580, "html_attributions": ["<a href=\"https://maps.google.com/maps/contrib/110147763450748863777\">GLOBAL KIDS DHANBAD</a>"], "photo_reference": "Aap_uEDChdJmvkLGpWow_TKTOwFINjyO2TMBp0kq7u6yfqBgD1kxiO8GwwvhJMTCSMt6yI119cwZG2URNyt4CQgkbYE-JQnj_i96XrriM0heDwCsfytk6K73Mdebln68c6KkrptqJUfnkOpZ-1NO1ZS5IZl2rIUnTo2qkdoZLiD0nIBwUR3W", "width": 1032}], "place_id": "ChIJMUAktz279jkRRbKoLi70LAo", "plus_code": {"compound_code": "RCHJ+9R Dhanbad, Jharkhand, India", "global_code": "7MM8RCHJ+9R"}, "rating": 5, "reference": "ChIJMUAktz279jkRRbKoLi70LAo", "scope": "GOOGLE", "types": ["school", "point_of_interest", "establishment"], "user_ratings_total": 3, "vicinity": "Dhruv Singh Colony Rahargora, Nagnagar, Dhaiya, Dhanbad"}, {"business_status": "OPERATIONAL", "geometry": {"location": {"lat": 23.8316188, "lng": 86.43259060000001}, "viewport": {"northeast": {"lat": 23.8329707802915, "lng": 86.4339461802915}, "southwest": {"lat": 23.8302728197085, "lng": 86.43124821970848}}}, "icon": "https://maps.gstatic.com/mapfiles/place_api/icons/v1/png_71/school-71.png", "icon_background_color": "#7B9EB0", "icon_mask_base_uri": "https://maps.gstatic.com/mapfiles/place_api/icons/v2/school_pinlet", "name": "Jay Veena Shikshan Sansthan", "photos": [{"height": 2592, "html_attributions": ["<a href=\"https://maps.google.com/maps/contrib/116324918215242298182\">amit sharma</a>"], "photo_reference": "Aap_uECQiFW8ioMVD7igvMsNw9m-4nGd-vd6OybaNgfFQRi7o_i89cUWGFnOms-ASv6S8LthLQy0wQp453oP8e9aCuJt-yEfowIMH_fhYME9jjWa0N077Y5OH0FlDHNK29cNrb6LynZaXE_dwyL2NAeptoETGoz0MBLCK9TiivcCyabj-s2Z", "width": 1944}], "place_id": "ChIJkYjWy0i79jkRWQERYawMIMU", "plus_code": {"compound_code": "RCJM+J2 Dhanbad, Jharkhand, India", "global_code": "7MM8RCJM+J2"}, "rating": 4, "reference": "ChIJkYjWy0i79jkRWQERYawMIMU", "scope": "GOOGLE", "types": ["school", "point_of_interest", "establishment"], "user_ratings_total": 3, "vicinity": "Barwaada Road, Vigyan Vihar Colony, Dhanbad"}, {"business_status": "OPERATIONAL", "geometry": {"location": {"lat": 23.826519, "lng": 86.4332481}, "viewport": {"northeast": {"lat": 23.8279858802915, "lng": 86.4343590802915}, "southwest": {"lat": 23.82528791970849, "lng": 86.4316611197085}}}, "icon": "https://maps.gstatic.com/mapfiles/place_api/icons/v1/png_71/school-71.png", "icon_background_color": "#7B9EB0", "icon_mask_base_uri": "https://maps.gstatic.com/mapfiles/place_api/icons/v2/school_pinlet", "name": "VOICE IIT ISM Dhanbad", "place_id": "ChIJtaIYnIy79jkR_lQwr5rQ30U", "rating": 5, "reference": "ChIJtaIYnIy79jkR_lQwr5rQ30U", "scope": "GOOGLE", "types": ["school", "point_of_interest", "establishment"], "user_ratings_total": 1, "vicinity": "RCGM+J75, Chanchani Colony, Dhanbad"}, {"business_status": "OPERATIONAL", "geometry": {"location": {"lat": 23.8235434, "lng": 86.43110349999999}, "viewport": {"northeast": {"lat": 23.82490273029151, "lng": 86.4324157302915}, "southwest": {"lat": 23.8222047697085, "lng": 86.42971776970849}}}, "icon": "https://maps.gstatic.com/mapfiles/place_api/icons/v1/png_71/school-71.png", "icon_background_color": "#7B9EB0", "icon_mask_base_uri": "https://maps.gstatic.com/mapfiles/place_api/icons/v2/school_pinlet", "name": "Gayatri Vidya Mandir", "photos": [{"height": 2000, "html_attributions": ["<a href=\"https://maps.google.com/maps/contrib/114971121127148444740\">Gayatri Vidya Mandir</a>"], "photo_reference": "Aap_uECDL-QstNYCg4Cci0Sc7yNNW59S4-FfWaE07bKTijxn05r3Xmb-jvUynny0IfOmOi9VI6LZaD0QVUmHq_oZ84JogK6Lq6ANtMc9KcLHRYogoFV_zIpSuOX4HfDL8Pgjm5mcHTTpqhQvo_QcayPEUD2sjsELQFBzsmoeVOz3wrCeUKwk", "width": 4000}], "place_id": "ChIJf4kZwTK79jkRFcoPtTShOog", "plus_code": {"compound_code": "RCFJ+CC Dhanbad, Jharkhand, India", "global_code": "7MM8RCFJ+CC"}, "rating": 5, "reference": "ChIJf4kZwTK79jkRFcoPtTShOog", "scope": "GOOGLE", "types": ["school", "point_of_interest", "establishment"], "user_ratings_total": 2, "vicinity": "Thakur Kulhi, Dhaiya, Dhanbad"}, {"business_status": "OPERATIONAL", "geometry": {"location": {"lat": 23.8219272, "lng": 86.4276302}, "viewport": {"northeast": {"lat": 23.8232725302915, "lng": 86.4290165802915}, "southwest": {"lat": 23.8205745697085, "lng": 86.4263186197085}}}, "icon": "https://maps.gstatic.com/mapfiles/place_api/icons/v1/png_71/school-71.png", "icon_background_color": "#7B9EB0", "icon_mask_base_uri": "https://maps.gstatic.com/mapfiles/place_api/icons/v2/school_pinlet", "name": "Aanganbari", "place_id": "ChIJ27m5tpy79jkRUptMK4quZKE", "plus_code": {"compound_code": "RCCH+Q3 Dhanbad, Jharkhand, India", "global_code": "7MM8RCCH+Q3"}, "reference": "ChIJ27m5tpy79jkRUptMK4quZKE", "scope": "GOOGLE", "types": ["school", "point_of_interest", "establishment"], "vicinity": "Thakur kulhi, Dhaiya, Dhanbad"}, {"business_status": "OPERATIONAL", "geometry": {"location": {"lat": 23.828015, "lng": 86.4341067}, "viewport": {"northeast": {"lat": 23.8293558302915, "lng": 86.43539678029151}, "southwest": {"lat": 23.8266578697085, "lng": 86.4326988197085}}}, "icon": "https://maps.gstatic.com/mapfiles/place_api/icons/v1/png_71/school-71.png", "icon_background_color": "#7B9EB0", "icon_mask_base_uri": "https://maps.gstatic.com/mapfiles/place_api/icons/v2/school_pinlet", "name": "Kurmidih Barwaada", "place_id": "ChIJ25sqiTK79jkRyN_q5REQBn0", "rating": 1, "reference": "ChIJ25sqiTK79jkRyN_q5REQBn0", "scope": "GOOGLE", "types": ["school", "point_of_interest", "establishment"], "user_ratings_total": 1, "vicinity": "RCHM+6J5, Chanchani Colony, Dhanbad"}, {"business_status": "OPERATIONAL", "geometry": {"location": {"lat": 23.8220336, "lng": 86.4290734}, "viewport": {"northeast": {"lat": 23.8232840302915, "lng": 86.4303980302915}, "southwest": {"lat": 23.8205860697085, "lng": 86.4277000697085}}}, "icon": "https://maps.gstatic.com/mapfiles/place_api/icons/v1/png_71/school-71.png", "icon_background_color": "#7B9EB0", "icon_mask_base_uri": "https://maps.gstatic.com/mapfiles/place_api/icons/v2/school_pinlet", "name": "Aanganbadi Centre", "opening_hours": {"open_now": false}, "place_id": "ChIJl7pjy-y79jkRSGm9--IXYiU", "plus_code": {"compound_code": "RCCH+RJ Dhanbad, Jharkhand, India", "global_code": "7MM8RCCH+RJ"}, "reference": "ChIJl7pjy-y79jkRSGm9--IXYiU", "scope": "GOOGLE", "types": ["school", "point_of_interest", "establishment"], "vicinity": "Thakurkulih Road, Chanchani Colony, Dhanbad"}, {"business_status": "OPERATIONAL", "geometry": {"location": {"lat": 23.8326162, "lng": 86.4184197}, "viewport": {"northeast": {"lat": 23.8339132802915, "lng": 86.4198969302915}, "southwest": {"lat": 23.8312153197085, "lng": 86.41719896970848}}}, "icon": "https://maps.gstatic.com/mapfiles/place_api/icons/v1/png_71/school-71.png", "icon_background_color": "#7B9EB0", "icon_mask_base_uri": "https://maps.gstatic.com/mapfiles/place_api/icons/v2/school_pinlet", "name": "S.S Fabrication", "photos": [{"height": 1066, "html_attributions": ["<a href=\"https://maps.google.com/maps/contrib/103224129278675503921\">Md Saddam</a>"], "photo_reference": "Aap_uEAcIpiNDQQxFuNUWLBKHGMAfbQ43GvnALW-Y4d2Cs8M7U2aZLepUlSZc603pSM0FmOq11EC0IbHx59Devjbtp7AXViTMB8KOb_kkS9889WIKfv4D8wQt53NDaD59qIBFdCixizEXeMLo3wMPX8znraVqKxsduEC80MmUf6KYVgnk8Op", "width": 800}], "place_id": "ChIJadkf4lCl9jkRKqbrRi_uOq4", "plus_code": {"compound_code": "RCM9+29 Dhanbad, Jharkhand, India", "global_code": "7MM8RCM9+29"}, "rating": 1, "reference": "ChIJadkf4lCl9jkRKqbrRi_uOq4", "scope": "GOOGLE", "types": ["school", "point_of_interest", "establishment"], "user_ratings_total": 3, "vicinity": "Satyam Nagar, Dhanbad"}, {"business_status": "OPERATIONAL", "geometry": {"location": {"lat": 23.8333619, "lng": 86.43387179999999}, "viewport": {"northeast": {"lat": 23.8346020302915, "lng": 86.4352341302915}, "southwest": {"lat": 23.8319040697085, "lng": 86.43253616970848}}}, "icon": "https://maps.gstatic.com/mapfiles/place_api/icons/v1/png_71/school-71.png", "icon_background_color": "#7B9EB0", "icon_mask_base_uri": "https://maps.gstatic.com/mapfiles/place_api/icons/v2/school_pinlet", "name": "best mind gurukul school", "opening_hours": {"open_now": false}, "photos": [{"height": 673, "html_attributions": ["<a href=\"https://maps.google.com/maps/contrib/106088001534841698371\">best mind gurukul school</a>"], "photo_reference": "Aap_uEAnoZNc-m6Oh8RLxYEKVzXFhtyj6SDg-fe57PPN9NH1AEaV7eS0cIZ_oajj-7Z1dZ1AZRgW4Nvfk8i3lSmS18MmBv0YL30eb90JqxvUJwJzVdm93RmrT0CdJCiy-PQT4wg_S45NRF8-RQq_USnGYBuoE9r77rGx1OdQ7xsgXdZdgyb9", "width": 1200}], "place_id": "ChIJZavNd0S79jkR7PF7gs0Ycjw", "plus_code": {"compound_code": "RCMM+8G Dhanbad, Jharkhand, India", "global_code": "7MM8RCMM+8G"}, "rating": 5, "reference": "ChIJZavNd0S79jkR7PF7gs0Ycjw", "scope": "GOOGLE", "types": ["school", "point_of_interest", "establishment"], "user_ratings_total": 3, "vicinity": "Marble Palace, Bhiphore Hirak Road, Dhanbad"}, {"business_status": "OPERATIONAL", "geometry": {"location": {"lat": 23.836468, "lng": 86.43059300000002}, "viewport": {"northeast": {"lat": 23.8378189302915, "lng": 86.43195243029149}, "southwest": {"lat": 23.8351209697085, "lng": 86.42925446970848}}}, "icon": "https://maps.gstatic.com/mapfiles/place_api/icons/v1/png_71/school-71.png", "icon_background_color": "#7B9EB0", "icon_mask_base_uri": "https://maps.gstatic.com/mapfiles/place_api/icons/v2/school_pinlet", "name": "Aarti enterprise", "place_id": "ChIJgYNhDwy79jkRKNGkMCbHKUw", "plus_code": {"compound_code": "RCPJ+H6 Dhanbad, Jharkhand, India", "global_code": "7MM8RCPJ+H6"}, "reference": "ChIJgYNhDwy79jkRKNGkMCbHKUw", "scope": "GOOGLE", "types": ["school", "point_of_interest", "establishment"], "vicinity": "Tundi - Govindpur - Dhanbad Road, Barwadda, Satyam Nagar, Dhanbad"}, {"business_status": "OPERATIONAL", "geometry": {"location": {"lat": 23.8364319, "lng": 86.4203828}, "viewport": {"northeast": {"lat": 23.8378133302915, "lng": 86.42173108029151}, "southwest": {"lat": 23.8351153697085, "lng": 86.4190331197085}}}, "icon": "https://maps.gstatic.com/mapfiles/place_api/icons/v1/png_71/school-71.png", "icon_background_color": "#7B9EB0", "icon_mask_base_uri": "https://maps.gstatic.com/mapfiles/place_api/icons/v2/school_pinlet", "name": "Kurmidih \u0906\u0902\u0917\u0928\u092c\u093e\u0921\u093c\u0940", "place_id": "ChIJV1W1xvu79jkRG_5naeoXfk4", "reference": "ChIJV1W1xvu79jkRG_5naeoXfk4", "scope": "GOOGLE", "types": ["school", "point_of_interest", "establishment"], "vicinity": "RCPC+H5C, Kurmidih"}], "status": "OK"}