{"html_attributions": [], "next_page_token": "Aap_uEBc56VeZC-YiaaNXGLa_LAguHHvIaFcy2sF56smBOMQUo5P6nkLld2ZHa2uC_fhBzI45g6P4uRJo0ypEmYSyHTGszwx3yi371o9bjgC_Vfl99PaDSXs8efToWK0o11KpcVrJMAgkVuD1BXCFLafbI6rtJrupb-7AxswXDg0kpSlegcPRU4kpEx7i1P4Ragnk9VtP6SSas3LrGRId9mt9CCN_P6_rX-9wviR8yAwIfhOxt_xohY178hQO0PNnSkazZmBWEnxglyLhjusA7NBiqhVo_C_fBmobS0zOmMQ4BC2NgZFdGBPAqla5-2eV5FtkOLA6wgM6K4jlxhyDN68WEzqVWsFrNqaJhcgpHkXECISy080FNMKgV4d0Y8jysQohZc_bbNFL8-Nxn7OPPDLts9jj8VhKtb4RTGJXLugtlMIeL2BjwI-wFDqi9HCIODtasAZ0PXdeGSMnFcshWsKcK9e6kz2oCbVAZEF_ZA5uEhZL3Vla2ZFUOeQgzBXRGzze0GuJuS1eeap_UqiYrpRAQg4kTWdwqaeaCXcjkFFXlJSd1c_9z_exGv7ehCoQAa_HOqctgJ1f9aMcpy6CAaGHiDSMSAlO7kipRux92qGgLka9jCllwKiLKmMwxJCtkS6e9riTyw6", "results": [{"business_status": "OPERATIONAL", "geometry": {"location": {"lat": 23.8365652, "lng": 86.420171}, "viewport": {"northeast": {"lat": 23.8378752802915, "lng": 86.42151368029151}, "southwest": {"lat": 23.8351773197085, "lng": 86.4188157197085}}}, "icon": "https://maps.gstatic.com/mapfiles/place_api/icons/v1/png_71/school-71.png", "icon_background_color": "#7B9EB0", "icon_mask_base_uri": "https://maps.gstatic.com/mapfiles/place_api/icons/v2/school_pinlet", "name": "Aangan Badi Kurmidih", "place_id": "ChIJnWP8FEu79jkRbevL5zEByqE", "plus_code": {"compound_code": "RCPC+J3 Dhanbad, Jharkhand, India", "global_code": "7MM8RCPC+J3"}, "reference": "ChIJnWP8FEu79jkRbevL5zEByqE", "scope": "GOOGLE", "types": ["school", "point_of_interest", "establishment"], "vicinity": "Kurmidih, Dhanbad"}, {"business_status": "OPERATIONAL", "geometry": {"location": {"lat": 23.8381863, "lng": 86.4280687}, "viewport": {"northeast": {"lat": 23.8395277302915, "lng": 86.42941573029151}, "southwest": {"lat": 23.8368297697085, "lng": 86.42671776970849}}}, "icon": "https://maps.gstatic.com/mapfiles/place_api/icons/v1/png_71/school-71.png", "icon_background_color": "#7B9EB0", "icon_mask_base_uri": "https://maps.gstatic.com/mapfiles/place_api/icons/v2/school_pinlet", "name": "G.S.A High School Yadavpur", "place_id": "ChIJfYuFvMC79jkRhdXFf9nJKO8", "rating": 5, "reference": "ChIJfYuFvMC79jkRhdXFf9nJKO8", "scope": "GOOGLE", "types": ["school", "point_of_interest", "establishment"], "user_ratings_total": 1, "vicinity": "RCQH+76G, Barwadda, Yadav pur, Dhanbad"}, {"business_status": "OPERATIONAL", "geometry": {"location": {"lat": 23.8381863, "lng": 86.4280687}, "viewport": {"northeast": {"lat": 23.8395277302915, "lng": 86.42941573029151}, "southwest": {"lat": 23.8368297697085, "lng": 86.42671776970849}}}, "icon": "https://maps.gstatic.com/mapfiles/place_api/icons/v1/png_71/school-71.png", "icon_background_color": "#7B9EB0", "icon_mask_base_uri": "https://maps.gstatic.com/mapfiles/place_api/icons/v2/school_pinlet", "name": "Reyaz-ul Hira public school", "opening_hours": {"open_now": false}, "photos": [{"height": 2214, "html_attributions": ["<a href=\"https://maps.google.com/maps/contrib/109563177766756312164\">Md. Siraj uddin Ansari</a>"], "photo_reference": "Aap_uEDK3IcNKvXM4pUFp6koHpaR-JK3EmEO43QeSr-MkpOKPhsZJrCuyyjjL2mIMw2LL7KOy-6H43FEVJFOFY7eqzL2mTjMtHzgZsyOHAvd1fOvRAMVXyFFdDRkoFTAa5-NVi5VZDfOgOjYo0J8ymQmI-YjdyVn2ylfTdh3udgGEr89WJK-", "width": 3234}], "place_id": "ChIJx1Fdb9y79jkR6HKYeJt5VG8", "plus_code": {"compound_code": "RCQH+76 Dhanbad, Jharkhand, India", "global_code": "7MM8RCQH+76"}, "rating": 3.7, "reference": "ChIJx1Fdb9y79jkR6HKYeJt5VG8", "scope": "GOOGLE", "types": ["school", "point_of_interest", "establishment"], "user_ratings_total": 3, "vicinity": "Millat Nagar, Barwadda, Dhanbad"}, {"business_status": "OPERATIONAL", "geometry": {"location": {"lat": 23.8381864, "lng": 86.4280687}, "viewport": {"northeast": {"lat": 23.8395277302915, "lng": 86.42941573029151}, "southwest": {"lat": 23.8368297697085, "lng": 86.42671776970849}}}, "icon": "https://maps.gstatic.com/mapfiles/place_api/icons/v1/png_71/school-71.png", "icon_background_color": "#7B9EB0", "icon_mask_base_uri": "https://maps.gstatic.com/mapfiles/place_api/icons/v2/school_pinlet", "name": "Rajesh Rawni Home", "opening_hours": {"open_now": false}, "place_id": "ChIJy-eahd679jkRQ9bWJBgIAwY", "reference": "ChIJy-eahd679jkRQ9bWJBgIAwY", "scope": "GOOGLE", "types": ["school", "point_of_interest", "establishment"], "vicinity": "RCQH+76G, Barwadda, Dhanbad"}, {"business_status": "OPERATIONAL", "geometry": {"location": {"lat": 23.8381864, "lng": 86.4280687}, "viewport": {"northeast": {"lat": 23.8395277302915, "lng": 86.42941573029151}, "southwest": {"lat": 23.8368297697085, "lng": 86.42671776970849}}}, "icon": "https://maps.gstatic.com/mapfiles/place_api/icons/v1/png_71/school-71.png", "icon_background_color": "#7B9EB0", "icon_mask_base_uri": "https://maps.gstatic.com/mapfiles/place_api/icons/v2/school_pinlet", "name": "Genious Play School", "opening_hours": {"open_now": true}, "photos": [{"height": 1200, "html_attributions": ["<a href=\"https://maps.google.com/maps/contrib/112078002847319550112\">Apoorva Kumar Singh</a>"], "photo_reference": "Aap_uEBfmCw_z0kTNowLRFLKAWPxC9X6tXAnWAUBhHXjfiA_Y23BEBvoT9D3pjVvmZVhJcXohIBa5Q-FCqI3y9BWc04ZdsLqor7wJGNA6Ja3AzqlYscEPB7CSYVWYZyXWChz-rA6SGXKelkk2TNYDBZAwb0VikJSh5V6rm80QECTZ2HIzgj6", "width": 1800}], "place_id": "ChIJfwK7A8m79jkRRHLhMALAh2w", "plus_code": {"compound_code": "RCQH+76 Dhanbad, Jharkhand, India", "global_code": "7MM8RCQH+76"}, "rating": 5, "reference": "ChIJfwK7A8m79jkRRHLhMALAh2w", "scope": "GOOGLE", "types": ["school", "point_of_interest", "establishment"], "user_ratings_total": 9, "vicinity": "Satyam Nagar, Nagnagar, Barwadda, Dhanbad"}, {"business_status": "OPERATIONAL", "geometry": {"location": {"lat": 23.837725, "lng": 86.4319019}, "viewport": {"northeast": {"lat": 23.8390643302915, "lng": 86.43328798029151}, "southwest": {"lat": 23.8363663697085, "lng": 86.43059001970849}}}, "icon": "https://maps.gstatic.com/mapfiles/place_api/icons/v1/png_71/school-71.png", "icon_background_color": "#7B9EB0", "icon_mask_base_uri": "https://maps.gstatic.com/mapfiles/place_api/icons/v2/school_pinlet", "name": "Mother Trust Public School", "opening_hours": {"open_now": false}, "place_id": "ChIJ8-ht-0a79jkRQ5lpgxYdyIk", "plus_code": {"compound_code": "RCQJ+3Q Susnilewa, Jharkhand, India", "global_code": "7MM8RCQJ+3Q"}, "reference": "ChIJ8-ht-0a79jkRQ5lpgxYdyIk", "scope": "GOOGLE", "types": ["primary_school", "school", "point_of_interest", "establishment"], "vicinity": "Susnilewa"}, {"business_status": "OPERATIONAL", "geometry": {"location": {"lat": 23.8378497, "lng": 86.43217790000001}, "viewport": {"northeast": {"lat": 23.8392160302915, "lng": 86.43345198029151}, "southwest": {"lat": 23.8365180697085, "lng": 86.4307540197085}}}, "icon": "https://maps.gstatic.com/mapfiles/place_api/icons/v1/png_71/school-71.png", "icon_background_color": "#7B9EB0", "icon_mask_base_uri": "https://maps.gstatic.com/mapfiles/place_api/icons/v2/school_pinlet", "name": "Mothers Pride Public School", "opening_hours": {"open_now": false}, "photos": [{"height": 3120, "html_attributions": ["<a href=\"https://maps.google.com/maps/contrib/115387519948553599964\">Vikram Kumar</a>"], "photo_reference": "Aap_uEDwcNcaRdhM5ZxqYikz6u8YQRxUfcCLkv_ZC4bspkj6zJRLyvjngUbTq7YP3FGPwZp0NFAoEM9t2TYnxWskais9xV57b5L_rpOpdjFz_J1ooLVzedZGpIjmrggE0I6o6tBkR2vRPnIZuxMMikfo3h2NYWixmqo1CUEQrDqXYDdC1mbm", "width": 4160}], "place_id": "ChIJ_z_luEe99jkRx6z1A-7uOB0", "plus_code": {"compound_code": "RCQJ+4V Dhanbad, Jharkhand, India", "global_code": "7MM8RCQJ+4V"}, "rating": 4.3, "reference": "ChIJ_z_luEe99jkRx6z1A-7uOB0", "scope": "GOOGLE", "types": ["school", "point_of_interest", "establishment"], "user_ratings_total": 3, "vicinity": "Satyam Nagar, Barwa Road, Nagnagar, Dhanbad"}, {"business_status": "OPERATIONAL", "geometry": {"location": {"lat": 23.8229259, "lng": 86.4354233}, "viewport": {"northeast": {"lat": 23.8242335802915, "lng": 86.4367792802915}, "southwest": {"lat": 23.8215356197085, "lng": 86.43408131970848}}}, "icon": "https://maps.gstatic.com/mapfiles/place_api/icons/v1/png_71/school-71.png", "icon_background_color": "#7B9EB0", "icon_mask_base_uri": "https://maps.gstatic.com/mapfiles/place_api/icons/v2/school_pinlet", "name": "Prelude Play School situated at danger main road", "place_id": "ChIJYSOcmV679jkRSZ6nr4qNQro", "rating": 5, "reference": "ChIJYSOcmV679jkRSZ6nr4qNQro", "scope": "GOOGLE", "types": ["school", "point_of_interest", "establishment"], "user_ratings_total": 2, "vicinity": "RCFP+55F, Chanchani Colony, Dhanbad"}, {"business_status": "OPERATIONAL", "geometry": {"location": {"lat": 23.82149829999999, "lng": 86.41746529999999}, "viewport": {"northeast": {"lat": 23.8228210302915, "lng": 86.4188861302915}, "southwest": {"lat": 23.82012306970849, "lng": 86.41618816970849}}}, "icon": "https://maps.gstatic.com/mapfiles/place_api/icons/v1/png_71/school-71.png", "icon_background_color": "#7B9EB0", "icon_mask_base_uri": "https://maps.gstatic.com/mapfiles/place_api/icons/v2/school_pinlet", "name": "ab Gf DSC H", "place_id": "ChIJAQAAQKuk9jkRawG24LMASIo", "reference": "ChIJAQAAQKuk9jkRawG24LMASIo", "scope": "GOOGLE", "types": ["school", "point_of_interest", "establishment"], "vicinity": "RCC8+HXW, Jharudih, Baromuri"}, {"business_status": "OPERATIONAL", "geometry": {"location": {"lat": 23.835585, "lng": 86.4354931}, "viewport": {"northeast": {"lat": 23.8369040302915, "lng": 86.43680668029151}, "southwest": {"lat": 23.8342060697085, "lng": 86.4341087197085}}}, "icon": "https://maps.gstatic.com/mapfiles/place_api/icons/v1/png_71/school-71.png", "icon_background_color": "#7B9EB0", "icon_mask_base_uri": "https://maps.gstatic.com/mapfiles/place_api/icons/v2/school_pinlet", "name": "Utkramit Madhya Vidyalaya", "place_id": "ChIJP65YYUG79jkRW0mmcVejnMo", "reference": "ChIJP65YYUG79jkRW0mmcVejnMo", "scope": "GOOGLE", "types": ["school", "point_of_interest", "establishment"], "vicinity": "RCPP+65Q, Satyam Nagar, Susnilewa"}, {"business_status": "OPERATIONAL", "geometry": {"location": {"lat": 23.8356283, "lng": 86.4354889}, "viewport": {"northeast": {"lat": 23.83693833029151, "lng": 86.4367918302915}, "southwest": {"lat": 23.8342403697085, "lng": 86.43409386970849}}}, "icon": "https://maps.gstatic.com/mapfiles/place_api/icons/v1/png_71/school-71.png", "icon_background_color": "#7B9EB0", "icon_mask_base_uri": "https://maps.gstatic.com/mapfiles/place_api/icons/v2/school_pinlet", "name": "U M S Nagnagar.gov.2", "photos": [{"height": 960, "html_attributions": ["<a href=\"https://maps.google.com/maps/contrib/115879152118948579071\">Jahir Ansari</a>"], "photo_reference": "Aap_uEB8Ok6pimmjXMTG5i4lLFyPhJHVM0MZhTSjb2ppG4K6o53eYPskQhgMxQpkGmF1DMpIWYZUKQQ9kroVwMsEpXQuHqgszDQPNao9YxRMAJShwVuOsunqPg4mUobIBmQiMhyaqAJgl3suwVyG3I3hWAiUoFNRFrxQ13W1a0bSGSGmRJQw", "width": 720}], "place_id": "ChIJF0ljSOq79jkRP31sMpSqIz0", "plus_code": {"compound_code": "RCPP+75 Dhanbad, Jharkhand, India", "global_code": "7MM8RCPP+75"}, "reference": "ChIJF0ljSOq79jkRP31sMpSqIz0", "scope": "GOOGLE", "types": ["school", "point_of_interest", "establishment"], "vicinity": "Satyam Nagar, Dhanbad"}, {"business_status": "OPERATIONAL", "geometry": {"location": {"lat": 23.8392262, "lng": 86.4307469}, "viewport": {"northeast": {"lat": 23.8405823802915, "lng": 86.4320235802915}, "southwest": {"lat": 23.8378844197085, "lng": 86.4293256197085}}}, "icon": "https://maps.gstatic.com/mapfiles/place_api/icons/v1/png_71/school-71.png", "icon_background_color": "#7B9EB0", "icon_mask_base_uri": "https://maps.gstatic.com/mapfiles/place_api/icons/v2/school_pinlet", "name": "Aarti Enterprises", "place_id": "ChIJCVHCJP679jkRXRJXiYAMonA", "reference": "ChIJCVHCJP679jkRXRJXiYAMonA", "scope": "GOOGLE", "types": ["school", "point_of_interest", "establishment"], "vicinity": "RCQJ+M7X, Satyam Nagar, Dhanbad"}, {"business_status": "OPERATIONAL", "geometry": {"location": {"lat": 23.8377756, "lng": 86.4184652}, "viewport": {"northeast": {"lat": 23.8391559802915, "lng": 86.4198166302915}, "southwest": {"lat": 23.8364580197085, "lng": 86.4171186697085}}}, "icon": "https://maps.gstatic.com/mapfiles/place_api/icons/v1/png_71/school-71.png", "icon_background_color": "#7B9EB0", "icon_mask_base_uri": "https://maps.gstatic.com/mapfiles/place_api/icons/v2/school_pinlet", "name": "Nehru Bal Academy", "place_id": "ChIJha7p1bSk9jkR0BcKQVpyhgo", "rating": 5, "reference": "ChIJha7p1bSk9jkR0BcKQVpyhgo", "scope": "GOOGLE", "types": ["school", "point_of_interest", "establishment"], "user_ratings_total": 1, "vicinity": "Hirak Point (Bye Pass Road) Susnilewa Nagnagar, Dhanbad"}, {"business_status": "OPERATIONAL", "geometry": {"location": {"lat": 23.8380627, "lng": 86.43315109999999}, "viewport": {"northeast": {"lat": 23.83941688029151, "lng": 86.4344828802915}, "southwest": {"lat": 23.8367189197085, "lng": 86.43178491970849}}}, "icon": "https://maps.gstatic.com/mapfiles/place_api/icons/v1/png_71/school-71.png", "icon_background_color": "#7B9EB0", "icon_mask_base_uri": "https://maps.gstatic.com/mapfiles/place_api/icons/v2/school_pinlet", "name": "manzoor [jamia study centre]", "photos": [{"height": 1038, "html_attributions": ["<a href=\"https://maps.google.com/maps/contrib/114896117809705644595\">rock Manzoor Khan</a>"], "photo_reference": "Aap_uEA1oFm2putt19tWojA4tKUjUE8wrS02WOYftNZbWTNRzsLLXl4fRUWrodp1SsqTEoaLm3_Smnh6PDYQ1SnPmWSWe1xvnXYQmYSZgbhKYJePKEluLYmnLVQFqXGrZ1wuy_-K668smKO4ubEOuCGCtf1JAP2v3on8o38Lwonl-y5eX3Hx", "width": 633}], "place_id": "ChIJu8A92Qu79jkR9NRXuHLICfU", "reference": "ChIJu8A92Qu79jkR9NRXuHLICfU", "scope": "GOOGLE", "types": ["school", "point_of_interest", "establishment"], "vicinity": "RCQM+67C, Susnilewa"}, {"business_status": "OPERATIONAL", "geometry": {"location": {"lat": 23.8237513, "lng": 86.41512499999999}, "viewport": {"northeast": {"lat": 23.8250935302915, "lng": 86.41648903029153}, "southwest": {"lat": 23.8223955697085, "lng": 86.41379106970852}}}, "icon": "https://maps.gstatic.com/mapfiles/place_api/icons/v1/png_71/school-71.png", "icon_background_color": "#7B9EB0", "icon_mask_base_uri": "https://maps.gstatic.com/mapfiles/place_api/icons/v2/school_pinlet", "name": "Sarwamangla Public School", "photos": [{"height": 1080, "html_attributions": ["<a href=\"https://maps.google.com/maps/contrib/114123528073812200906\">Baidhnath kumar</a>"], "photo_reference": "Aap_uEAiRAsRFL87Q0yTGHfsGe1p5xJA5aDR_88K0c2LmcxRaSftJlJyhtRXi1RiIGxXWjmV0rSP0KT5Mkwre0l4RazdwHZz2dDgnRMsm1jQn10B_4yy98uaZ0iDkNAUzbTYgNpBWWcYmafkamxkHS7Tw9aeIs-ln3cc2Jhl38oBVSSy3M9a", "width": 1920}], "place_id": "ChIJvbGZbayk9jkRRRIrnkHAmd4", "rating": 4.3, "reference": "ChIJvbGZbayk9jkRRRIrnkHAmd4", "scope": "GOOGLE", "types": ["school", "point_of_interest", "establishment"], "user_ratings_total": 9, "vicinity": "near Shakti Chowk, Nagrikala, near Shakti Chowk, Bhuli Hirak Road, Dhanbad"}, {"business_status": "OPERATIONAL", "geometry": {"location": {"lat": 23.8367595, "lng": 86.43517899999999}, "viewport": {"northeast": {"lat": 23.8381128802915, "lng": 86.4365164302915}, "southwest": {"lat": 23.8354149197085, "lng": 86.43381846970848}}}, "icon": "https://maps.gstatic.com/mapfiles/place_api/icons/v1/png_71/school-71.png", "icon_background_color": "#7B9EB0", "icon_mask_base_uri": "https://maps.gstatic.com/mapfiles/place_api/icons/v2/school_pinlet", "name": "GUITARX", "opening_hours": {"open_now": false}, "place_id": "ChIJOTUE0Ya79jkRi5m9fSHUShc", "plus_code": {"compound_code": "RCPP+P3 Susnilewa, Jharkhand, India", "global_code": "7MM8RCPP+P3"}, "reference": "ChIJOTUE0Ya79jkRi5m9fSHUShc", "scope": "GOOGLE", "types": ["school", "point_of_interest", "establishment"], "vicinity": "Susnilewa"}, {"business_status": "OPERATIONAL", "geometry": {"location": {"lat": 23.8194616, "lng": 86.43317189999999}, "viewport": {"northeast": {"lat": 23.8208105802915, "lng": 86.4345208802915}, "southwest": {"lat": 23.8181126197085, "lng": 86.43182291970848}}}, "icon": "https://maps.gstatic.com/mapfiles/place_api/icons/v1/png_71/school-71.png", "icon_background_color": "#7B9EB0", "icon_mask_base_uri": "https://maps.gstatic.com/mapfiles/place_api/icons/v2/school_pinlet", "name": "HUMPTY DUMPTY", "place_id": "ChIJz_wIxVi79jkRCJTVmu4hB1E", "rating": 5, "reference": "ChIJz_wIxVi79jkRCJTVmu4hB1E", "scope": "GOOGLE", "types": ["school", "point_of_interest", "establishment"], "user_ratings_total": 1, "vicinity": "NEAR, RANI BAGH, Rani Talab Road, Dhaiya, Dhanbad"}, {"business_status": "OPERATIONAL", "geometry": {"location": {"lat": 23.8228677, "lng": 86.4370951}, "viewport": {"northeast": {"lat": 23.8242005302915, "lng": 86.4384912802915}, "southwest": {"lat": 23.8215025697085, "lng": 86.4357933197085}}}, "icon": "https://maps.gstatic.com/mapfiles/place_api/icons/v1/png_71/school-71.png", "icon_background_color": "#7B9EB0", "icon_mask_base_uri": "https://maps.gstatic.com/mapfiles/place_api/icons/v2/school_pinlet", "name": "MAYANK SINGH", "opening_hours": {"open_now": true}, "place_id": "ChIJf2KhvQa79jkRPBs7ZT_Brag", "plus_code": {"compound_code": "RCFP+4R Dhanbad, Jharkhand, India", "global_code": "7MM8RCFP+4R"}, "rating": 5, "reference": "ChIJf2KhvQa79jkRPBs7ZT_Brag", "scope": "GOOGLE", "types": ["school", "health", "point_of_interest", "establishment"], "user_ratings_total": 1, "vicinity": "P.O - ISM IIT, Ramson Residency, Vinay Vihar Colony, Dhaiya, Dhanbad"}, {"business_status": "OPERATIONAL", "geometry": {"location": {"lat": 23.8305862, "lng": 86.4129717}, "viewport": {"northeast": {"lat": 23.83189478029151, "lng": 86.4143105802915}, "southwest": {"lat": 23.8291968197085, "lng": 86.41161261970849}}}, "icon": "https://maps.gstatic.com/mapfiles/place_api/icons/v1/png_71/school-71.png", "icon_background_color": "#7B9EB0", "icon_mask_base_uri": "https://maps.gstatic.com/mapfiles/place_api/icons/v2/school_pinlet", "name": "Dr.J.K.Sinha Memorial Indian School Of Learning", "photos": [{"height": 4160, "html_attributions": ["<a href=\"https://maps.google.com/maps/contrib/105598504341366805886\">matukdhari kumar mahato</a>"], "photo_reference": "Aap_uEBzlt1vDdTDCcFaP9tk9JYXHZlBCXghYNq8C0RPVpg8eaggwweB2en3su82qLmSMN2IuhMyXqaMKD3h0Aa51ftf7Ld4ez85Vf3lx_5XrvcnSiGTs37f7fRVQrE6vlvhZOZSghwAFUMGcNkvpEKZd5zm_L8ifscDaMC7Fa5OxIRpzHIX", "width": 3120}], "place_id": "ChIJDTluHaCl9jkR7g7ZiNH4F4g", "plus_code": {"compound_code": "RCJ7+65 Dhanbad, Jharkhand, India", "global_code": "7MM8RCJ7+65"}, "rating": 2.9, "reference": "ChIJDTluHaCl9jkR7g7ZiNH4F4g", "scope": "GOOGLE", "types": ["school", "point_of_interest", "establishment"], "user_ratings_total": 8, "vicinity": "Hota Road, Dhanbad"}, {"business_status": "OPERATIONAL", "geometry": {"location": {"lat": 23.8210127, "lng": 86.43581979999999}, "viewport": {"northeast": {"lat": 23.8223441302915, "lng": 86.4371522802915}, "southwest": {"lat": 23.81964616970849, "lng": 86.4344543197085}}}, "icon": "https://maps.gstatic.com/mapfiles/place_api/icons/v1/png_71/school-71.png", "icon_background_color": "#7B9EB0", "icon_mask_base_uri": "https://maps.gstatic.com/mapfiles/place_api/icons/v2/school_pinlet", "name": "Kids Play School", "opening_hours": {"open_now": false}, "photos": [{"height": 2560, "html_attributions": ["<a href=\"https://maps.google.com/maps/contrib/112748218093018435773\">Jyoti Dugar</a>"], "photo_reference": "Aap_uECCHnp31RvCZVNd8l-mTw0T6nxaVo_yo8B9FCLNDsCfhrpWFQcYbiGGAQvq4BHyFvpuKnJ3ZPDg-dp2RCPG8wARGNW0V6FeYqYgdezrFCQkOZ09nnsXhxgvhNjRTVZx0wnFeQunzVhCUHwdq0-FxNJoLZ_QMYodclu7KIayu3PyUDEQ", "width": 1440}], "place_id": "ChIJXefU-l679jkRU2JDq9D_KpA", "plus_code": {"compound_code": "RCCP+C8 Dhanbad, Jharkhand, India", "global_code": "7MM8RCCP+C8"}, "reference": "ChIJXefU-l679jkRU2JDq9D_KpA", "scope": "GOOGLE", "types": ["school", "point_of_interest", "establishment"], "vicinity": "Dhaiya, Dhanbad"}], "status": "OK"}