{"html_attributions": [], "next_page_token": "Aap_uEDxCdW1Xg-mx-62W_l4OYgk81AVLDOhS_YS_XW0VHZPq0-rZ5gcGH8WxH-RW9BXeqBK3PFLwjpNzLSZD9CfElDpu2gA3RxnG4zbZvQmNdY7KxuzZYa4pwXk9zFhrOr7XQlfWgYTu9k5D20CT29r56JL6d7y0emO2qWkwv-R8oFS6A6_zW9BEzkkU4U8TsrO3vbygNlMse3a7FdwWdgU3kOtWmXFA-p50X_b4gkFobHgedLTDEZV4GTwhUVBojKS593F-1tq04yBZuuH6_7q9jQ605pa6AwEaUggT-9WlE3U9g30n4E-SysIfdETm6p4mvthGADLkhmTdZp_13p_aub-9bjdzZKZsMML_sbkFkeTnMExCM7Ew_cUwMhiJnB76hliHeSowT7dLwW5p9WjdAuT0Y-IoTczNdRp1glAj8-0bBdbLkQ", "results": [{"business_status": "OPERATIONAL", "geometry": {"location": {"lat": 23.8520604, "lng": 86.4235636}, "viewport": {"northeast": {"lat": 23.8534322302915, "lng": 86.4249081802915}, "southwest": {"lat": 23.8507342697085, "lng": 86.42221021970849}}}, "icon": "https://maps.gstatic.com/mapfiles/place_api/icons/v1/png_71/school-71.png", "icon_background_color": "#7B9EB0", "icon_mask_base_uri": "https://maps.gstatic.com/mapfiles/place_api/icons/v2/school_pinlet", "name": "Symbiosis Public School", "opening_hours": {"open_now": false}, "photos": [{"height": 3120, "html_attributions": ["<a href=\"https://maps.google.com/maps/contrib/107182954565119084285\">Harsh Kumar</a>"], "photo_reference": "Aap_uEDStqQ_M8C27Y19S9h7IufrMnojsk4Vzv40rblsoYZeOu5FbtDxbN9QoWbEHP66GFPaO47mDfJ56KHW7muX7PeFXR4dDsp_7Ccsr-BvAPPPsFv7hlY6T15zXG_BDRyj0uBLVLowkWUTuMop_4Hqqsgg_zHNUoAIs6ztd7IT1EaHkSQ-", "width": 4160}], "place_id": "ChIJsVI-GzK79jkRq9KqJCnNMG0", "plus_code": {"compound_code": "VC2F+RC Dhanbad, Jharkhand, India", "global_code": "7MM8VC2F+RC"}, "rating": 3.6, "reference": "ChIJsVI-GzK79jkRq9KqJCnNMG0", "scope": "GOOGLE", "types": ["school", "point_of_interest", "establishment"], "user_ratings_total": 61, "vicinity": "Barwaadda, Kalyanpur, Dhanbad"}, {"business_status": "OPERATIONAL", "geometry": {"location": {"lat": 23.8546981, "lng": 86.4233299}, "viewport": {"northeast": {"lat": 23.8560460802915, "lng": 86.42468273029151}, "southwest": {"lat": 23.8533481197085, "lng": 86.4219847697085}}}, "icon": "https://maps.gstatic.com/mapfiles/place_api/icons/v1/png_71/school-71.png", "icon_background_color": "#7B9EB0", "icon_mask_base_uri": "https://maps.gstatic.com/mapfiles/place_api/icons/v2/school_pinlet", "name": "Jharkhand Public School", "photos": [{"height": 2448, "html_attributions": ["<a href=\"https://maps.google.com/maps/contrib/111030526506242546561\">Biplab Mahato</a>"], "photo_reference": "Aap_uEBd047PKMQbIIEjtSmt15Cts80qq_HAuLo_8MQ9xGToXa1QFAIwMwF3_W1jPImvinO1v6h9kthW1ySGVgfEYzQcd8S57r9nnlIWnob1vT44DhhRtmaDHfsIWZUWwzu-wA7hX6nVrHdshmM_Z4ADDw6jZGIl8SYO3s4N0tXcdsg-gh4", "width": 3264}], "place_id": "ChIJVVVVVS679jkR1zQrKFrmhyM", "plus_code": {"compound_code": "VC3F+V8 Dhanbad, Jharkhand, India", "global_code": "7MM8VC3F+V8"}, "rating": 3.8, "reference": "ChIJVVVVVS679jkR1zQrKFrmhyM", "scope": "GOOGLE", "types": ["school", "point_of_interest", "establishment"], "user_ratings_total": 33, "vicinity": "NH-2,Barajamua, Dhanbad"}, {"business_status": "OPERATIONAL", "geometry": {"location": {"lat": 23.8428235, "lng": 86.4172524}, "viewport": {"northeast": {"lat": 23.84415928029151, "lng": 86.41859978029152}, "southwest": {"lat": 23.8414613197085, "lng": 86.4159018197085}}}, "icon": "https://maps.gstatic.com/mapfiles/place_api/icons/v1/png_71/school-71.png", "icon_background_color": "#7B9EB0", "icon_mask_base_uri": "https://maps.gstatic.com/mapfiles/place_api/icons/v2/school_pinlet", "name": "PANCHAYAT BHAWAN ROAD DHURWADIH", "place_id": "ChIJ6RIc6cqk9jkR0ZQBKWnm-0M", "plus_code": {"compound_code": "RCV8+4W Dhanbad, Jharkhand, India", "global_code": "7MM8RCV8+4W"}, "rating": 5, "reference": "ChIJ6RIc6cqk9jkR0ZQBKWnm-0M", "scope": "GOOGLE", "types": ["school", "point_of_interest", "establishment"], "user_ratings_total": 1, "vicinity": "Unnamed Road, Dhanbad"}, {"business_status": "OPERATIONAL", "geometry": {"location": {"lat": 23.8379236, "lng": 86.4212616}, "viewport": {"northeast": {"lat": 23.8392936802915, "lng": 86.4226141802915}, "southwest": {"lat": 23.8365957197085, "lng": 86.4199162197085}}}, "icon": "https://maps.gstatic.com/mapfiles/place_api/icons/v1/png_71/school-71.png", "icon_background_color": "#7B9EB0", "icon_mask_base_uri": "https://maps.gstatic.com/mapfiles/place_api/icons/v2/school_pinlet", "name": "Ambition Convent School", "place_id": "ChIJ_____0q79jkR8gkHPh2Qxvk", "reference": "ChIJ_____0q79jkR8gkHPh2Qxvk", "scope": "GOOGLE", "types": ["school", "point_of_interest", "establishment"], "vicinity": "RCQC+5G6, Kurmidih"}, {"business_status": "OPERATIONAL", "geometry": {"location": {"lat": 23.8467128, "lng": 86.4283007}, "viewport": {"northeast": {"lat": 23.8480605302915, "lng": 86.4296719302915}, "southwest": {"lat": 23.8453625697085, "lng": 86.4269739697085}}}, "icon": "https://maps.gstatic.com/mapfiles/place_api/icons/v1/png_71/school-71.png", "icon_background_color": "#7B9EB0", "icon_mask_base_uri": "https://maps.gstatic.com/mapfiles/place_api/icons/v2/school_pinlet", "name": "St. Xavier's Mission School", "opening_hours": {"open_now": false}, "photos": [{"height": 3264, "html_attributions": ["<a href=\"https://maps.google.com/maps/contrib/104385039003868609631\">St. Xavier&#39;s Mission School</a>"], "photo_reference": "Aap_uEBPHQDOa6cOTDV4OX-PRFVKm9KwMmJUIPu0vMEiBkIj-6p2gQ-DzbyHg2Zb9z5XqssGsmhIZ-wqb9YQLxd-u2ubbWcYHLZjwD8SkYpkJ4P8U-nu0FcFOmWzWwu7Aj3Pi89ep3ghsjrvVt96zezz0LZHBN1ODSZLTPPGAj6U4JRzakuO", "width": 2448}], "place_id": "ChIJO94_Uje79jkRMfyud8Z-NqI", "plus_code": {"compound_code": "RCWH+M8 Dhanbad, Jharkhand, India", "global_code": "7MM8RCWH+M8"}, "rating": 4.9, "reference": "ChIJO94_Uje79jkRMfyud8Z-NqI", "scope": "GOOGLE", "types": ["school", "point_of_interest", "establishment"], "user_ratings_total": 8, "vicinity": "Pandeybarwa Road, Barwadda, Dhanbad"}, {"business_status": "OPERATIONAL", "geometry": {"location": {"lat": 23.852022, "lng": 86.4226456}, "viewport": {"northeast": {"lat": 23.8537762802915, "lng": 86.4240996802915}, "southwest": {"lat": 23.8510783197085, "lng": 86.4214017197085}}}, "icon": "https://maps.gstatic.com/mapfiles/place_api/icons/v1/png_71/school-71.png", "icon_background_color": "#7B9EB0", "icon_mask_base_uri": "https://maps.gstatic.com/mapfiles/place_api/icons/v2/school_pinlet", "name": "Government School DamkaraBarwa", "opening_hours": {"open_now": false}, "photos": [{"height": 288, "html_attributions": ["<a href=\"https://maps.google.com/maps/contrib/103266812367478546901\">Amarjeet Kumar Mandal</a>"], "photo_reference": "Aap_uEB8QZht7K8s1xszh8JMqDV0Yo7TSmxi4cRZtHHLfyYAt4I2gp6wcuxjPx4OT5jjEheMAoXfrho750WeB_aTbG4AscvmCAPXnZp1hDYZ-01VgCQV7og4qVL2SXobMKCZ9G6HwZgAmjQp5CCTmKO9HWg79DzNngWvILumBbwYVtJcRWu-", "width": 512}], "place_id": "ChIJ1bKaEjK79jkR3j6Zz5ymSZY", "reference": "ChIJ1bKaEjK79jkR3j6Zz5ymSZY", "scope": "GOOGLE", "types": ["school", "point_of_interest", "establishment"], "vicinity": "VC2F+R32, Damkarabarwa"}, {"business_status": "OPERATIONAL", "geometry": {"location": {"lat": 23.8533327, "lng": 86.42431529999999}, "viewport": {"northeast": {"lat": 23.8546526802915, "lng": 86.4258007302915}, "southwest": {"lat": 23.8519547197085, "lng": 86.42310276970849}}}, "icon": "https://maps.gstatic.com/mapfiles/place_api/icons/v1/png_71/school-71.png", "icon_background_color": "#7B9EB0", "icon_mask_base_uri": "https://maps.gstatic.com/mapfiles/place_api/icons/v2/school_pinlet", "name": "Holy Family Nirankari School", "place_id": "ChIJydXtBC679jkRK6HUAld40G4", "plus_code": {"compound_code": "VC3F+8P Barajamua, Jharkhand, India", "global_code": "7MM8VC3F+8P"}, "rating": 3.5, "reference": "ChIJydXtBC679jkRK6HUAld40G4", "scope": "GOOGLE", "types": ["school", "point_of_interest", "establishment"], "user_ratings_total": 4, "vicinity": "Unnamed Road, Barajamua"}, {"business_status": "OPERATIONAL", "geometry": {"location": {"lat": 23.8529508, "lng": 86.4288534}, "viewport": {"northeast": {"lat": 23.8537674802915, "lng": 86.4300802802915}, "southwest": {"lat": 23.8510695197085, "lng": 86.42738231970849}}}, "icon": "https://maps.gstatic.com/mapfiles/place_api/icons/v1/png_71/school-71.png", "icon_background_color": "#7B9EB0", "icon_mask_base_uri": "https://maps.gstatic.com/mapfiles/place_api/icons/v2/school_pinlet", "name": "GenEx International School", "photos": [{"height": 720, "html_attributions": ["<a href=\"https://maps.google.com/maps/contrib/109624657200626728865\">GenEx International School</a>"], "photo_reference": "Aap_uECI63P6dw5I_-JiaCxIVHjzqn8eRhjZhqiChT1wqGUj9vVknHabRceeg1_fRXi_1oVJQ3Zsgc9z24L5ftNN9h24R9JWr57CbxWytUaL__kmAca-F3ZXcwBwtltuZpfXKb791iePBEh0u13YeTrF9JDMzXiTDQAJW4MJHHyik6AuJ-IG", "width": 1280}], "place_id": "ChIJ25SLs0y79jkR0nWd2amplNQ", "plus_code": {"compound_code": "VC3H+5G Dhanbad, Jharkhand, India", "global_code": "7MM8VC3H+5G"}, "rating": 4.7, "reference": "ChIJ25SLs0y79jkR0nWd2amplNQ", "scope": "GOOGLE", "types": ["school", "point_of_interest", "establishment"], "user_ratings_total": 6, "vicinity": "opposite of Kali Mandir, Kashiyatand,Bara Pichari, opposite of Kali Mandir, Dhanbad"}, {"business_status": "OPERATIONAL", "geometry": {"location": {"lat": 23.8447774, "lng": 86.4287664}, "viewport": {"northeast": {"lat": 23.84612003029151, "lng": 86.4300781802915}, "southwest": {"lat": 23.8434220697085, "lng": 86.4273802197085}}}, "icon": "https://maps.gstatic.com/mapfiles/place_api/icons/v1/png_71/school-71.png", "icon_background_color": "#7B9EB0", "icon_mask_base_uri": "https://maps.gstatic.com/mapfiles/place_api/icons/v2/school_pinlet", "name": "Rajkiya Madhya Vidyalaya", "opening_hours": {"open_now": false}, "place_id": "ChIJ9bA2fTe79jkRF99e88oKhXY", "plus_code": {"compound_code": "RCVH+WG Dhanbad, Jharkhand, India", "global_code": "7MM8RCVH+WG"}, "reference": "ChIJ9bA2fTe79jkRF99e88oKhXY", "scope": "GOOGLE", "types": ["school", "point_of_interest", "establishment"], "vicinity": "Pandeybarwa, Damkada, Dhanbad"}, {"business_status": "OPERATIONAL", "geometry": {"location": {"lat": 23.8544702, "lng": 86.42303989999999}, "viewport": {"northeast": {"lat": 23.8558188302915, "lng": 86.4243921802915}, "southwest": {"lat": 23.8531208697085, "lng": 86.4216942197085}}}, "icon": "https://maps.gstatic.com/mapfiles/place_api/icons/v1/png_71/school-71.png", "icon_background_color": "#7B9EB0", "icon_mask_base_uri": "https://maps.gstatic.com/mapfiles/place_api/icons/v2/school_pinlet", "name": "Science Academy Raj", "place_id": "ChIJsT4McUi79jkRZCv8KuPBeJI", "reference": "ChIJsT4McUi79jkRZCv8KuPBeJI", "scope": "GOOGLE", "types": ["school", "point_of_interest", "establishment"], "vicinity": "VC3F+Q6M, Loharbarwa, Barajamua"}, {"business_status": "OPERATIONAL", "geometry": {"location": {"lat": 23.8545091, "lng": 86.423103}, "viewport": {"northeast": {"lat": 23.8558626802915, "lng": 86.4244077802915}, "southwest": {"lat": 23.8531647197085, "lng": 86.42170981970848}}}, "icon": "https://maps.gstatic.com/mapfiles/place_api/icons/v1/png_71/school-71.png", "icon_background_color": "#7B9EB0", "icon_mask_base_uri": "https://maps.gstatic.com/mapfiles/place_api/icons/v2/school_pinlet", "name": "Science academy Raj Aryan", "opening_hours": {"open_now": false}, "place_id": "ChIJvfzQqsG79jkRlFjXXt7ztNM", "plus_code": {"compound_code": "VC3F+R6 Barajamua, Jharkhand, India", "global_code": "7MM8VC3F+R6"}, "reference": "ChIJvfzQqsG79jkRlFjXXt7ztNM", "scope": "GOOGLE", "types": ["school", "point_of_interest", "establishment"], "vicinity": "Unnamed Road, Loharbarwa, Barajamua"}, {"business_status": "OPERATIONAL", "geometry": {"location": {"lat": 23.8545181, "lng": 86.4230261}, "viewport": {"northeast": {"lat": 23.8558647302915, "lng": 86.42439788029151}, "southwest": {"lat": 23.8531667697085, "lng": 86.4216999197085}}}, "icon": "https://maps.gstatic.com/mapfiles/place_api/icons/v1/png_71/school-71.png", "icon_background_color": "#7B9EB0", "icon_mask_base_uri": "https://maps.gstatic.com/mapfiles/place_api/icons/v2/school_pinlet", "name": "svience Academy", "opening_hours": {"open_now": false}, "place_id": "ChIJw-c0X4K79jkRNtEudyZwGQg", "plus_code": {"compound_code": "VC3F+R6 Barajamua, Jharkhand, India", "global_code": "7MM8VC3F+R6"}, "reference": "ChIJw-c0X4K79jkRNtEudyZwGQg", "scope": "GOOGLE", "types": ["school", "point_of_interest", "establishment"], "vicinity": "Loharbarwa, Barajamua"}, {"business_status": "OPERATIONAL", "geometry": {"location": {"lat": 23.8545429, "lng": 86.42302579999999}, "viewport": {"northeast": {"lat": 23.8558891302915, "lng": 86.42440098029151}, "southwest": {"lat": 23.8531911697085, "lng": 86.42170301970849}}}, "icon": "https://maps.gstatic.com/mapfiles/place_api/icons/v1/png_71/school-71.png", "icon_background_color": "#7B9EB0", "icon_mask_base_uri": "https://maps.gstatic.com/mapfiles/place_api/icons/v2/school_pinlet", "name": "SCIENCE ACADEMY", "photos": [{"height": 4160, "html_attributions": ["<a href=\"https://maps.google.com/maps/contrib/112605991785608508018\">Lakhan Mahato</a>"], "photo_reference": "Aap_uEB3knZXQOpJltiAs4cZDwkAYD7bT29FDUyltbJGXdXLBw3Xd9JV84135CTuf5fuVowcIJBrg8qUI6qSOqYZD40YLGt3ROItRrAUJhpHt6Pfwp0b_Xs93NogBTUECzitbN5LqOLF43PMX9YFHJJw7ESFri6kbHEEPjKv6pZ_9bXB69js", "width": 3120}], "place_id": "ChIJWSIPwy279jkRUqx7P0h8omk", "plus_code": {"compound_code": "VC3F+R6 Barajamua, Jharkhand, India", "global_code": "7MM8VC3F+R6"}, "rating": 5, "reference": "ChIJWSIPwy279jkRUqx7P0h8omk", "scope": "GOOGLE", "types": ["school", "point_of_interest", "establishment"], "user_ratings_total": 2, "vicinity": "near Mandakini High School, Loharbarwa, Barajamua"}, {"business_status": "OPERATIONAL", "geometry": {"location": {"lat": 23.8545988, "lng": 86.4229713}, "viewport": {"northeast": {"lat": 23.8559458302915, "lng": 86.4243387802915}, "southwest": {"lat": 23.8532478697085, "lng": 86.4216408197085}}}, "icon": "https://maps.gstatic.com/mapfiles/place_api/icons/v1/png_71/school-71.png", "icon_background_color": "#7B9EB0", "icon_mask_base_uri": "https://maps.gstatic.com/mapfiles/place_api/icons/v2/school_pinlet", "name": "Mandakini High School", "opening_hours": {"open_now": false}, "place_id": "ChIJV2mEwy279jkR2Zw7B17KYWE", "plus_code": {"compound_code": "VC3F+R5 Dhanbad, Jharkhand, India", "global_code": "7MM8VC3F+R5"}, "rating": 4.8, "reference": "ChIJV2mEwy279jkR2Zw7B17KYWE", "scope": "GOOGLE", "types": ["school", "point_of_interest", "establishment"], "user_ratings_total": 4, "vicinity": "Bara January, Barwaada Road, Loharbarwa, Dhanbad"}, {"business_status": "OPERATIONAL", "geometry": {"location": {"lat": 23.8548053, "lng": 86.4231204}, "viewport": {"northeast": {"lat": 23.8561595302915, "lng": 86.42444083029152}, "southwest": {"lat": 23.8534615697085, "lng": 86.42174286970851}}}, "icon": "https://maps.gstatic.com/mapfiles/place_api/icons/v1/png_71/school-71.png", "icon_background_color": "#7B9EB0", "icon_mask_base_uri": "https://maps.gstatic.com/mapfiles/place_api/icons/v2/school_pinlet", "name": "Success Point,(Rajesh Verma)", "photos": [{"height": 2592, "html_attributions": ["<a href=\"https://maps.google.com/maps/contrib/112255407298338762895\">My World Visit</a>"], "photo_reference": "Aap_uEA4O8Ia51jxJrqW74NzIz744MCUg449czyp8znVHOged-iUgynsAKNHNecSXQJ0029bsaimTcuQxypiJCVdz4FA2nOWaJ6tE1vmeSUHI_I0BrTCjtUfM41IZ2yHBwgXCScTPpFWQy5ohAHYNi9d5dL0ZJTHK9ZPcBLCzIpT1hgohKjQ", "width": 1944}], "place_id": "ChIJyyPmxC279jkRsVySz09ZSCA", "reference": "ChIJyyPmxC279jkRsVySz09ZSCA", "scope": "GOOGLE", "types": ["school", "point_of_interest", "establishment"], "vicinity": "VC3F+W6H, Loharbarwa, Barajamua"}, {"business_status": "OPERATIONAL", "geometry": {"location": {"lat": 23.8553115, "lng": 86.4248571}, "viewport": {"northeast": {"lat": 23.8566686802915, "lng": 86.4261317802915}, "southwest": {"lat": 23.85397071970849, "lng": 86.42343381970849}}}, "icon": "https://maps.gstatic.com/mapfiles/place_api/icons/v1/png_71/school-71.png", "icon_background_color": "#7B9EB0", "icon_mask_base_uri": "https://maps.gstatic.com/mapfiles/place_api/icons/v2/school_pinlet", "name": "Primary school, Barajamua (Govt.), Dhanbad", "place_id": "ChIJbxkR38e79jkRmoHwa43--MQ", "reference": "ChIJbxkR38e79jkRmoHwa43--MQ", "scope": "GOOGLE", "types": ["school", "point_of_interest", "establishment"], "vicinity": "VC4F+4WH, Dhanbad"}, {"business_status": "OPERATIONAL", "geometry": {"location": {"lat": 23.8548318, "lng": 86.4229179}, "viewport": {"northeast": {"lat": 23.8561711802915, "lng": 86.42433658029151}, "southwest": {"lat": 23.8534732197085, "lng": 86.42163861970849}}}, "icon": "https://maps.gstatic.com/mapfiles/place_api/icons/v1/png_71/school-71.png", "icon_background_color": "#7B9EB0", "icon_mask_base_uri": "https://maps.gstatic.com/mapfiles/place_api/icons/v2/school_pinlet", "name": "Success Point (Rajesh Sir)", "photos": [{"height": 3120, "html_attributions": ["<a href=\"https://maps.google.com/maps/contrib/112255407298338762895\">My World Visit</a>"], "photo_reference": "Aap_uECE__ZJvksxs0VGLQSaApXCB1SGGtvYtdYDYPEcY3qKOfc4U3PH5oDD0KnNtcVOmDYec1qCGRBe3Awf-iTO39Yb4dOCXFN0XiO1xIeZQKiyTw85eF4TO7ie-Osb4HB4xZjrUDqbVxfsu1jPAahStXw4VzcBFYonfY4XV07dV9n174Lz", "width": 4160}], "place_id": "ChIJHQs2xC279jkRoKTFmEGdIes", "plus_code": {"compound_code": "VC3F+W5 Barajamua, Jharkhand, India", "global_code": "7MM8VC3F+W5"}, "rating": 4.5, "reference": "ChIJHQs2xC279jkRoKTFmEGdIes", "scope": "GOOGLE", "types": ["school", "point_of_interest", "establishment"], "user_ratings_total": 6, "vicinity": "Loharbarwa, Barajamua"}, {"business_status": "CLOSED_TEMPORARILY", "geometry": {"location": {"lat": 23.85405829999999, "lng": 86.4214184}, "viewport": {"northeast": {"lat": 23.8554018302915, "lng": 86.42279428029151}, "southwest": {"lat": 23.8527038697085, "lng": 86.4200963197085}}}, "icon": "https://maps.gstatic.com/mapfiles/place_api/icons/v1/png_71/school-71.png", "icon_background_color": "#7B9EB0", "icon_mask_base_uri": "https://maps.gstatic.com/mapfiles/place_api/icons/v2/school_pinlet", "name": "EARTHASHASTRA ACADEMY", "permanently_closed": true, "place_id": "ChIJVS1DzNKk9jkRygxTnPWGc00", "plus_code": {"compound_code": "VC3C+JH Dhanbad, Jharkhand, India", "global_code": "7MM8VC3C+JH"}, "rating": 4, "reference": "ChIJVS1DzNKk9jkRygxTnPWGc00", "scope": "GOOGLE", "types": ["school", "point_of_interest", "establishment"], "user_ratings_total": 1, "vicinity": "Barwadda, Loharbarwa, Dhanbad"}, {"business_status": "OPERATIONAL", "geometry": {"location": {"lat": 23.85463739999999, "lng": 86.42230599999999}, "viewport": {"northeast": {"lat": 23.8560780802915, "lng": 86.4236902802915}, "southwest": {"lat": 23.85338011970849, "lng": 86.42099231970849}}}, "icon": "https://maps.gstatic.com/mapfiles/place_api/icons/v1/png_71/school-71.png", "icon_background_color": "#7B9EB0", "icon_mask_base_uri": "https://maps.gstatic.com/mapfiles/place_api/icons/v2/school_pinlet", "name": "Symbiosis kids", "photos": [{"height": 1080, "html_attributions": ["<a href=\"https://maps.google.com/maps/contrib/109178749177625418215\">Sourav Kumar Mondal</a>"], "photo_reference": "Aap_uED9xzmsakzZsDjmyWJss7Yltcz_l4Rjfum7-Mow8f9m0zUpDZCwYG1MwpdAec0kB06y42OElJ6rqHhSzpsh8jek3QY4d9s-iQQk-r0cNBKK2PZ_cL2QyfUoJ65ZXOdOPqHjCe0KfxFL-QZhUDHzlqBBq_tIVbN2Se6AkoVzapAEPazs", "width": 1920}], "place_id": "ChIJwwQKdgG79jkR4Z5MANAanB8", "plus_code": {"compound_code": "VC3C+VW Kalyanpur, Jharkhand, India", "global_code": "7MM8VC3C+VW"}, "rating": 5, "reference": "ChIJwwQKdgG79jkR4Z5MANAanB8", "scope": "GOOGLE", "types": ["school", "point_of_interest", "establishment"], "user_ratings_total": 6, "vicinity": "Barwadda By Pass Road, Kalyanpur"}, {"business_status": "OPERATIONAL", "geometry": {"location": {"lat": 23.8518123, "lng": 86.4329825}, "viewport": {"northeast": {"lat": 23.8531864302915, "lng": 86.4344209302915}, "southwest": {"lat": 23.8504884697085, "lng": 86.43172296970849}}}, "icon": "https://maps.gstatic.com/mapfiles/place_api/icons/v1/png_71/school-71.png", "icon_background_color": "#7B9EB0", "icon_mask_base_uri": "https://maps.gstatic.com/mapfiles/place_api/icons/v2/school_pinlet", "name": "Mount Marry School", "place_id": "ChIJjaQVr7y79jkRo35sBocmOQU", "rating": 5, "reference": "ChIJjaQVr7y79jkRo35sBocmOQU", "scope": "GOOGLE", "types": ["school", "point_of_interest", "establishment"], "user_ratings_total": 1, "vicinity": "VC2M+P5H, Damkarabarwa"}], "status": "OK"}