{"html_attributions": [], "results": [{"business_status": "OPERATIONAL", "geometry": {"location": {"lat": 23.7789169, "lng": 86.43784730000002}, "viewport": {"northeast": {"lat": 23.7802266802915, "lng": 86.4391846302915}, "southwest": {"lat": 23.7775287197085, "lng": 86.4364866697085}}}, "icon": "https://maps.gstatic.com/mapfiles/place_api/icons/v1/png_71/school-71.png", "icon_background_color": "#7B9EB0", "icon_mask_base_uri": "https://maps.gstatic.com/mapfiles/place_api/icons/v2/school_pinlet", "name": "New Convent School", "photos": [{"height": 1932, "html_attributions": ["<a href=\"https://maps.google.com/maps/contrib/105629046885310688689\">Pradeep kumar</a>"], "photo_reference": "Aap_uEBu9ROQUdwNxrIwX_i0jZSOUf2ME2VUPGmh1sV_IPYOu8r0cNhole-tuuQw-vGNXVfwsd7_ICh3m515hMNGJvasO4T8FBWhmf5_Z7kEVIrZPM_7SayAUDxb1wGE2r5iT1yj6INgjpHoHVIP6lCj5IwKEIpyJM0yMN-bbW8rHwvImBuw", "width": 2576}], "place_id": "ChIJmZwnnt289jkRu9lhLLZfSLU", "rating": 5, "reference": "ChIJmZwnnt289jkRu9lhLLZfSLU", "scope": "GOOGLE", "types": ["school", "point_of_interest", "establishment"], "user_ratings_total": 1, "vicinity": "QCHQ+H49, Panchwati, Dhanbad"}, {"business_status": "OPERATIONAL", "geometry": {"location": {"lat": 23.7796235, "lng": 86.4389877}, "viewport": {"northeast": {"lat": 23.7812272302915, "lng": 86.44040978029152}, "southwest": {"lat": 23.7785292697085, "lng": 86.43771181970851}}}, "icon": "https://maps.gstatic.com/mapfiles/place_api/icons/v1/png_71/school-71.png", "icon_background_color": "#7B9EB0", "icon_mask_base_uri": "https://maps.gstatic.com/mapfiles/place_api/icons/v2/school_pinlet", "name": "\u0915\u0941\u092e\u093e\u0930 \u092a\u094d\u0930\u093e\u0966 \u0906\u0908 \u091f\u0940 \u0906\u0908", "photos": [{"height": 1280, "html_attributions": ["<a href=\"https://maps.google.com/maps/contrib/115576995115717634661\">Raushan Kumar</a>"], "photo_reference": "Aap_uEBtPUp1EW-KZiUS714bjWYwhhE3sCM6E5LuuuOHDqrDyv0CbpnuMLsNDiIy1nwe_V_KcJsN0HIKKHmCTFf5oaxW7K1Cx-wgj0_YJWte1I15aVWTZlFgvmQTnBgu8kmI_RAoHxMwX2I7gXBRn-F_VsIk1kuNL-gdWO7ySwpla-CcSbvh", "width": 720}], "place_id": "ChIJGXfdgIW99jkR6Bp-XEgQvkQ", "plus_code": {"compound_code": "QCHQ+RH Dhanbad, Jharkhand, India", "global_code": "7MM8QCHQ+RH"}, "reference": "ChIJGXfdgIW99jkR6Bp-XEgQvkQ", "scope": "GOOGLE", "types": ["school", "point_of_interest", "establishment"], "vicinity": "Hari Narayan Colony Main Road, Hari Narayan Colony, Panchwati, Dhanbad"}, {"business_status": "OPERATIONAL", "geometry": {"location": {"lat": 23.7811778, "lng": 86.4489313}, "viewport": {"northeast": {"lat": 23.7824844802915, "lng": 86.4502742302915}, "southwest": {"lat": 23.7797865197085, "lng": 86.44757626970849}}}, "icon": "https://maps.gstatic.com/mapfiles/place_api/icons/v1/png_71/school-71.png", "icon_background_color": "#7B9EB0", "icon_mask_base_uri": "https://maps.gstatic.com/mapfiles/place_api/icons/v2/school_pinlet", "name": "Modern Kids Pre School", "opening_hours": {"open_now": false}, "photos": [{"height": 1080, "html_attributions": ["<a href=\"https://maps.google.com/maps/contrib/106285148240771122887\">Sameer Singh</a>"], "photo_reference": "Aap_uEC6If2IDV0XwT7YEX7ijuPKgqB-ZgbEgcvr-w_-QaHonnfLvG789ylK8W3tT31UyJxkOSUVh7_8wVi_coydflW3orbWw8iFgarAOoUHWDftBo1-egj7Yi3FrqV-wluy0VhfAZKe33Liwlp7jTOSH2UwtBtc3t2oICZwuTaKMIJU0nFy", "width": 1920}], "place_id": "ChIJ4xgycee99jkRP9MYMBl8Uyk", "plus_code": {"compound_code": "QCJX+FH Dhanbad, Jharkhand, India", "global_code": "7MM8QCJX+FH"}, "reference": "ChIJ4xgycee99jkRP9MYMBl8Uyk", "scope": "GOOGLE", "types": ["school", "point_of_interest", "establishment"], "vicinity": "near Pahari Par, Gas Godam, Barmasia"}, {"business_status": "OPERATIONAL", "geometry": {"location": {"lat": 23.7814168, "lng": 86.448543}, "viewport": {"northeast": {"lat": 23.7828065302915, "lng": 86.4499029302915}, "southwest": {"lat": 23.7801085697085, "lng": 86.4472049697085}}}, "icon": "https://maps.gstatic.com/mapfiles/place_api/icons/v1/png_71/school-71.png", "icon_background_color": "#7B9EB0", "icon_mask_base_uri": "https://maps.gstatic.com/mapfiles/place_api/icons/v2/school_pinlet", "name": "East Convent School", "place_id": "ChIJwSKqWuW89jkR9ZXIdwm3LUU", "reference": "ChIJwSKqWuW89jkR9ZXIdwm3LUU", "scope": "GOOGLE", "types": ["school", "point_of_interest", "establishment"], "vicinity": "QCJX+HC7, Bhuda Colony, Dhanbad"}, {"business_status": "OPERATIONAL", "geometry": {"location": {"lat": 23.7814478, "lng": 86.4484777}, "viewport": {"northeast": {"lat": 23.7828298802915, "lng": 86.4498355802915}, "southwest": {"lat": 23.7801319197085, "lng": 86.44713761970849}}}, "icon": "https://maps.gstatic.com/mapfiles/place_api/icons/v1/png_71/school-71.png", "icon_background_color": "#7B9EB0", "icon_mask_base_uri": "https://maps.gstatic.com/mapfiles/place_api/icons/v2/school_pinlet", "name": "Pragati Gyan international school", "place_id": "ChIJzYqMdrW99jkRgLV6BP1H5jc", "plus_code": {"compound_code": "QCJX+H9 Dhanbad, Jharkhand, India", "global_code": "7MM8QCJX+H9"}, "reference": "ChIJzYqMdrW99jkRgLV6BP1H5jc", "scope": "GOOGLE", "types": ["school", "point_of_interest", "establishment"], "vicinity": "Rani Road,Bhuda Colony, Bhuda, Bhuda Colony, Dhanbad"}], "status": "OK"}