{"html_attributions": [], "results": [{"business_status": "OPERATIONAL", "geometry": {"location": {"lat": 23.6814514, "lng": 86.4642666}, "viewport": {"northeast": {"lat": 23.6828017302915, "lng": 86.46560148029151}, "southwest": {"lat": 23.6801037697085, "lng": 86.46290351970849}}}, "icon": "https://maps.gstatic.com/mapfiles/place_api/icons/v1/png_71/school-71.png", "icon_background_color": "#7B9EB0", "icon_mask_base_uri": "https://maps.gstatic.com/mapfiles/place_api/icons/v2/school_pinlet", "name": "Study center Modidih", "place_id": "ChIJf6uLXeqX9jkRR7y0W2BxXek", "plus_code": {"compound_code": "MFJ7+HP Parasbania, Jharkhand, India", "global_code": "7MM8MFJ7+HP"}, "reference": "ChIJf6uLXeqX9jkRR7y0W2BxXek", "scope": "GOOGLE", "types": ["school", "point_of_interest", "establishment"], "vicinity": "Modidih"}, {"business_status": "OPERATIONAL", "geometry": {"location": {"lat": 23.6813485, "lng": 86.46422489999999}, "viewport": {"northeast": {"lat": 23.6826955302915, "lng": 86.4655837302915}, "southwest": {"lat": 23.6799975697085, "lng": 86.46288576970849}}}, "icon": "https://maps.gstatic.com/mapfiles/place_api/icons/v1/png_71/school-71.png", "icon_background_color": "#7B9EB0", "icon_mask_base_uri": "https://maps.gstatic.com/mapfiles/place_api/icons/v2/school_pinlet", "name": "\u0930\u093e\u091c\u0915\u0940\u092f \u0909\u0924\u094d\u0915\u094d\u0930\u092e\u093f\u0924 \u092e\u0927\u094d\u092f \u0935\u093f\u0926\u094d\u092f\u093e\u0932\u092f \u092e\u094b\u0926\u0940\u0921\u093f\u0939", "place_id": "ChIJ14mK5gmX9jkRep1tEaq7PZc", "reference": "ChIJ14mK5gmX9jkRep1tEaq7PZc", "scope": "GOOGLE", "types": ["school", "point_of_interest", "establishment"], "vicinity": "MFJ7+GMQ, Parasbania"}, {"business_status": "OPERATIONAL", "geometry": {"location": {"lat": 23.6812239, "lng": 86.4647064}, "viewport": {"northeast": {"lat": 23.6825725802915, "lng": 86.4660554302915}, "southwest": {"lat": 23.6798746197085, "lng": 86.4633574697085}}}, "icon": "https://maps.gstatic.com/mapfiles/place_api/icons/v1/png_71/school-71.png", "icon_background_color": "#7B9EB0", "icon_mask_base_uri": "https://maps.gstatic.com/mapfiles/place_api/icons/v2/school_pinlet", "name": "Utkramit rajkiyakrit Madhya vidalay", "photos": [{"height": 1920, "html_attributions": ["<a href=\"https://maps.google.com/maps/contrib/101998162428145180327\">Chandan Dubey</a>"], "photo_reference": "Aap_uEAu3VTzHH5lKCHOdilKt6p5eOneRBpArK-ze7FgJJVayPes961lMj5EP3r-0m3vfiUwsA5kRQrLgsWNL7__2C09917Iv1CMNAy_xLWCRMArUS7MvhmztPUfaElbVPfXnrMAS9wtpOyX-eGxVkl8tpDmrJL4-P2jU5vK_Nw2I9GbBvNS", "width": 1080}], "place_id": "ChIJU2WEq5OX9jkRiCoUepCmkxQ", "plus_code": {"compound_code": "MFJ7+FV Parasbania, Jharkhand, India", "global_code": "7MM8MFJ7+FV"}, "rating": 4, "reference": "ChIJU2WEq5OX9jkRiCoUepCmkxQ", "scope": "GOOGLE", "types": ["school", "point_of_interest", "establishment"], "user_ratings_total": 1, "vicinity": "Unnamed Road"}, {"business_status": "OPERATIONAL", "geometry": {"location": {"lat": 23.6810707, "lng": 86.4645089}, "viewport": {"northeast": {"lat": 23.6825117802915, "lng": 86.46589688029151}, "southwest": {"lat": 23.6798138197085, "lng": 86.46319891970849}}}, "icon": "https://maps.gstatic.com/mapfiles/place_api/icons/v1/png_71/school-71.png", "icon_background_color": "#7B9EB0", "icon_mask_base_uri": "https://maps.gstatic.com/mapfiles/place_api/icons/v2/school_pinlet", "name": "Modidih School", "place_id": "ChIJwUdeqVaW9jkR1evA6C5e8Mk", "rating": 1.5, "reference": "ChIJwUdeqVaW9jkR1evA6C5e8Mk", "scope": "GOOGLE", "types": ["school", "point_of_interest", "establishment"], "user_ratings_total": 2, "vicinity": "MFJ7+CRC, Parasbania"}, {"business_status": "OPERATIONAL", "geometry": {"location": {"lat": 23.6869998, "lng": 86.4569777}, "viewport": {"northeast": {"lat": 23.6884350802915, "lng": 86.45832933029149}, "southwest": {"lat": 23.6857371197085, "lng": 86.45563136970848}}}, "icon": "https://maps.gstatic.com/mapfiles/place_api/icons/v1/png_71/school-71.png", "icon_background_color": "#7B9EB0", "icon_mask_base_uri": "https://maps.gstatic.com/mapfiles/place_api/icons/v2/school_pinlet", "name": "Government Basic School, Parasbania", "place_id": "ChIJy1qDfq2X9jkRW0IuLVIQLgQ", "plus_code": {"compound_code": "MFP4+QQ Parasbania, Jharkhand, India", "global_code": "7MM8MFP4+QQ"}, "rating": 5, "reference": "ChIJy1qDfq2X9jkRW0IuLVIQLgQ", "scope": "GOOGLE", "types": ["school", "point_of_interest", "establishment"], "user_ratings_total": 1, "vicinity": "India"}, {"business_status": "OPERATIONAL", "geometry": {"location": {"lat": 23.6869439, "lng": 86.45696099999999}, "viewport": {"northeast": {"lat": 23.68822663029151, "lng": 86.45821118029151}, "southwest": {"lat": 23.6855286697085, "lng": 86.45551321970851}}}, "icon": "https://maps.gstatic.com/mapfiles/place_api/icons/v1/png_71/school-71.png", "icon_background_color": "#7B9EB0", "icon_mask_base_uri": "https://maps.gstatic.com/mapfiles/place_api/icons/v2/school_pinlet", "name": "Government public high school parasbania", "place_id": "ChIJPQfOaaKX9jkR8LT-y22nV1c", "reference": "ChIJPQfOaaKX9jkR8LT-y22nV1c", "scope": "GOOGLE", "types": ["school", "point_of_interest", "establishment"], "vicinity": "MFP4+QQG, Parasbania"}, {"business_status": "OPERATIONAL", "geometry": {"location": {"lat": 23.6865507, "lng": 86.4570426}, "viewport": {"northeast": {"lat": 23.6879122302915, "lng": 86.4582400802915}, "southwest": {"lat": 23.6852142697085, "lng": 86.4555421197085}}}, "icon": "https://maps.gstatic.com/mapfiles/place_api/icons/v1/png_71/school-71.png", "icon_background_color": "#7B9EB0", "icon_mask_base_uri": "https://maps.gstatic.com/mapfiles/place_api/icons/v2/school_pinlet", "name": "Parasbania High School", "place_id": "ChIJV7-kNUaX9jkRStI3PeojD7I", "rating": 5, "reference": "ChIJV7-kNUaX9jkRStI3PeojD7I", "scope": "GOOGLE", "types": ["school", "point_of_interest", "establishment"], "user_ratings_total": 2, "vicinity": "MFP4+JRF, Parasbania"}, {"business_status": "OPERATIONAL", "geometry": {"location": {"lat": 23.67850649999999, "lng": 86.46931839999999}, "viewport": {"northeast": {"lat": 23.6797648802915, "lng": 86.47064863029149}, "southwest": {"lat": 23.67706691970849, "lng": 86.46795066970849}}}, "icon": "https://maps.gstatic.com/mapfiles/place_api/icons/v1/png_71/school-71.png", "icon_background_color": "#7B9EB0", "icon_mask_base_uri": "https://maps.gstatic.com/mapfiles/place_api/icons/v2/school_pinlet", "name": "Yogeshwar Shiv Muni Vidya Mandir", "opening_hours": {"open_now": false}, "photos": [{"height": 1836, "html_attributions": ["<a href=\"https://maps.google.com/maps/contrib/109805589969158056605\">Ritik Kumar</a>"], "photo_reference": "Aap_uEDSap-2dTPqCF7QNYXvlQl2s6_7TyZj_3O4CIrO2ydgsPUONBDgGnUm99EfR4VIknELvpM5xsMhQXzbec8lvyQhAxTWY05NWzscY0DU4NOvNDyz3gurHdxl4MW3ppg9LwxncCZTxXpYjNMKMa9FuOXvKp8meqt9mykjElYqP4u07kU4", "width": 3264}], "place_id": "ChIJA2yK_tSX9jkRzE6RdyE_JnQ", "rating": 5, "reference": "ChIJA2yK_tSX9jkRzE6RdyE_JnQ", "scope": "GOOGLE", "types": ["school", "point_of_interest", "establishment"], "user_ratings_total": 3, "vicinity": "MFH9+CP4, Dhanbad"}, {"business_status": "OPERATIONAL", "geometry": {"location": {"lat": 23.6848635, "lng": 86.4547564}, "viewport": {"northeast": {"lat": 23.6861988302915, "lng": 86.4562190802915}, "southwest": {"lat": 23.6835008697085, "lng": 86.4535211197085}}}, "icon": "https://maps.gstatic.com/mapfiles/place_api/icons/v1/png_71/school-71.png", "icon_background_color": "#7B9EB0", "icon_mask_base_uri": "https://maps.gstatic.com/mapfiles/place_api/icons/v2/school_pinlet", "name": "Parasbania Karmakar niche tola", "opening_hours": {"open_now": false}, "photos": [{"height": 2448, "html_attributions": ["<a href=\"https://maps.google.com/maps/contrib/113423746892773817959\">bechelr baba</a>"], "photo_reference": "Aap_uECwdMKa6xGGWhslK9BdhuDbRUBtfJflj6Roo16aJDFnlb6jwX98FVcnK-NVmIQyty_tU7bPLr6Jk3tZmlUo8y2FVJDoKK0xxpE8zvNNv-viwK4ceEaUz34pt8DyAPuQAg3sYU7W9bBy_hXeZGtna3ag-Y01F93cW9UGepyHtozMvF74", "width": 3264}], "place_id": "ChIJGUzCz62X9jkRKqLoOsVMJ6M", "rating": 5, "reference": "ChIJGUzCz62X9jkRKqLoOsVMJ6M", "scope": "GOOGLE", "types": ["school", "point_of_interest", "establishment"], "user_ratings_total": 1, "vicinity": "MFM3+WWR, Parasbania"}, {"business_status": "OPERATIONAL", "geometry": {"location": {"lat": 23.6899433, "lng": 86.47851709999999}, "viewport": {"northeast": {"lat": 23.6914893802915, "lng": 86.47988223029151}, "southwest": {"lat": 23.68879141970849, "lng": 86.47718426970849}}}, "icon": "https://maps.gstatic.com/mapfiles/place_api/icons/v1/png_71/school-71.png", "icon_background_color": "#7B9EB0", "icon_mask_base_uri": "https://maps.gstatic.com/mapfiles/place_api/icons/v2/school_pinlet", "name": "Sidhatand School", "place_id": "ChIJ24L9kUKW9jkRf-qii2VDHXs", "rating": 5, "reference": "ChIJ24L9kUKW9jkRf-qii2VDHXs", "scope": "GOOGLE", "types": ["school", "point_of_interest", "establishment"], "user_ratings_total": 1, "vicinity": "MFQH+XCC, Dhanbad"}, {"business_status": "OPERATIONAL", "geometry": {"location": {"lat": 23.6768233, "lng": 86.4692469}, "viewport": {"northeast": {"lat": 23.6781229302915, "lng": 86.4710223302915}, "southwest": {"lat": 23.6754249697085, "lng": 86.4683243697085}}}, "icon": "https://maps.gstatic.com/mapfiles/place_api/icons/v1/png_71/school-71.png", "icon_background_color": "#7B9EB0", "icon_mask_base_uri": "https://maps.gstatic.com/mapfiles/place_api/icons/v2/school_pinlet", "name": "UTKRAMIT MIDDLE SCHOOL MANOHARTAND BASTI", "photos": [{"height": 4608, "html_attributions": ["<a href=\"https://maps.google.com/maps/contrib/109258003849975635667\">Sanjay Das</a>"], "photo_reference": "Aap_uEC2us6enaoLLHtMX-Ft4FYNFywCVVU--4cBaxa3h34BcksotXlGRmtqSSsLMcBMxyYAh0yDU5kd0iyAvjevUsWmy6UNNrNEzYxfqpWZQk5UKX6109sUHp_sB0jsnj9WHCTh3VhFM85uxfyqPn6xZbkkYTRcVKmw8VjsoyBRnZ2oPYja", "width": 3456}], "place_id": "ChIJKbtIhyiX9jkRkEvivr0uJ9w", "plus_code": {"compound_code": "MFG9+PM Sindri, Jharkhand, India", "global_code": "7MM8MFG9+PM"}, "reference": "ChIJKbtIhyiX9jkRkEvivr0uJ9w", "scope": "GOOGLE", "types": ["school", "point_of_interest", "establishment"], "vicinity": "Hirak Road"}, {"business_status": "OPERATIONAL", "geometry": {"location": {"lat": 23.6788513, "lng": 86.4742409}, "viewport": {"northeast": {"lat": 23.6795732802915, "lng": 86.47505608029151}, "southwest": {"lat": 23.6768753197085, "lng": 86.4723581197085}}}, "icon": "https://maps.gstatic.com/mapfiles/place_api/icons/v1/png_71/school-71.png", "icon_background_color": "#7B9EB0", "icon_mask_base_uri": "https://maps.gstatic.com/mapfiles/place_api/icons/v2/school_pinlet", "name": "SINDRI COLLEGE SINDRI", "photos": [{"height": 2121, "html_attributions": ["<a href=\"https://maps.google.com/maps/contrib/103774830984178395572\">DO YOU KNOW</a>"], "photo_reference": "Aap_uEAwgppSomkfVhr2qaqsterWrbJBQZ60S9PpP0lMSHQaHI5N3dd5C3da9dD9ZT5jqXYYCatFHRMgH9r7tLtaaS-HYpZWZpfkhwE7n72CichLSLEpDyGTTPn5eMV4kq3G-eL3Bzj96JBkjuqtTRa_dnEzEQMI0IxDMWJUeD-2k1mJ7zzD", "width": 3771}], "place_id": "ChIJh6BCfSmX9jkRWpFBgKhZjCc", "plus_code": {"compound_code": "MFHF+GM Sindri, Jharkhand, India", "global_code": "7MM8MFHF+GM"}, "rating": 4, "reference": "ChIJh6BCfSmX9jkRWpFBgKhZjCc", "scope": "GOOGLE", "types": ["school", "point_of_interest", "establishment"], "user_ratings_total": 5, "vicinity": "Boys, Sindri"}, {"business_status": "OPERATIONAL", "geometry": {"location": {"lat": 23.6774874, "lng": 86.4718146}, "viewport": {"northeast": {"lat": 23.6788873302915, "lng": 86.4732095802915}, "southwest": {"lat": 23.6761893697085, "lng": 86.47051161970849}}}, "icon": "https://maps.gstatic.com/mapfiles/place_api/icons/v1/png_71/school-71.png", "icon_background_color": "#7B9EB0", "icon_mask_base_uri": "https://maps.gstatic.com/mapfiles/place_api/icons/v2/school_pinlet", "name": "\u0906\u0902\u0917\u0928\u0935\u093e\u0921\u093c\u0940 \u0915\u0947\u0928\u094d\u0926\u094d\u0930,\u092e\u0928\u094b\u0939\u0930\u091f\u093e\u0902\u0921\u093c", "place_id": "ChIJbbBaX1iW9jkROwkTN7XcQgk", "reference": "ChIJbbBaX1iW9jkROwkTN7XcQgk", "scope": "GOOGLE", "types": ["school", "point_of_interest", "establishment"], "vicinity": "MFGC+XPW, Sindri"}], "status": "OK"}