{"html_attributions": [], "results": [{"business_status": "OPERATIONAL", "geometry": {"location": {"lat": 23.7439046, "lng": 86.4667951}, "viewport": {"northeast": {"lat": 23.74507275, "lng": 86.4677226302915}, "southwest": {"lat": 23.74040014999999, "lng": 86.4650246697085}}}, "icon": "https://maps.gstatic.com/mapfiles/place_api/icons/v1/png_71/school-71.png", "icon_background_color": "#7B9EB0", "icon_mask_base_uri": "https://maps.gstatic.com/mapfiles/place_api/icons/v2/school_pinlet", "name": "prathmik vidhalaya golmara", "place_id": "ChIJ_____5i99jkR1uTzQxAj_uA", "reference": "ChIJ_____5i99jkR1uTzQxAj_uA", "scope": "GOOGLE", "types": ["school", "point_of_interest", "establishment"], "vicinity": "PFV8+HP7, Golmara"}, {"business_status": "OPERATIONAL", "geometry": {"location": {"lat": 23.7486063, "lng": 86.473722}, "viewport": {"northeast": {"lat": 23.7499542, "lng": 86.4749525802915}, "southwest": {"lat": 23.74456259999999, "lng": 86.4722546197085}}}, "icon": "https://maps.gstatic.com/mapfiles/place_api/icons/v1/png_71/school-71.png", "icon_background_color": "#7B9EB0", "icon_mask_base_uri": "https://maps.gstatic.com/mapfiles/place_api/icons/v2/school_pinlet", "name": "RAJIB MURMU", "photos": [{"height": 966, "html_attributions": ["<a href=\"https://maps.google.com/maps/contrib/101696859766969665293\">RAJIB MURMU</a>"], "photo_reference": "Aap_uEA1SfyjDJQhs-0WLNKQR46JnCrE_7IGUaMSq1t-NNOewYwOxDA-s5n0BJxeL7zWDOOiVKupte98YVvWMPHZViOPWHZ0kX87k9NaYojHVL6Tbp340xRoZzrmFj-dW_dt1htgSlAZbb5Ot6YeTyTLUswXtI89hO5DIqpoad-rHs4VWOHS", "width": 720}], "place_id": "ChIJe97L31699jkRKPPCnEJvBRc", "plus_code": {"compound_code": "PFXF+CF Belgaria, Jharkhand, India", "global_code": "7MM8PFXF+CF"}, "reference": "ChIJe97L31699jkRKPPCnEJvBRc", "scope": "GOOGLE", "types": ["school", "point_of_interest", "establishment"], "vicinity": "Unnamed Road"}, {"business_status": "OPERATIONAL", "geometry": {"location": {"lat": 23.7569564, "lng": 86.4672738}, "viewport": {"northeast": {"lat": 23.7583092302915, "lng": 86.4685299802915}, "southwest": {"lat": 23.7556112697085, "lng": 86.4658320197085}}}, "icon": "https://maps.gstatic.com/mapfiles/place_api/icons/v1/png_71/school-71.png", "icon_background_color": "#7B9EB0", "icon_mask_base_uri": "https://maps.gstatic.com/mapfiles/place_api/icons/v2/school_pinlet", "name": "Sarva Shiksha Abhiyan School", "photos": [{"height": 422, "html_attributions": ["<a href=\"https://maps.google.com/maps/contrib/112577189152417501466\">Kanhaiya Kumar</a>"], "photo_reference": "Aap_uEClZVFqMWI-T5rcTCiwrF4_cRvRldRZ3bNCb82aAN5OGoh1gXQMlGvOmVe6Q1Nv7OqACWbwyahZxYVPIbKG9pMaYYQ8r8XwPI3kIX48pdbtDQEoTHh1qut86QpBt4nkFU8iGLm7FlBlS4PUkdvEyR7fSl1u0Sys-mIqOF_1dSAq2iDH", "width": 635}], "place_id": "ChIJmWHSDaW99jkRPIezUzZnjKs", "rating": 5, "reference": "ChIJmWHSDaW99jkRPIezUzZnjKs", "scope": "GOOGLE", "types": ["school", "point_of_interest", "establishment"], "user_ratings_total": 1, "vicinity": "QF48+QWJ, Belgaria"}, {"business_status": "OPERATIONAL", "geometry": {"location": {"lat": 23.7570632, "lng": 86.4664538}, "viewport": {"northeast": {"lat": 23.7583868802915, "lng": 86.4677703802915}, "southwest": {"lat": 23.7556889197085, "lng": 86.46507241970849}}}, "icon": "https://maps.gstatic.com/mapfiles/place_api/icons/v1/png_71/school-71.png", "icon_background_color": "#7B9EB0", "icon_mask_base_uri": "https://maps.gstatic.com/mapfiles/place_api/icons/v2/school_pinlet", "name": "Ambedkar Public School Bel. Colony", "place_id": "ChIJxcIAErS99jkRC5NS0iXLh8Q", "plus_code": {"compound_code": "QF48+RH Jharia, Jharkhand, India", "global_code": "7MM8QF48+RH"}, "reference": "ChIJxcIAErS99jkRC5NS0iXLh8Q", "scope": "GOOGLE", "types": ["school", "point_of_interest", "establishment"], "vicinity": "near big shiv mandir, vihar colony, Jharia"}, {"business_status": "OPERATIONAL", "geometry": {"location": {"lat": 23.7571141, "lng": 86.4664511}, "viewport": {"northeast": {"lat": 23.7584276802915, "lng": 86.4677547302915}, "southwest": {"lat": 23.7557297197085, "lng": 86.4650567697085}}}, "icon": "https://maps.gstatic.com/mapfiles/place_api/icons/v1/png_71/school-71.png", "icon_background_color": "#7B9EB0", "icon_mask_base_uri": "https://maps.gstatic.com/mapfiles/place_api/icons/v2/school_pinlet", "name": "Ambedkar Public School", "photos": [{"height": 1970, "html_attributions": ["<a href=\"https://maps.google.com/maps/contrib/113026876426943915742\">Sanju Rao</a>"], "photo_reference": "Aap_uED2cS2bPRMKKZ_OZzDpp9ci_508tnJLdOciZxHvs2T8RQkD-RVWgnOv3d6MU7Cd6FsyJHctVQol_Oqbd4A9Y8yVv7Uz8VF2_PlwZJjNCP0XgSQMYDGiSoWDvJYP6vUVLTVX962KJ6l2FXDp2bmQ3GaD1oHIssijUQmfXftx1TVl_8dc", "width": 4160}], "place_id": "ChIJFSj8V2e99jkRbg69tHiuFrg", "rating": 3.7, "reference": "ChIJFSj8V2e99jkRbg69tHiuFrg", "scope": "GOOGLE", "types": ["school", "point_of_interest", "establishment"], "user_ratings_total": 3, "vicinity": "QF48+RHW, Belgaria"}, {"business_status": "OPERATIONAL", "geometry": {"location": {"lat": 23.7571793, "lng": 86.46732329999999}, "viewport": {"northeast": {"lat": 23.7585598802915, "lng": 86.4686700302915}, "southwest": {"lat": 23.7558619197085, "lng": 86.46597206970849}}}, "icon": "https://maps.gstatic.com/mapfiles/place_api/icons/v1/png_71/school-71.png", "icon_background_color": "#7B9EB0", "icon_mask_base_uri": "https://maps.gstatic.com/mapfiles/place_api/icons/v2/school_pinlet", "name": "Royal Yadav", "opening_hours": {"open_now": false}, "photos": [{"height": 3456, "html_attributions": ["<a href=\"https://maps.google.com/maps/contrib/107007782673050970475\">Royal Yadav</a>"], "photo_reference": "Aap_uEC6_hgCz19Jjv4GhqDGrONYlzQRrh2fBoZ4hRfCfa8bmvN1hsd1y8xUHrVPYmjPMVqsNsrIKAeITF651OR6pQ6n3R0qJERfgHXd6d3KT8mWr7bQG9219D1RkUf_aD9sUkHRfb31I3rxBN4f7AaK6oue7A7Cj-ptj4Tp4Xa1z-Tstrkj", "width": 4608}], "place_id": "ChIJmS4qzTG99jkRMn40b1_iENY", "plus_code": {"compound_code": "QF48+VW Belgaria, Jharkhand, India", "global_code": "7MM8QF48+VW"}, "reference": "ChIJmS4qzTG99jkRMn40b1_iENY", "scope": "GOOGLE", "types": ["school", "point_of_interest", "establishment"], "vicinity": "Unnamed Road, Belgaria"}, {"business_status": "OPERATIONAL", "geometry": {"location": {"lat": 23.7375601, "lng": 86.4656445}, "viewport": {"northeast": {"lat": 23.7389481802915, "lng": 86.46715073029151}, "southwest": {"lat": 23.7362502197085, "lng": 86.46445276970849}}}, "icon": "https://maps.gstatic.com/mapfiles/place_api/icons/v1/png_71/school-71.png", "icon_background_color": "#7B9EB0", "icon_mask_base_uri": "https://maps.gstatic.com/mapfiles/place_api/icons/v2/school_pinlet", "name": "Golmara School", "place_id": "ChIJX_c067C99jkR_1t_D4gZu-Q", "reference": "ChIJX_c067C99jkR_1t_D4gZu-Q", "scope": "GOOGLE", "types": ["school", "point_of_interest", "establishment"], "vicinity": "PFQ8+27C, Golmara"}], "status": "OK"}