{"html_attributions": [], "results": [{"business_status": "OPERATIONAL", "geometry": {"location": {"lat": 23.6316781, "lng": 85.71056159999999}, "viewport": {"northeast": {"lat": 23.6330374302915, "lng": 85.71191413029149}, "southwest": {"lat": 23.6303394697085, "lng": 85.70921616970848}}}, "icon": "https://maps.gstatic.com/mapfiles/place_api/icons/v1/png_71/school-71.png", "icon_background_color": "#7B9EB0", "icon_mask_base_uri": "https://maps.gstatic.com/mapfiles/place_api/icons/v2/school_pinlet", "name": "KSR Bhai", "place_id": "ChIJeVYKU1td9DkR21bPYGnoJcQ", "reference": "ChIJeVYKU1td9DkR21bPYGnoJcQ", "scope": "GOOGLE", "types": ["school", "point_of_interest", "establishment"], "vicinity": "JPJ6+M6F, Rajrappa Project, Dhawaiya"}, {"business_status": "OPERATIONAL", "geometry": {"location": {"lat": 23.6316781, "lng": 85.71056159999999}, "viewport": {"northeast": {"lat": 23.6330374302915, "lng": 85.71191413029149}, "southwest": {"lat": 23.6303394697085, "lng": 85.70921616970848}}}, "icon": "https://maps.gstatic.com/mapfiles/place_api/icons/v1/png_71/school-71.png", "icon_background_color": "#7B9EB0", "icon_mask_base_uri": "https://maps.gstatic.com/mapfiles/place_api/icons/v2/school_pinlet", "name": "TRINETRA ACADEMY CHITARPUR", "photos": [{"height": 4608, "html_attributions": ["<a href=\"https://maps.google.com/maps/contrib/106449993557542135175\">SHARMA CLASSES BY JEETLAL SIR</a>"], "photo_reference": "Aap_uEDXmIiest9nUEe0z6w43dlEtTCSbqkw9e-3rcnF3a-kmZIbc1XRVXfle4bTo4MV0mXGKd4eqOqDTW961Nb2S2ijVV3yR611AyElfWiX5V9xBuBIlm7W6-s4phKR4PpGZzzL2EDWEsFNXxtE7P5hIlx8UreI3DWk3UG5VoZMGA93Vi15", "width": 3456}], "place_id": "ChIJ35fAGF5d9DkRinSr0OTwuuM", "plus_code": {"compound_code": "JPJ6+M6 Rajrappa, Jharkhand, India", "global_code": "7MM7JPJ6+M6"}, "reference": "ChIJ35fAGF5d9DkRinSr0OTwuuM", "scope": "GOOGLE", "types": ["school", "point_of_interest", "establishment"], "vicinity": "near, petrol pump, opposite rajrappa more, Rajrappa"}, {"business_status": "CLOSED_TEMPORARILY", "geometry": {"location": {"lat": 23.6316781, "lng": 85.71056159999999}, "viewport": {"northeast": {"lat": 23.6330374302915, "lng": 85.7119142302915}, "southwest": {"lat": 23.6303394697085, "lng": 85.70921626970848}}}, "icon": "https://maps.gstatic.com/mapfiles/place_api/icons/v1/png_71/school-71.png", "icon_background_color": "#7B9EB0", "icon_mask_base_uri": "https://maps.gstatic.com/mapfiles/place_api/icons/v2/school_pinlet", "name": "UHS, Bhuchungdih", "permanently_closed": true, "photos": [{"height": 800, "html_attributions": ["<a href=\"https://maps.google.com/maps/contrib/115688354515574642214\">UHS, Bhuchungdih</a>"], "photo_reference": "Aap_uEBJpCFJeZAxpxo6_kcwxSl6KctPkKV4NARkEhSIl4sWCzS3tHlhiJTMmDknmBwS5NZZCXwG0-xQlZH1LXa1xWVaT7dM8dObOyJFPOAKgQSWHQ0swBA_iblgHWjTUCLG9I02KKmNJcsavG9NxbPLf8S2bi8-qE8-sa-f8auGL7jhnC6A", "width": 1680}], "place_id": "ChIJ68lNscxb9DkRH2Ft2ARKIik", "plus_code": {"compound_code": "JPJ6+M6 Rajrappa, Jharkhand, India", "global_code": "7MM7JPJ6+M6"}, "rating": 5, "reference": "ChIJ68lNscxb9DkRH2Ft2ARKIik", "scope": "GOOGLE", "types": ["school", "point_of_interest", "establishment"], "user_ratings_total": 3, "vicinity": "Government High School Bhuchungdih, Rajrappa"}, {"business_status": "OPERATIONAL", "geometry": {"location": {"lat": 23.6271382, "lng": 85.7139323}, "viewport": {"northeast": {"lat": 23.62861223029151, "lng": 85.71514988029149}, "southwest": {"lat": 23.6259142697085, "lng": 85.71245191970849}}}, "icon": "https://maps.gstatic.com/mapfiles/place_api/icons/v1/png_71/school-71.png", "icon_background_color": "#7B9EB0", "icon_mask_base_uri": "https://maps.gstatic.com/mapfiles/place_api/icons/v2/school_pinlet", "name": "3.D.D Public School Murpa", "photos": [{"height": 2576, "html_attributions": ["<a href=\"https://maps.google.com/maps/contrib/106851601549022880600\">Rahul kumar raj</a>"], "photo_reference": "Aap_uEAJ2j6U7XTaM5rUH2UEFMC4Xk3IlmBQuCWzY9yWXD0hu3lrTeg5fK1TE7gS7Yh7LHYBR65PLzhAiCnC5MxdFg_qrC8Kh6UE6iqQJUR56jWQyjFhGnnpAm0mxgkj4T5l_ombjKzaKm9bNIxtXeLWK2fXQ7J0wbFiDH6FdJtW8F5rMLbA", "width": 1932}], "place_id": "ChIJWVVVymhc9DkRD8mBunD64To", "rating": 4, "reference": "ChIJWVVVymhc9DkRD8mBunD64To", "scope": "GOOGLE", "types": ["school", "point_of_interest", "establishment"], "user_ratings_total": 2, "vicinity": "JPG7+VH3, Banda"}, {"business_status": "OPERATIONAL", "geometry": {"location": {"lat": 23.6316831, "lng": 85.71383399999999}, "viewport": {"northeast": {"lat": 23.6329755802915, "lng": 85.71517178029151}, "southwest": {"lat": 23.6302776197085, "lng": 85.7124738197085}}}, "icon": "https://maps.gstatic.com/mapfiles/place_api/icons/v1/png_71/school-71.png", "icon_background_color": "#7B9EB0", "icon_mask_base_uri": "https://maps.gstatic.com/mapfiles/place_api/icons/v2/school_pinlet", "name": "ANANDA MARGA PRIMARY SCHOOL", "photos": [{"height": 4160, "html_attributions": ["<a href=\"https://maps.google.com/maps/contrib/103380337185235716962\">Pyaar Ek Dhokha hai 1432</a>"], "photo_reference": "Aap_uEDI4Eg_HH2sJSmTDWHS0M0cdyMW6KL5Ouoid199xsXJvb4d7Tlxd5RBMn65ZsiJ1ttrvX4dKlyb5DlpJfs2Umjdz5Yr6NIO4WV9s7hbqENv4GWDTygax2usAn3AELoqKb-nJCc_ispheAzgQOHvQUUl-DFio4fP16u4jmrImj3yAFm2", "width": 3120}], "place_id": "ChIJidP7J2Fd9DkRtrtVcpgeGIE", "plus_code": {"compound_code": "JPJ7+MG Rajrappa, Jharkhand, India", "global_code": "7MM7JPJ7+MG"}, "rating": 3, "reference": "ChIJidP7J2Fd9DkRtrtVcpgeGIE", "scope": "GOOGLE", "types": ["school", "point_of_interest", "establishment"], "user_ratings_total": 1, "vicinity": "GOLA ROAD, Rajrappa"}, {"business_status": "OPERATIONAL", "geometry": {"location": {"lat": 23.638336, "lng": 85.709349}, "viewport": {"northeast": {"lat": 23.6398240302915, "lng": 85.71052813029151}, "southwest": {"lat": 23.6371260697085, "lng": 85.7078301697085}}}, "icon": "https://maps.gstatic.com/mapfiles/place_api/icons/v1/png_71/school-71.png", "icon_background_color": "#7B9EB0", "icon_mask_base_uri": "https://maps.gstatic.com/mapfiles/place_api/icons/v2/school_pinlet", "name": "sanjay soren", "place_id": "ChIJGURl8ZRd9DkRYlFxMZwFJD0", "plus_code": {"compound_code": "JPQ5+8P Barki Punu, Jharkhand, India", "global_code": "7MM7JPQ5+8P"}, "reference": "ChIJGURl8ZRd9DkRYlFxMZwFJD0", "scope": "GOOGLE", "types": ["secondary_school", "school", "point_of_interest", "establishment"], "vicinity": ""}], "status": "OK"}