{"html_attributions": [], "results": [{"business_status": "OPERATIONAL", "geometry": {"location": {"lat": 23.9796343, "lng": 85.7858771}, "viewport": {"northeast": {"lat": 23.9810012802915, "lng": 85.7871698302915}, "southwest": {"lat": 23.97830331970849, "lng": 85.7844718697085}}}, "icon": "https://maps.gstatic.com/mapfiles/place_api/icons/v1/png_71/school-71.png", "icon_background_color": "#7B9EB0", "icon_mask_base_uri": "https://maps.gstatic.com/mapfiles/place_api/icons/v2/school_pinlet", "name": "Jamiya Masjid", "place_id": "ChIJSfKqjLdw9DkR3ZURTiUIkaA", "reference": "ChIJSfKqjLdw9DkR3ZURTiUIkaA", "scope": "GOOGLE", "types": ["school", "point_of_interest", "establishment"], "vicinity": "XQHP+V92, Banaso"}, {"business_status": "OPERATIONAL", "geometry": {"location": {"lat": 23.9787015, "lng": 85.7909653}, "viewport": {"northeast": {"lat": 23.9800067302915, "lng": 85.79234033029151}, "southwest": {"lat": 23.9773087697085, "lng": 85.78964236970849}}}, "icon": "https://maps.gstatic.com/mapfiles/place_api/icons/v1/png_71/school-71.png", "icon_background_color": "#7B9EB0", "icon_mask_base_uri": "https://maps.gstatic.com/mapfiles/place_api/icons/v2/school_pinlet", "name": "Oasis Public School.", "place_id": "ChIJKyHgHTVx9DkRmVxys_Zeook", "reference": "ChIJKyHgHTVx9DkRmVxys_Zeook", "scope": "GOOGLE", "types": ["school", "point_of_interest", "establishment"], "vicinity": "XQHR+F9P, Hazaribagh"}, {"business_status": "OPERATIONAL", "geometry": {"location": {"lat": 23.9789212, "lng": 85.7909432}, "viewport": {"northeast": {"lat": 23.9801351302915, "lng": 85.79236663029151}, "southwest": {"lat": 23.9774371697085, "lng": 85.7896686697085}}}, "icon": "https://maps.gstatic.com/mapfiles/place_api/icons/v1/png_71/school-71.png", "icon_background_color": "#7B9EB0", "icon_mask_base_uri": "https://maps.gstatic.com/mapfiles/place_api/icons/v2/school_pinlet", "name": "Oasis Public School banaso", "place_id": "ChIJa0LGpidx9DkRUo1_8IKmohY", "reference": "ChIJa0LGpidx9DkRUo1_8IKmohY", "scope": "GOOGLE", "types": ["school", "point_of_interest", "establishment"], "vicinity": "XQHR+H98, Banaso"}, {"business_status": "OPERATIONAL", "geometry": {"location": {"lat": 23.980693, "lng": 85.78448739999999}, "viewport": {"northeast": {"lat": 23.9819164802915, "lng": 85.7857417802915}, "southwest": {"lat": 23.9792185197085, "lng": 85.78304381970848}}}, "icon": "https://maps.gstatic.com/mapfiles/place_api/icons/v1/png_71/school-71.png", "icon_background_color": "#7B9EB0", "icon_mask_base_uri": "https://maps.gstatic.com/mapfiles/place_api/icons/v2/school_pinlet", "name": "Project High School Banaso", "opening_hours": {"open_now": false}, "photos": [{"height": 3264, "html_attributions": ["<a href=\"https://maps.google.com/maps/contrib/112589826568773371757\">Dilchand Hansda</a>"], "photo_reference": "Aap_uECzued5sEHgm_32Z2uJAaeIrf7OTE41H04y2H04adcs9afJIjipwN0O-wVO7z4GL2nu9Xn03ZhI8o5LMyLvGeCNjKRkd8CrGNxw5-kTBS2vOrN4oj0oueWKzBdpBDjbPwV8SaCJpSxAcG9L9_6tuY4tCclNl9LKD_4JKkys-V1dqDl1", "width": 2448}], "place_id": "ChIJY44ydbdw9DkRPfrYBxMwUCY", "plus_code": {"compound_code": "XQJM+7Q Banaso, Jharkhand, India", "global_code": "7MM7XQJM+7Q"}, "rating": 3.5, "reference": "ChIJY44ydbdw9DkRPfrYBxMwUCY", "scope": "GOOGLE", "types": ["school", "point_of_interest", "establishment"], "user_ratings_total": 11, "vicinity": "School Road School road banaso, Banaso"}, {"business_status": "OPERATIONAL", "geometry": {"location": {"lat": 23.9809252, "lng": 85.78413470000001}, "viewport": {"northeast": {"lat": 23.9821076302915, "lng": 85.78540558029151}, "southwest": {"lat": 23.9794096697085, "lng": 85.7827076197085}}}, "icon": "https://maps.gstatic.com/mapfiles/place_api/icons/v1/png_71/school-71.png", "icon_background_color": "#7B9EB0", "icon_mask_base_uri": "https://maps.gstatic.com/mapfiles/place_api/icons/v2/school_pinlet", "name": "\u0935\u0940\u0930 \u0905\u0939\u0940\u0930 \u0932\u094b\u0930\u093f\u0915 \u0926\u0947\u0935", "place_id": "ChIJN8N2wz1x9DkRM7DCPuyRp8A", "reference": "ChIJN8N2wz1x9DkRM7DCPuyRp8A", "scope": "GOOGLE", "types": ["secondary_school", "school", "point_of_interest", "establishment"], "vicinity": "XQJM+9MC, Banaso"}, {"business_status": "OPERATIONAL", "geometry": {"location": {"lat": 23.9810205, "lng": 85.7838896}, "viewport": {"northeast": {"lat": 23.9824339302915, "lng": 85.7851743302915}, "southwest": {"lat": 23.9797359697085, "lng": 85.78247636970849}}}, "icon": "https://maps.gstatic.com/mapfiles/place_api/icons/v1/png_71/school-71.png", "icon_background_color": "#7B9EB0", "icon_mask_base_uri": "https://maps.gstatic.com/mapfiles/place_api/icons/v2/school_pinlet", "name": "Mahapratapi VEER LORIK", "place_id": "ChIJQyt_9s9x9DkRrFnk4jgCdEY", "reference": "ChIJQyt_9s9x9DkRrFnk4jgCdEY", "scope": "GOOGLE", "types": ["secondary_school", "school", "point_of_interest", "establishment"], "vicinity": "XQJM+CH2, Banaso"}, {"business_status": "OPERATIONAL", "geometry": {"location": {"lat": 23.9812708, "lng": 85.784638}, "viewport": {"northeast": {"lat": 23.9827332802915, "lng": 85.7856718802915}, "southwest": {"lat": 23.9800353197085, "lng": 85.78297391970848}}}, "icon": "https://maps.gstatic.com/mapfiles/place_api/icons/v1/png_71/school-71.png", "icon_background_color": "#7B9EB0", "icon_mask_base_uri": "https://maps.gstatic.com/mapfiles/place_api/icons/v2/school_pinlet", "name": "project high school banaso", "photos": [{"height": 4160, "html_attributions": ["<a href=\"https://maps.google.com/maps/contrib/102305562831959505031\">Kailash Sing</a>"], "photo_reference": "Aap_uECiV5BgnbPJ5Ffj52uj9kWlNWcu3UFSlC49mW1LBLLZQi4IuGsebvtAd146jMrDg9iSMn6KZ8B7XPtwU0LpiKtrvO5_9xpOL1lRpZ_UftOOGgwJxg_EKnzlIEAbsfwf5UpezhU1LFlQNTtnCL5B6dyjvUmntDdUwvr_jeXkOILfvURn", "width": 3120}], "place_id": "ChIJYwqoVg5x9DkR0WrupANmCcw", "rating": 2, "reference": "ChIJYwqoVg5x9DkR0WrupANmCcw", "scope": "GOOGLE", "types": ["school", "point_of_interest", "establishment"], "user_ratings_total": 2, "vicinity": "XQJM+GV2, Banaso"}, {"business_status": "OPERATIONAL", "geometry": {"location": {"lat": 23.9687016, "lng": 85.7724456}, "viewport": {"northeast": {"lat": 23.9700548802915, "lng": 85.7737973302915}, "southwest": {"lat": 23.9673569197085, "lng": 85.7710993697085}}}, "icon": "https://maps.gstatic.com/mapfiles/place_api/icons/v1/png_71/school-71.png", "icon_background_color": "#7B9EB0", "icon_mask_base_uri": "https://maps.gstatic.com/mapfiles/place_api/icons/v2/school_pinlet", "name": "Praimery school Grahmurgi", "photos": [{"height": 1920, "html_attributions": ["<a href=\"https://maps.google.com/maps/contrib/103757959590883238387\">vikash kumar</a>"], "photo_reference": "Aap_uECAak4XSMW-7onaWMQYYzbvIpTXL4NsmHo5cTrglBtddVOHwwHuunh4760eEGY0HVk3gYVfRAFsqLCwY6PX5xgOteOQOahf-W9U7mF_o0-IoXjIB9PdyI07Mwz6t-Ff0FuqaL6yEEIeEKXodgdEg7zjOMuF-gQlAWpqNEl_TsR2YnQx", "width": 1080}], "place_id": "ChIJt2ZgNZ9x9DkRW3Vq5KIUjmI", "reference": "ChIJt2ZgNZ9x9DkRW3Vq5KIUjmI", "scope": "GOOGLE", "types": ["school", "point_of_interest", "establishment"], "vicinity": "XQ9C+FXP, Garmurgi"}], "status": "OK"}