{"html_attributions": [], "results": [{"business_status": "OPERATIONAL", "geometry": {"location": {"lat": 23.4518005, "lng": 85.8115734}, "viewport": {"northeast": {"lat": 23.45315208029151, "lng": 85.8129202802915}, "southwest": {"lat": 23.4504541197085, "lng": 85.81022231970849}}}, "icon": "https://maps.gstatic.com/mapfiles/place_api/icons/v1/png_71/school-71.png", "icon_background_color": "#7B9EB0", "icon_mask_base_uri": "https://maps.gstatic.com/mapfiles/place_api/icons/v2/school_pinlet", "name": "Gerebir School", "place_id": "ChIJVfsFOWZP9DkRiwpqk8O6mUM", "plus_code": {"compound_code": "FR26+PJ Gerebir, Jharkhand, India", "global_code": "7MM7FR26+PJ"}, "reference": "ChIJVfsFOWZP9DkRiwpqk8O6mUM", "scope": "GOOGLE", "types": ["school", "point_of_interest", "establishment"], "vicinity": "Unnamed Road, Gerebir"}, {"business_status": "OPERATIONAL", "geometry": {"location": {"lat": 23.4518903, "lng": 85.8123549}, "viewport": {"northeast": {"lat": 23.4531723302915, "lng": 85.81372103029152}, "southwest": {"lat": 23.4504743697085, "lng": 85.8110230697085}}}, "icon": "https://maps.gstatic.com/mapfiles/place_api/icons/v1/png_71/school-71.png", "icon_background_color": "#7B9EB0", "icon_mask_base_uri": "https://maps.gstatic.com/mapfiles/place_api/icons/v2/school_pinlet", "name": "Government Primary School Gerebir", "photos": [{"height": 3000, "html_attributions": ["<a href=\"https://maps.google.com/maps/contrib/116922336673522157514\">Binny Mehta</a>"], "photo_reference": "Aap_uECZ2EL7pAQukN7MxGjJAgy128aFfxzLgdes_AGvKpvEmfWLXTJWOR6OtKCpAKl-RZD5UJ2gy-gRDYcL87ZP-qbEZqMde-Z9RD2AIDdeM--eSo_9UW4nhGnGpKAOelce-0yExVGYz1-9RgvzwU1wnh37M3Sxz2ZCm_DV5i6DyO3MYgDC", "width": 4000}], "place_id": "ChIJ0YFJ7YtP9DkRaQaTKokFshQ", "reference": "ChIJ0YFJ7YtP9DkRaQaTKokFshQ", "scope": "GOOGLE", "types": ["primary_school", "school", "point_of_interest", "establishment"], "vicinity": "FR26+QW5, Gerebir"}, {"business_status": "OPERATIONAL", "geometry": {"location": {"lat": 23.4558793, "lng": 85.81155559999999}, "viewport": {"northeast": {"lat": 23.4572437302915, "lng": 85.8127406302915}, "southwest": {"lat": 23.4545457697085, "lng": 85.8100426697085}}}, "icon": "https://maps.gstatic.com/mapfiles/place_api/icons/v1/png_71/school-71.png", "icon_background_color": "#7B9EB0", "icon_mask_base_uri": "https://maps.gstatic.com/mapfiles/place_api/icons/v2/school_pinlet", "name": "Deocharan mahto Public School, gerebir", "photos": [{"height": 3120, "html_attributions": ["<a href=\"https://maps.google.com/maps/contrib/108816674196455124909\">Neha Tripathi</a>"], "photo_reference": "Aap_uEDr5XnqP623idQqxzBvJvpnprGRhtTAPOhtnNzhrQiujse4uNOXdUEu5yn4pdMBah3oF0Kr-HFoQA28o9RpFPbvHq-vHXY_7GE5ba4FvO18dlMm_yQxE2lq0uKLqo_z-hGzWR5M5cWFpkw9fabiMgHHezHhayU3E_KuZjCM2EAbpzH3", "width": 4160}], "place_id": "ChIJ7e89QPdO9DkRc0utTK3TOEs", "reference": "ChIJ7e89QPdO9DkRc0utTK3TOEs", "scope": "GOOGLE", "types": ["school", "point_of_interest", "establishment"], "vicinity": "FR46+9J3, Gerebir"}, {"business_status": "OPERATIONAL", "geometry": {"location": {"lat": 23.45586699999999, "lng": 85.8117805}, "viewport": {"northeast": {"lat": 23.4571826802915, "lng": 85.81285458029151}, "southwest": {"lat": 23.4544847197085, "lng": 85.8101566197085}}}, "icon": "https://maps.gstatic.com/mapfiles/place_api/icons/v1/png_71/school-71.png", "icon_background_color": "#7B9EB0", "icon_mask_base_uri": "https://maps.gstatic.com/mapfiles/place_api/icons/v2/school_pinlet", "name": "Sohan mahto", "photos": [{"height": 720, "html_attributions": ["<a href=\"https://maps.google.com/maps/contrib/116045488170964023293\">Sohan Mahto</a>"], "photo_reference": "Aap_uEBKNma8QVlSX71qVWgkTsbYEsBLMrMEdgUHbhaEHHZwK6aKOmsDKhsOBc3NZHlB47ahIKZVcjlRG1-420gdMUbm4HeM3DruKJkqV1q2AKsuKlq4pyZYmNOXfGNMG4Dg-jFvtsbIIJF9MkzaI4TbCDEZ36rYYF8UMroq0SUW5yn_tbc", "width": 1280}], "place_id": "ChIJb5TIQPdO9DkRDJGLBGsvdG4", "reference": "ChIJb5TIQPdO9DkRDJGLBGsvdG4", "scope": "GOOGLE", "types": ["school", "point_of_interest", "establishment"], "vicinity": "FR46+8PR, Gerebir"}, {"business_status": "OPERATIONAL", "geometry": {"location": {"lat": 23.45586699999999, "lng": 85.8117805}, "viewport": {"northeast": {"lat": 23.4571826802915, "lng": 85.81285458029151}, "southwest": {"lat": 23.4544847197085, "lng": 85.8101566197085}}}, "icon": "https://maps.gstatic.com/mapfiles/place_api/icons/v1/png_71/school-71.png", "icon_background_color": "#7B9EB0", "icon_mask_base_uri": "https://maps.gstatic.com/mapfiles/place_api/icons/v2/school_pinlet", "name": "DCM Public School", "opening_hours": {"open_now": true}, "photos": [{"height": 2867, "html_attributions": ["<a href=\"https://maps.google.com/maps/contrib/104915959362977301663\">Prabhakar Kumar Gangey</a>"], "photo_reference": "Aap_uEAi8z_cIjzMnUhet4RrLOwgDo0DaX6PKyoxs2iXZWU3RK6C94p9AjFZz3j_QW1kF8cBMVIjq-wgaSNf540C8o7QvC0YjM2YVDlE8CWX8vDR77NPA4ovB7WSQIC6O52McQwfzqTbvyvyGH9CyBzAWWPGHPq1PjQ-w7BWeyT-EGq45UBe", "width": 3933}], "place_id": "ChIJb5TIQPdO9DkRgXoCdtsmc8g", "rating": 4.8, "reference": "ChIJb5TIQPdO9DkRgXoCdtsmc8g", "scope": "GOOGLE", "types": ["school", "point_of_interest", "establishment"], "user_ratings_total": 6, "vicinity": "FR46+8PR, Gerebir"}, {"business_status": "OPERATIONAL", "geometry": {"location": {"lat": 23.4376074, "lng": 85.8059857}, "viewport": {"northeast": {"lat": 23.4389396802915, "lng": 85.80737338029151}, "southwest": {"lat": 23.4362417197085, "lng": 85.8046754197085}}}, "icon": "https://maps.gstatic.com/mapfiles/place_api/icons/v1/png_71/school-71.png", "icon_background_color": "#7B9EB0", "icon_mask_base_uri": "https://maps.gstatic.com/mapfiles/place_api/icons/v2/school_pinlet", "name": "Government primary School pipardagh", "photos": [{"height": 4000, "html_attributions": ["<a href=\"https://maps.google.com/maps/contrib/116922336673522157514\">Binny Mehta</a>"], "photo_reference": "Aap_uED9lV-4USaoB8MmybVRN0iC4RqN1LgbtCXQuGopJfz-xZrxCLP5NU4fDyqQIJSENnLXdEfvir08PX_8zmxBX3nGrjx0uAlA59zyIXv2rMYl3IojcZaj8kCjPqq_NXQ5LwOXJw2_Wkp0kVh_4-om2DqGpFzZ9ik4uAqSj3SjfupYKnji", "width": 3000}], "place_id": "ChIJo0mDBRdP9DkR9ZKnDAYKArI", "reference": "ChIJo0mDBRdP9DkR9ZKnDAYKArI", "scope": "GOOGLE", "types": ["primary_school", "school", "point_of_interest", "establishment"], "vicinity": "CRQ4+29X, Pipardag"}, {"business_status": "OPERATIONAL", "geometry": {"location": {"lat": 23.4419499, "lng": 85.8161425}, "viewport": {"northeast": {"lat": 23.4430422302915, "lng": 85.8175890302915}, "southwest": {"lat": 23.4403442697085, "lng": 85.8148910697085}}}, "icon": "https://maps.gstatic.com/mapfiles/place_api/icons/v1/png_71/school-71.png", "icon_background_color": "#7B9EB0", "icon_mask_base_uri": "https://maps.gstatic.com/mapfiles/place_api/icons/v2/school_pinlet", "name": "UPgrade HIgh SChool BAnuadih", "place_id": "ChIJR9qBgphP9DkR9VD5chjOySo", "rating": 1, "reference": "ChIJR9qBgphP9DkR9VD5chjOySo", "scope": "GOOGLE", "types": ["school", "point_of_interest", "establishment"], "user_ratings_total": 1, "vicinity": "CRR8+QFC, Banuadih"}], "status": "OK"}