{"html_attributions": [], "results": [{"business_status": "OPERATIONAL", "geometry": {"location": {"lat": 23.5642782, "lng": 85.8174682}, "viewport": {"northeast": {"lat": 23.5660430302915, "lng": 85.8187299302915}, "southwest": {"lat": 23.5633450697085, "lng": 85.81603196970849}}}, "icon": "https://maps.gstatic.com/mapfiles/place_api/icons/v1/png_71/school-71.png", "icon_background_color": "#7B9EB0", "icon_mask_base_uri": "https://maps.gstatic.com/mapfiles/place_api/icons/v2/school_pinlet", "name": "\ud835\ude79\ud835\ude8a\ud835\ude91\ud835\ude8e\ud835\ude9b \ud835\ude9d\ud835\ude91\ud835\ude8a\ud835\ude97. (\ud835\ude79\ud835\ude8a\ud835\ude9b\ud835\ude8a)", "place_id": "ChIJY2tvkxJF9DkRtauWOBuhYos", "reference": "ChIJY2tvkxJF9DkRtauWOBuhYos", "scope": "GOOGLE", "types": ["school", "point_of_interest", "establishment"], "vicinity": "HR78+PX8, Khakhra"}, {"business_status": "OPERATIONAL", "geometry": {"location": {"lat": 23.5637439, "lng": 85.817421}, "viewport": {"northeast": {"lat": 23.5657544802915, "lng": 85.8185910302915}, "southwest": {"lat": 23.5630565197085, "lng": 85.8158930697085}}}, "icon": "https://maps.gstatic.com/mapfiles/place_api/icons/v1/png_71/school-71.png", "icon_background_color": "#7B9EB0", "icon_mask_base_uri": "https://maps.gstatic.com/mapfiles/place_api/icons/v2/school_pinlet", "name": "UMS Upar Khakra", "photos": [{"height": 2250, "html_attributions": ["<a href=\"https://maps.google.com/maps/contrib/116279088892588492128\">Robin Keshaw</a>"], "photo_reference": "Aap_uEByRUjSCHoMESEkK4xhDrCCqXIyLM6fQ5y2ZZkq3bDFV9F2X8uKDagtnjzNPZWfZyK-ZadhF24yug0M1lDkuxOA0fx2koYF3L7Pc2-P-sl0WNoChivQInuhT9pBn4C146BcAnTnYb5Uyu_0TRNbElA8V_MsqRy7TcHfqqa3JlI2JjW-", "width": 4000}], "place_id": "ChIJ1fkmiylF9DkREW7mAUSc_tU", "plus_code": {"compound_code": "HR78+FX Khakhra, Jharkhand, India", "global_code": "7MM7HR78+FX"}, "rating": 1, "reference": "ChIJ1fkmiylF9DkREW7mAUSc_tU", "scope": "GOOGLE", "types": ["school", "point_of_interest", "establishment"], "user_ratings_total": 1, "vicinity": "Unnamed Road, Khakhra"}, {"business_status": "OPERATIONAL", "geometry": {"location": {"lat": 23.5709809, "lng": 85.7927148}, "viewport": {"northeast": {"lat": 23.57230423029151, "lng": 85.79404333029152}, "southwest": {"lat": 23.5696062697085, "lng": 85.7913453697085}}}, "icon": "https://maps.gstatic.com/mapfiles/place_api/icons/v1/png_71/school-71.png", "icon_background_color": "#7B9EB0", "icon_mask_base_uri": "https://maps.gstatic.com/mapfiles/place_api/icons/v2/school_pinlet", "name": "Purab Beauty Parlour Store", "photos": [{"height": 3000, "html_attributions": ["<a href=\"https://maps.google.com/maps/contrib/101581095679701027088\">manoj hembrom</a>"], "photo_reference": "Aap_uECtRQq_oDVjfQgfs_qIhyuTJn2IRSQYfBooDuis0KTxtZToDfaIH73hyG_CNMVW9NI6-h5e6n3WL1bxnHOUEZsCJDLGSySmH1EBHVcKg48sEDtYV6DKUqQRKzA4L_U4__edMjccGWVkiWDLPS4_6bCIqEJrdPIL_EO5Yeegw9AB_QaJ", "width": 4000}], "place_id": "ChIJgUsXi_tF9DkRfMnnuNUAFnc", "plus_code": {"compound_code": "HQCV+93 Khakhra, Jharkhand, India", "global_code": "7MM7HQCV+93"}, "reference": "ChIJgUsXi_tF9DkRfMnnuNUAFnc", "scope": "GOOGLE", "types": ["school", "point_of_interest", "establishment"], "vicinity": "Durga Mandir Chakarbali fulljhariya"}], "status": "OK"}