{"html_attributions": [], "results": [{"business_status": "OPERATIONAL", "geometry": {"location": {"lat": 23.6902949, "lng": 85.82070399999999}, "viewport": {"northeast": {"lat": 23.6916225802915, "lng": 85.8220970802915}, "southwest": {"lat": 23.68892461970849, "lng": 85.81939911970849}}}, "icon": "https://maps.gstatic.com/mapfiles/place_api/icons/v1/png_71/school-71.png", "icon_background_color": "#7B9EB0", "icon_mask_base_uri": "https://maps.gstatic.com/mapfiles/place_api/icons/v2/school_pinlet", "name": "Babudas Manjhi", "photos": [{"height": 1920, "html_attributions": ["<a href=\"https://maps.google.com/maps/contrib/111532802889994481281\">rajkumar hembrom</a>"], "photo_reference": "Aap_uEAOQI6AfK0YnjDtuaIB5ZQLh_-YqYDCooPQp0zy9iN9SNH_XErItRMeNHwhuQjsrI0RNFzIyXGmrHqqf8VoYvfELiCFSFjrsNVEKQdFG_21UB0VWft6DPWICd_AzMwpPav0f_Dk4KKBePgq0Em0zqcsm32qWcGxFLKhSHLV_DD1b1DR", "width": 2560}], "place_id": "ChIJ63sZSM1D9DkRZHvGXdkZIG4", "rating": 1, "reference": "ChIJ63sZSM1D9DkRZHvGXdkZIG4", "scope": "GOOGLE", "types": ["school", "point_of_interest", "establishment"], "user_ratings_total": 1, "vicinity": "MRRC+478, Patki"}, {"business_status": "OPERATIONAL", "geometry": {"location": {"lat": 23.6882622, "lng": 85.8204293}, "viewport": {"northeast": {"lat": 23.6897572802915, "lng": 85.82187188029151}, "southwest": {"lat": 23.6870593197085, "lng": 85.81917391970849}}}, "icon": "https://maps.gstatic.com/mapfiles/place_api/icons/v1/png_71/school-71.png", "icon_background_color": "#7B9EB0", "icon_mask_base_uri": "https://maps.gstatic.com/mapfiles/place_api/icons/v2/school_pinlet", "name": "Patki Primary School", "place_id": "ChIJW6xqBGND9DkRIIIApao1oSE", "reference": "ChIJW6xqBGND9DkRIIIApao1oSE", "scope": "GOOGLE", "types": ["school", "point_of_interest", "establishment"], "vicinity": "MRQC+853, Patki"}, {"business_status": "OPERATIONAL", "geometry": {"location": {"lat": 23.694423, "lng": 85.8268653}, "viewport": {"northeast": {"lat": 23.6957809802915, "lng": 85.8282692802915}, "southwest": {"lat": 23.6930830197085, "lng": 85.82557131970849}}}, "icon": "https://maps.gstatic.com/mapfiles/place_api/icons/v1/png_71/school-71.png", "icon_background_color": "#7B9EB0", "icon_mask_base_uri": "https://maps.gstatic.com/mapfiles/place_api/icons/v2/school_pinlet", "name": "Masi Marshal School Patki", "photos": [{"height": 3264, "html_attributions": ["<a href=\"https://maps.google.com/maps/contrib/104967271141871179241\">Saheb Ram Manjhi</a>"], "photo_reference": "Aap_uEANLh9_jC-R2eUEyyVY46V0fOrs4FZ-iA3hD87VlXFBkatndQ5bDYbKi9Y64X9QTo1t5I1mvlO70L64MibTzURSICcpbXVs3pzcaeJ-_InSKyoGXBSFelxQQau7n4jWi1qr7GlPDLQ4AbhgutFSEiRSsmsIFdB6XnfX1AOEjeXJcU7G", "width": 2448}], "place_id": "ChIJbWDVaW1C9DkRnkzmSZCzuVk", "rating": 4, "reference": "ChIJbWDVaW1C9DkRnkzmSZCzuVk", "scope": "GOOGLE", "types": ["school", "point_of_interest", "establishment"], "user_ratings_total": 2, "vicinity": "MRVG+QP9, Patki"}, {"business_status": "OPERATIONAL", "geometry": {"location": {"lat": 23.6853885, "lng": 85.8316222}, "viewport": {"northeast": {"lat": 23.6870464802915, "lng": 85.8331490802915}, "southwest": {"lat": 23.68434851970849, "lng": 85.83045111970848}}}, "icon": "https://maps.gstatic.com/mapfiles/place_api/icons/v1/png_71/school-71.png", "icon_background_color": "#7B9EB0", "icon_mask_base_uri": "https://maps.gstatic.com/mapfiles/place_api/icons/v2/school_pinlet", "name": "Nav Prathmik Vidyalayaidyalaya Bholgadha", "place_id": "ChIJzX7xRGlD9DkRrUO2nlg08Xg", "reference": "ChIJzX7xRGlD9DkRrUO2nlg08Xg", "scope": "GOOGLE", "types": ["primary_school", "school", "point_of_interest", "establishment"], "vicinity": "MRPJ+5J5, Patki"}, {"business_status": "OPERATIONAL", "geometry": {"location": {"lat": 23.6848626, "lng": 85.8346068}, "viewport": {"northeast": {"lat": 23.6861816302915, "lng": 85.83593493029151}, "southwest": {"lat": 23.6834836697085, "lng": 85.83323696970851}}}, "icon": "https://maps.gstatic.com/mapfiles/place_api/icons/v1/png_71/school-71.png", "icon_background_color": "#7B9EB0", "icon_mask_base_uri": "https://maps.gstatic.com/mapfiles/place_api/icons/v2/school_pinlet", "name": "Anganwadi center Bholgadha", "place_id": "ChIJg6IzQuhD9DkRAouVyDW1H_g", "reference": "ChIJg6IzQuhD9DkRAouVyDW1H_g", "scope": "GOOGLE", "types": ["school", "point_of_interest", "establishment"], "vicinity": "MRMM+WRX, Bholgadha, Tenughat, Patki"}, {"business_status": "OPERATIONAL", "geometry": {"location": {"lat": 23.6799957, "lng": 85.8300525}, "viewport": {"northeast": {"lat": 23.6812834302915, "lng": 85.8314205302915}, "southwest": {"lat": 23.6785854697085, "lng": 85.82872256970849}}}, "icon": "https://maps.gstatic.com/mapfiles/place_api/icons/v1/png_71/school-71.png", "icon_background_color": "#7B9EB0", "icon_mask_base_uri": "https://maps.gstatic.com/mapfiles/place_api/icons/v2/school_pinlet", "name": "Ums Patki", "place_id": "ChIJOTAgK_ND9DkRGL4obY18zj4", "reference": "ChIJOTAgK_ND9DkRGL4obY18zj4", "scope": "GOOGLE", "types": ["school", "point_of_interest", "establishment"], "vicinity": "MRHJ+X2V, Patki"}, {"business_status": "OPERATIONAL", "geometry": {"location": {"lat": 23.679742, "lng": 85.8300269}, "viewport": {"northeast": {"lat": 23.6811548302915, "lng": 85.83140123029152}, "southwest": {"lat": 23.6784568697085, "lng": 85.82870326970851}}}, "icon": "https://maps.gstatic.com/mapfiles/place_api/icons/v1/png_71/school-71.png", "icon_background_color": "#7B9EB0", "icon_mask_base_uri": "https://maps.gstatic.com/mapfiles/place_api/icons/v2/school_pinlet", "name": "U.H.S patki", "place_id": "ChIJmY9GAuJD9DkRw9HuPQV3c1k", "reference": "ChIJmY9GAuJD9DkRw9HuPQV3c1k", "scope": "GOOGLE", "types": ["school", "point_of_interest", "establishment"], "vicinity": "MRHJ+V2R, Patki"}, {"business_status": "OPERATIONAL", "geometry": {"location": {"lat": 23.7010393, "lng": 85.8302466}, "viewport": {"northeast": {"lat": 23.7023944802915, "lng": 85.83159098029151}, "southwest": {"lat": 23.6996965197085, "lng": 85.8288930197085}}}, "icon": "https://maps.gstatic.com/mapfiles/place_api/icons/v1/png_71/school-71.png", "icon_background_color": "#7B9EB0", "icon_mask_base_uri": "https://maps.gstatic.com/mapfiles/place_api/icons/v2/school_pinlet", "name": "Bagjobra Primary School", "place_id": "ChIJVVdAoK5D9DkRw9LllGzY0uw", "reference": "ChIJVVdAoK5D9DkRw9LllGzY0uw", "scope": "GOOGLE", "types": ["school", "point_of_interest", "establishment"], "vicinity": "PR2J+C39, Phutkadih"}], "status": "OK"}