{"html_attributions": [], "results": [{"business_status": "OPERATIONAL", "geometry": {"location": {"lat": 23.4778651, "lng": 85.599882}, "viewport": {"northeast": {"lat": 23.4792797802915, "lng": 85.6012407302915}, "southwest": {"lat": 23.4765818197085, "lng": 85.59854276970849}}}, "icon": "https://maps.gstatic.com/mapfiles/place_api/icons/v1/png_71/school-71.png", "icon_background_color": "#7B9EB0", "icon_mask_base_uri": "https://maps.gstatic.com/mapfiles/place_api/icons/v2/school_pinlet", "name": "St.My.High School", "opening_hours": {"open_now": false}, "photos": [{"height": 2448, "html_attributions": ["<a href=\"https://maps.google.com/maps/contrib/110912064209148654813\">Roshan Kumar</a>"], "photo_reference": "Aap_uEDf-Cb2YbHssGsbbGHbJKLvfyYWYXZNv0YDDjxHyTGKj5S68Di0o17vBDXu6jlpjnaxj4PgQ8e0ZBySQVLX3w_yTeJmsQXvSbkeRhPlz3Xc1TgbikEkLwwWRAsK7NpQRFvqsNYopd4GgwJJ-wuL-BRyuEUT3D7fphRzQTvhKZlSkKKL", "width": 3264}], "place_id": "ChIJMQSLqXf49DkRdOcILSa2z3o", "rating": 4, "reference": "ChIJMQSLqXf49DkRdOcILSa2z3o", "scope": "GOOGLE", "types": ["school", "point_of_interest", "establishment"], "user_ratings_total": 9, "vicinity": "FHHX+4XR, Haratu"}, {"business_status": "OPERATIONAL", "geometry": {"location": {"lat": 23.477208, "lng": 85.6090493}, "viewport": {"northeast": {"lat": 23.4786569302915, "lng": 85.6103024302915}, "southwest": {"lat": 23.4759589697085, "lng": 85.60760446970849}}}, "icon": "https://maps.gstatic.com/mapfiles/place_api/icons/v1/png_71/school-71.png", "icon_background_color": "#7B9EB0", "icon_mask_base_uri": "https://maps.gstatic.com/mapfiles/place_api/icons/v2/school_pinlet", "name": "Subern Rekha High School, Sikdiri", "place_id": "ChIJOWyYQdpX9DkRFBPllET6m8Y", "plus_code": {"compound_code": "FJG5+VJ Haratu, Jharkhand, India", "global_code": "7MM7FJG5+VJ"}, "rating": 2.3, "reference": "ChIJOWyYQdpX9DkRFBPllET6m8Y", "scope": "GOOGLE", "types": ["school", "point_of_interest", "establishment"], "user_ratings_total": 3, "vicinity": "835219, Sikidiri, Haratu"}, {"business_status": "OPERATIONAL", "geometry": {"location": {"lat": 23.4772027, "lng": 85.6091115}, "viewport": {"northeast": {"lat": 23.4786920802915, "lng": 85.6103990802915}, "southwest": {"lat": 23.4759941197085, "lng": 85.6077011197085}}}, "icon": "https://maps.gstatic.com/mapfiles/place_api/icons/v1/png_71/school-71.png", "icon_background_color": "#7B9EB0", "icon_mask_base_uri": "https://maps.gstatic.com/mapfiles/place_api/icons/v2/school_pinlet", "name": "High School Sikidiri", "photos": [{"height": 2250, "html_attributions": ["<a href=\"https://maps.google.com/maps/contrib/110061110838471198264\">vivek kumar</a>"], "photo_reference": "Aap_uED7lHhb727JVreY_2FsqMkrn0Il06d5IWb2EDtnXNWiDi4LhMA-szGEMlq_rdFVSkQCI0oLcaCGV42nu6oI4SdhtMCgPbIiQiHeT1ibMJWGOmum9KvQ67edtsLBZ9GUBH3EvLgr91hxO4RsFwgnMgb0cIAE9y8KFgQbnWDZL_H6MDEt", "width": 4000}], "place_id": "ChIJOxHUi3dX9DkRy9VBNkeyeoY", "reference": "ChIJOxHUi3dX9DkRy9VBNkeyeoY", "scope": "GOOGLE", "types": ["school", "point_of_interest", "establishment"], "vicinity": "FJG5+VJQ, Hesatu"}], "status": "OK"}