{"html_attributions": [], "results": [{"business_status": "OPERATIONAL", "geometry": {"location": {"lat": 23.6089698, "lng": 85.8637017}, "viewport": {"northeast": {"lat": 23.61049648029151, "lng": 85.86494603029149}, "southwest": {"lat": 23.6077985197085, "lng": 85.86224806970849}}}, "icon": "https://maps.gstatic.com/mapfiles/place_api/icons/v1/png_71/school-71.png", "icon_background_color": "#7B9EB0", "icon_mask_base_uri": "https://maps.gstatic.com/mapfiles/place_api/icons/v2/school_pinlet", "name": "Tejaswi Public School", "place_id": "ChIJKbqai7NG9DkRcZJBA3Qgc1A", "reference": "ChIJKbqai7NG9DkRcZJBA3Qgc1A", "scope": "GOOGLE", "types": ["school", "point_of_interest", "establishment"], "vicinity": "JV57+HFP, Bokaro Steel City"}, {"business_status": "OPERATIONAL", "geometry": {"location": {"lat": 23.6140496, "lng": 85.8622287}, "viewport": {"northeast": {"lat": 23.6153972302915, "lng": 85.86357828029149}, "southwest": {"lat": 23.6126992697085, "lng": 85.86088031970849}}}, "icon": "https://maps.gstatic.com/mapfiles/place_api/icons/v1/png_71/school-71.png", "icon_background_color": "#7B9EB0", "icon_mask_base_uri": "https://maps.gstatic.com/mapfiles/place_api/icons/v2/school_pinlet", "name": "Pagal Dost Sagar", "place_id": "ChIJ982rxUxB9DkRfUolVikkS-M", "reference": "ChIJ982rxUxB9DkRfUolVikkS-M", "scope": "GOOGLE", "types": ["school", "point_of_interest", "establishment"], "vicinity": "JV76+JV9, Bokaro Steel City"}, {"business_status": "OPERATIONAL", "geometry": {"location": {"lat": 23.6139298, "lng": 85.8617974}, "viewport": {"northeast": {"lat": 23.6154108302915, "lng": 85.86327903029151}, "southwest": {"lat": 23.6127128697085, "lng": 85.86058106970849}}}, "icon": "https://maps.gstatic.com/mapfiles/place_api/icons/v1/png_71/school-71.png", "icon_background_color": "#7B9EB0", "icon_mask_base_uri": "https://maps.gstatic.com/mapfiles/place_api/icons/v2/school_pinlet", "name": "Leela Janki Public School", "photos": [{"height": 4160, "html_attributions": ["<a href=\"https://maps.google.com/maps/contrib/104113589107143386591\">Rahul Kumar</a>"], "photo_reference": "Aap_uEAdehu8luRrW4ypQUi5UtYQGQHIl2gnB8NQSMNadG-El87wcvIwDK1zEn5w_Kl0prNGGAvUI3ZQpNFR3tch10t4o5gbMxbliW030PsL3Jr0-MUOgd1rVSvlsb6TSbZS82VwcuOThWm7yjaBxtRSKvsWFcjaS_ljufT0Dn3nuWBClBSU", "width": 3120}], "place_id": "ChIJ5YAR2kxB9DkRyp0nzYc-2qU", "rating": 3.9, "reference": "ChIJ5YAR2kxB9DkRyp0nzYc-2qU", "scope": "GOOGLE", "types": ["school", "point_of_interest", "establishment"], "user_ratings_total": 34, "vicinity": "JV76+HPF, Bokaro"}, {"business_status": "OPERATIONAL", "geometry": {"location": {"lat": 23.6162065, "lng": 85.86033359999999}, "viewport": {"northeast": {"lat": 23.6175524802915, "lng": 85.8616778302915}, "southwest": {"lat": 23.61485451970849, "lng": 85.85897986970849}}}, "icon": "https://maps.gstatic.com/mapfiles/place_api/icons/v1/png_71/school-71.png", "icon_background_color": "#7B9EB0", "icon_mask_base_uri": "https://maps.gstatic.com/mapfiles/place_api/icons/v2/school_pinlet", "name": "Arup mondal", "place_id": "ChIJrT3DfCdB9DkRdihaWdb89No", "plus_code": {"compound_code": "JV86+F4 Peterbar, Jharkhand, India", "global_code": "7MM7JV86+F4"}, "rating": 1, "reference": "ChIJrT3DfCdB9DkRdihaWdb89No", "scope": "GOOGLE", "types": ["school", "point_of_interest", "establishment"], "user_ratings_total": 1, "vicinity": "Unnamed Road, Peterbar"}, {"business_status": "OPERATIONAL", "geometry": {"location": {"lat": 23.6070887, "lng": 85.8549518}, "viewport": {"northeast": {"lat": 23.6084964802915, "lng": 85.85632228029151}, "southwest": {"lat": 23.6057985197085, "lng": 85.8536243197085}}}, "icon": "https://maps.gstatic.com/mapfiles/place_api/icons/v1/png_71/school-71.png", "icon_background_color": "#7B9EB0", "icon_mask_base_uri": "https://maps.gstatic.com/mapfiles/place_api/icons/v2/school_pinlet", "name": "Maa Mansha mandir", "place_id": "ChIJFSDEOVhH9DkRaEaO7tqDnOs", "plus_code": {"compound_code": "JV43+RX Peterbar, Jharkhand, India", "global_code": "7MM7JV43+RX"}, "rating": 5, "reference": "ChIJFSDEOVhH9DkRaEaO7tqDnOs", "scope": "GOOGLE", "types": ["school", "point_of_interest", "establishment"], "user_ratings_total": 1, "vicinity": "Kasmar Road, Peterbar"}, {"business_status": "OPERATIONAL", "geometry": {"location": {"lat": 23.607629, "lng": 85.8790863}, "viewport": {"northeast": {"lat": 23.6089581302915, "lng": 85.88043258029151}, "southwest": {"lat": 23.6062601697085, "lng": 85.87773461970849}}}, "icon": "https://maps.gstatic.com/mapfiles/place_api/icons/v1/png_71/school-71.png", "icon_background_color": "#7B9EB0", "icon_mask_base_uri": "https://maps.gstatic.com/mapfiles/place_api/icons/v2/school_pinlet", "name": "Bemrotand School", "place_id": "ChIJyV6fAM5G9DkRMwA_PYwKmWo", "plus_code": {"compound_code": "JV5H+3J Bemrotand, Jharkhand, India", "global_code": "7MM7JV5H+3J"}, "reference": "ChIJyV6fAM5G9DkRMwA_PYwKmWo", "scope": "GOOGLE", "types": ["school", "point_of_interest", "establishment"], "vicinity": "India"}, {"business_status": "OPERATIONAL", "geometry": {"location": {"lat": 23.6188591, "lng": 85.85827599999999}, "viewport": {"northeast": {"lat": 23.6201962802915, "lng": 85.8596571802915}, "southwest": {"lat": 23.6174983197085, "lng": 85.8569592197085}}}, "icon": "https://maps.gstatic.com/mapfiles/place_api/icons/v1/png_71/school-71.png", "icon_background_color": "#7B9EB0", "icon_mask_base_uri": "https://maps.gstatic.com/mapfiles/place_api/icons/v2/school_pinlet", "name": "Leela Janki Hostal", "place_id": "ChIJjy7nIYhB9DkR3g1n7nQLh2A", "reference": "ChIJjy7nIYhB9DkR3g1n7nQLh2A", "scope": "GOOGLE", "types": ["school", "point_of_interest", "establishment"], "vicinity": "JV95+G8R, Gagi"}, {"business_status": "OPERATIONAL", "geometry": {"location": {"lat": 23.6110452, "lng": 85.85249750000001}, "viewport": {"northeast": {"lat": 23.6123990802915, "lng": 85.85384408029151}, "southwest": {"lat": 23.60970111970849, "lng": 85.8511461197085}}}, "icon": "https://maps.gstatic.com/mapfiles/place_api/icons/v1/png_71/school-71.png", "icon_background_color": "#7B9EB0", "icon_mask_base_uri": "https://maps.gstatic.com/mapfiles/place_api/icons/v2/school_pinlet", "name": "Middle School", "place_id": "ChIJuUBXa6tG9DkRwA9naFk8pYs", "rating": 3.7, "reference": "ChIJuUBXa6tG9DkRwA9naFk8pYs", "scope": "GOOGLE", "types": ["school", "point_of_interest", "establishment"], "user_ratings_total": 3, "vicinity": "JV62+CX9, Peterbar"}], "status": "OK"}