{"html_attributions": [], "results": [{"business_status": "OPERATIONAL", "geometry": {"location": {"lat": 23.5337279, "lng": 85.8921123}, "viewport": {"northeast": {"lat": 23.5348111, "lng": 85.8931125802915}, "southwest": {"lat": 23.5304783, "lng": 85.8904146197085}}}, "icon": "https://maps.gstatic.com/mapfiles/place_api/icons/v1/png_71/school-71.png", "icon_background_color": "#7B9EB0", "icon_mask_base_uri": "https://maps.gstatic.com/mapfiles/place_api/icons/v2/school_pinlet", "name": "SukeshKumar", "photos": [{"height": 4000, "html_attributions": ["<a href=\"https://maps.google.com/maps/contrib/107795605139211018945\">Sukesh Kumar</a>"], "photo_reference": "Aap_uEAodiPgmTYy43sAVlZe7txb38DDPQJm-5pDezuMYQaIWeDHCL-KEWb8iCI5c88j3dwA8P8Ros3_tn-BC6Zmc5CNV5_n3S9PX5ziwukZRi4FDjHg2t0dsjvtypJv8bJgXWeDjmA-LRv3ji9L4G3kfxpJDkKhS9WsdXCez5iYPU8hwitr", "width": 3000}], "place_id": "ChIJzXos3P5H9DkRYO5dQmitawQ", "reference": "ChIJzXos3P5H9DkRYO5dQmitawQ", "scope": "GOOGLE", "types": ["school", "point_of_interest", "establishment"], "vicinity": "GVMR+FRX, Dumarkudar"}, {"business_status": "OPERATIONAL", "geometry": {"location": {"lat": 23.5309517, "lng": 85.89523009999999}, "viewport": {"northeast": {"lat": 23.5322773302915, "lng": 85.8966017802915}, "southwest": {"lat": 23.5295793697085, "lng": 85.8939038197085}}}, "icon": "https://maps.gstatic.com/mapfiles/place_api/icons/v1/png_71/school-71.png", "icon_background_color": "#7B9EB0", "icon_mask_base_uri": "https://maps.gstatic.com/mapfiles/place_api/icons/v2/school_pinlet", "name": "Shinghpur Inter Collage Shinghpur", "place_id": "ChIJl5Z5yXVH9DkReIOVR339oLQ", "plus_code": {"compound_code": "GVJW+93 Dumarkudar, Jharkhand, India", "global_code": "7MM7GVJW+93"}, "reference": "ChIJl5Z5yXVH9DkReIOVR339oLQ", "scope": "GOOGLE", "types": ["school", "point_of_interest", "establishment"], "vicinity": "Singhpur Main Road, Dumarkudar"}, {"business_status": "OPERATIONAL", "geometry": {"location": {"lat": 23.5193233, "lng": 85.8843579}, "viewport": {"northeast": {"lat": 23.5205169802915, "lng": 85.88578243029151}, "southwest": {"lat": 23.51781901970849, "lng": 85.88308446970849}}}, "icon": "https://maps.gstatic.com/mapfiles/place_api/icons/v1/png_71/school-71.png", "icon_background_color": "#7B9EB0", "icon_mask_base_uri": "https://maps.gstatic.com/mapfiles/place_api/icons/v2/school_pinlet", "name": "CHILDREN'S HAPPY HOME PUBLIC SCHOOL, HISIM", "opening_hours": {"open_now": false}, "place_id": "ChIJMw0FNXpH9DkR83VRKP0ADi0", "reference": "ChIJMw0FNXpH9DkR83VRKP0ADi0", "scope": "GOOGLE", "types": ["school", "point_of_interest", "establishment"], "vicinity": "GV9M+PPH, Hisim"}], "status": "OK"}