{"html_attributions": [], "results": [{"business_status": "OPERATIONAL", "geometry": {"location": {"lat": 23.64885529999999, "lng": 85.90605219999999}, "viewport": {"northeast": {"lat": 23.6502960302915, "lng": 85.9074242802915}, "southwest": {"lat": 23.64759806970849, "lng": 85.90472631970849}}}, "icon": "https://maps.gstatic.com/mapfiles/place_api/icons/v1/png_71/school-71.png", "icon_background_color": "#7B9EB0", "icon_mask_base_uri": "https://maps.gstatic.com/mapfiles/place_api/icons/v2/school_pinlet", "name": "Middle School Dantu", "opening_hours": {"open_now": false}, "photos": [{"height": 480, "html_attributions": ["<a href=\"https://maps.google.com/maps/contrib/101306289675803432117\">Vikash Kumar</a>"], "photo_reference": "Aap_uEDJZUXrIZGmwJ7salzzBg_f5HGAXGtdUb2i2BPu71FjlymT7a8bLNMvn8Rv1FCoG8SrAObWf2jLjPS44LH4E5zbaK6sezRt2H0VI7cYUCK4EQNidOg7GAIdnNzjzIlNPMzBRN3CEYPFjqVMoJXg9Nv2YA20qlOZBy8UDoazNOWRT9Br", "width": 640}], "place_id": "ChIJfbCE7O1A9DkRNArViSkPEEw", "plus_code": {"compound_code": "JWX4+GC Dantu, Jharkhand, India", "global_code": "7MM7JWX4+GC"}, "rating": 4.1, "reference": "ChIJfbCE7O1A9DkRNArViSkPEEw", "scope": "GOOGLE", "types": ["school", "point_of_interest", "establishment"], "user_ratings_total": 7, "vicinity": "Dantu"}, {"business_status": "OPERATIONAL", "geometry": {"location": {"lat": 23.64872279999999, "lng": 85.9099852}, "viewport": {"northeast": {"lat": 23.6500177302915, "lng": 85.9113777302915}, "southwest": {"lat": 23.6473197697085, "lng": 85.9086797697085}}}, "icon": "https://maps.gstatic.com/mapfiles/place_api/icons/v1/png_71/school-71.png", "icon_background_color": "#7B9EB0", "icon_mask_base_uri": "https://maps.gstatic.com/mapfiles/place_api/icons/v2/school_pinlet", "name": "Divya Gyan Public School", "opening_hours": {"open_now": false}, "photos": [{"height": 1920, "html_attributions": ["<a href=\"https://maps.google.com/maps/contrib/103478697125766717910\">Tapeshwar Nayak</a>"], "photo_reference": "Aap_uECgFOYRB_xyMEGfVeOQfMTER8FeOsn8X2sBndF5uK8chsP04jon7kPNXMgaRJbpWs9uBrcZ3dgkgcIBqUz1Oqr-GXWdN-3v7R_tCFwrqWxlESctIhFuOid-eqGdChdD40qyal9xsMKiYh0p5C9NLor85kq7rHnJpr_5ODF2MuiIOXA", "width": 2560}], "place_id": "ChIJd_mLgO5A9DkRzCZg3c76rWk", "plus_code": {"compound_code": "JWX5+FX Dantu, Jharkhand, India", "global_code": "7MM7JWX5+FX"}, "rating": 4.5, "reference": "ChIJd_mLgO5A9DkRzCZg3c76rWk", "scope": "GOOGLE", "types": ["school", "point_of_interest", "establishment"], "user_ratings_total": 2, "vicinity": "Bazar tand Road, Dantu"}, {"business_status": "OPERATIONAL", "geometry": {"location": {"lat": 23.6493726, "lng": 85.9119892}, "viewport": {"northeast": {"lat": 23.6507335802915, "lng": 85.91334048029151}, "southwest": {"lat": 23.64803561970849, "lng": 85.91064251970849}}}, "icon": "https://maps.gstatic.com/mapfiles/place_api/icons/v1/png_71/school-71.png", "icon_background_color": "#7B9EB0", "icon_mask_base_uri": "https://maps.gstatic.com/mapfiles/place_api/icons/v2/school_pinlet", "name": "\u0939\u093e\u0908 School \u0926\u093e\u0901\u0924\u0942", "place_id": "ChIJG8dehZJA9DkRGR5C7LE7ud0", "plus_code": {"compound_code": "JWX6+PQ Dantu, Jharkhand, India", "global_code": "7MM7JWX6+PQ"}, "reference": "ChIJG8dehZJA9DkRGR5C7LE7ud0", "scope": "GOOGLE", "types": ["school", "point_of_interest", "establishment"], "vicinity": "National Highway 320, Dantu"}, {"business_status": "OPERATIONAL", "geometry": {"location": {"lat": 23.6489228, "lng": 85.91248379999999}, "viewport": {"northeast": {"lat": 23.6502497302915, "lng": 85.9139018802915}, "southwest": {"lat": 23.6475517697085, "lng": 85.91120391970848}}}, "icon": "https://maps.gstatic.com/mapfiles/place_api/icons/v1/png_71/school-71.png", "icon_background_color": "#7B9EB0", "icon_mask_base_uri": "https://maps.gstatic.com/mapfiles/place_api/icons/v2/school_pinlet", "name": "+2 High School", "place_id": "ChIJL71B9ZJA9DkRQRPeyGCp78k", "rating": 4.1, "reference": "ChIJL71B9ZJA9DkRQRPeyGCp78k", "scope": "GOOGLE", "types": ["school", "point_of_interest", "establishment"], "user_ratings_total": 8, "vicinity": "JWX6+HX9, Dantu"}, {"business_status": "OPERATIONAL", "geometry": {"location": {"lat": 23.6489155, "lng": 85.91250319999999}, "viewport": {"northeast": {"lat": 23.6502455802915, "lng": 85.9139113802915}, "southwest": {"lat": 23.64754761970849, "lng": 85.91121341970849}}}, "icon": "https://maps.gstatic.com/mapfiles/place_api/icons/v1/png_71/school-71.png", "icon_background_color": "#7B9EB0", "icon_mask_base_uri": "https://maps.gstatic.com/mapfiles/place_api/icons/v2/school_pinlet", "name": "+2 High School Dantoo", "place_id": "ChIJfYYUipJA9DkRF5PC0TCwDrE", "rating": 3, "reference": "ChIJfYYUipJA9DkRF5PC0TCwDrE", "scope": "GOOGLE", "types": ["school", "point_of_interest", "establishment"], "user_ratings_total": 1, "vicinity": "JWX7+H26, Dantu"}, {"business_status": "OPERATIONAL", "geometry": {"location": {"lat": 23.6424425, "lng": 85.9112858}, "viewport": {"northeast": {"lat": 23.6436398302915, "lng": 85.9127036802915}, "southwest": {"lat": 23.6409418697085, "lng": 85.9100057197085}}}, "icon": "https://maps.gstatic.com/mapfiles/place_api/icons/v1/png_71/school-71.png", "icon_background_color": "#7B9EB0", "icon_mask_base_uri": "https://maps.gstatic.com/mapfiles/place_api/icons/v2/school_pinlet", "name": "RAVIDAS TOLA DANTOO", "place_id": "ChIJcdWkxqdB9DkRWpZYD0XVJdE", "reference": "ChIJcdWkxqdB9DkRWpZYD0XVJdE", "scope": "GOOGLE", "types": ["school", "point_of_interest", "establishment"], "vicinity": "JWR6+XGF, Dantu"}, {"business_status": "OPERATIONAL", "geometry": {"location": {"lat": 23.6612722, "lng": 85.9083929}, "viewport": {"northeast": {"lat": 23.6626184802915, "lng": 85.9097786302915}, "southwest": {"lat": 23.6599205197085, "lng": 85.90708066970849}}}, "icon": "https://maps.gstatic.com/mapfiles/place_api/icons/v1/png_71/school-71.png", "icon_background_color": "#7B9EB0", "icon_mask_base_uri": "https://maps.gstatic.com/mapfiles/place_api/icons/v2/school_pinlet", "name": "Durga Mandir Sonpura", "opening_hours": {"open_now": false}, "place_id": "ChIJ8_5ygQJB9DkR_r8G2qRA5Io", "plus_code": {"compound_code": "MW65+G9 Sonhar, Jharkhand, India", "global_code": "7MM7MW65+G9"}, "rating": 3, "reference": "ChIJ8_5ygQJB9DkR_r8G2qRA5Io", "scope": "GOOGLE", "types": ["school", "point_of_interest", "establishment"], "user_ratings_total": 1, "vicinity": "Unnamed Road"}], "status": "OK"}