{"html_attributions": [], "results": [{"business_status": "OPERATIONAL", "geometry": {"location": {"lat": 23.5456282, "lng": 85.930015}, "viewport": {"northeast": {"lat": 23.5469122302915, "lng": 85.93141928029151}, "southwest": {"lat": 23.54421426970849, "lng": 85.9287213197085}}}, "icon": "https://maps.gstatic.com/mapfiles/place_api/icons/v1/png_71/school-71.png", "icon_background_color": "#7B9EB0", "icon_mask_base_uri": "https://maps.gstatic.com/mapfiles/place_api/icons/v2/school_pinlet", "name": "\u0906\u0901\u0917\u0928\u0935\u093e\u0921\u0940 kendra", "photos": [{"height": 2448, "html_attributions": ["<a href=\"https://maps.google.com/maps/contrib/118138311722483562408\">sudeep dev</a>"], "photo_reference": "Aap_uEDPz41J_xiJAyDKAY6DHHovdIOObwnZJwfbKXZt_mDYb4tzOGr7YkNto7PHCYjYO1eHnTO-mJAzxQudTmTOSG9K9_hPbpmE8tfcRfCYYQeiO_qppH-CxvBzl0tGKYGZhYvIHHDhYOjHdVuut2qkO8bHuehOMwrbKSeXp3U1hHtqQfqL", "width": 3264}], "place_id": "ChIJkXl4lPlH9DkRe4P_vYCoxzk", "plus_code": {"compound_code": "GWWJ+72 Bagda, Jharkhand, India", "global_code": "7MM7GWWJ+72"}, "rating": 3, "reference": "ChIJkXl4lPlH9DkRe4P_vYCoxzk", "scope": "GOOGLE", "types": ["school", "point_of_interest", "establishment"], "user_ratings_total": 1, "vicinity": "near bajranj Bali, Bagda"}, {"business_status": "OPERATIONAL", "geometry": {"location": {"lat": 23.549194, "lng": 85.9324986}, "viewport": {"northeast": {"lat": 23.5505088302915, "lng": 85.9338301302915}, "southwest": {"lat": 23.5478108697085, "lng": 85.93113216970849}}}, "icon": "https://maps.gstatic.com/mapfiles/place_api/icons/v1/png_71/school-71.png", "icon_background_color": "#7B9EB0", "icon_mask_base_uri": "https://maps.gstatic.com/mapfiles/place_api/icons/v2/school_pinlet", "name": "Upgraded High School,Bagda", "place_id": "ChIJ6Qja0HU49DkRgD5nN0Qvtl0", "plus_code": {"compound_code": "GWXJ+MX Bagda, Jharkhand, India", "global_code": "7MM7GWXJ+MX"}, "rating": 4.3, "reference": "ChIJ6Qja0HU49DkRgD5nN0Qvtl0", "scope": "GOOGLE", "types": ["school", "point_of_interest", "establishment"], "user_ratings_total": 3, "vicinity": "Bagda"}, {"business_status": "OPERATIONAL", "geometry": {"location": {"lat": 23.5491363, "lng": 85.93262349999999}, "viewport": {"northeast": {"lat": 23.5504528302915, "lng": 85.93395593029149}, "southwest": {"lat": 23.54775486970849, "lng": 85.93125796970848}}}, "icon": "https://maps.gstatic.com/mapfiles/place_api/icons/v1/png_71/school-71.png", "icon_background_color": "#7B9EB0", "icon_mask_base_uri": "https://maps.gstatic.com/mapfiles/place_api/icons/v2/school_pinlet", "name": "\u0909\u0924\u094d\u0915\u094d\u0930\u092e\u093f\u0924 \u0909\u091a\u094d\u091a \u0935\u093f\u0926\u094d\u092f\u093e\u0932\u092f \u092c\u0917\u0926\u093e, \u0915\u093e\u0930\u094d\u092f\u093e\u0932\u092f", "place_id": "ChIJscm85Kc59DkRMUi1X1gQrUM", "reference": "ChIJscm85Kc59DkRMUi1X1gQrUM", "scope": "GOOGLE", "types": ["secondary_school", "school", "point_of_interest", "establishment"], "vicinity": "GWXM+M25, Bagda"}, {"business_status": "OPERATIONAL", "geometry": {"location": {"lat": 23.5494993, "lng": 85.9329578}, "viewport": {"northeast": {"lat": 23.5509855802915, "lng": 85.9340603802915}, "southwest": {"lat": 23.5482876197085, "lng": 85.93136241970849}}}, "icon": "https://maps.gstatic.com/mapfiles/place_api/icons/v1/png_71/school-71.png", "icon_background_color": "#7B9EB0", "icon_mask_base_uri": "https://maps.gstatic.com/mapfiles/place_api/icons/v2/school_pinlet", "name": "Upgrated High School ,BAGDA KASMAR", "place_id": "ChIJgSAp0ic59DkRN-O4BXadN6M", "rating": 3, "reference": "ChIJgSAp0ic59DkRN-O4BXadN6M", "scope": "GOOGLE", "types": ["school", "point_of_interest", "establishment"], "user_ratings_total": 1, "vicinity": "GWXM+Q5W, Bagda"}, {"business_status": "OPERATIONAL", "geometry": {"location": {"lat": 23.5434268, "lng": 85.9296845}, "viewport": {"northeast": {"lat": 23.5448981802915, "lng": 85.93107538029149}, "southwest": {"lat": 23.54220021970849, "lng": 85.92837741970848}}}, "icon": "https://maps.gstatic.com/mapfiles/place_api/icons/v1/png_71/school-71.png", "icon_background_color": "#7B9EB0", "icon_mask_base_uri": "https://maps.gstatic.com/mapfiles/place_api/icons/v2/school_pinlet", "name": "Ranvijay Roshan Public School", "place_id": "ChIJsc8PkYRH9DkRACYnvPkEDGo", "reference": "ChIJsc8PkYRH9DkRACYnvPkEDGo", "scope": "GOOGLE", "types": ["school", "point_of_interest", "establishment"], "vicinity": "GWVH+9VF, Bagda"}, {"business_status": "OPERATIONAL", "geometry": {"location": {"lat": 23.5433733, "lng": 85.9297579}, "viewport": {"northeast": {"lat": 23.5448594302915, "lng": 85.93115383029149}, "southwest": {"lat": 23.5421614697085, "lng": 85.92845586970849}}}, "icon": "https://maps.gstatic.com/mapfiles/place_api/icons/v1/png_71/school-71.png", "icon_background_color": "#7B9EB0", "icon_mask_base_uri": "https://maps.gstatic.com/mapfiles/place_api/icons/v2/school_pinlet", "name": "R.R.P School", "place_id": "ChIJz0-RTfVH9DkRhY-uOwl2SVQ", "rating": 5, "reference": "ChIJz0-RTfVH9DkRhY-uOwl2SVQ", "scope": "GOOGLE", "types": ["school", "point_of_interest", "establishment"], "user_ratings_total": 1, "vicinity": "GWVH+8WR, Khairachatar"}, {"business_status": "OPERATIONAL", "geometry": {"location": {"lat": 23.5451432, "lng": 85.9342636}, "viewport": {"northeast": {"lat": 23.5464951302915, "lng": 85.9355783802915}, "southwest": {"lat": 23.5437971697085, "lng": 85.93288041970848}}}, "icon": "https://maps.gstatic.com/mapfiles/place_api/icons/v1/png_71/school-71.png", "icon_background_color": "#7B9EB0", "icon_mask_base_uri": "https://maps.gstatic.com/mapfiles/place_api/icons/v2/school_pinlet", "name": "chopras computer", "place_id": "ChIJY5EMwHQ49DkRh3m6B9u-mxs", "plus_code": {"compound_code": "GWWM+3P Bagda, Jharkhand, India", "global_code": "7MM7GWWM+3P"}, "reference": "ChIJY5EMwHQ49DkRh3m6B9u-mxs", "scope": "GOOGLE", "types": ["school", "point_of_interest", "establishment"], "vicinity": "Khairachatar Main Road, Bagda"}, {"business_status": "OPERATIONAL", "geometry": {"location": {"lat": 23.5402339, "lng": 85.9298451}, "viewport": {"northeast": {"lat": 23.5415694302915, "lng": 85.93127683029151}, "southwest": {"lat": 23.5388714697085, "lng": 85.92857886970849}}}, "icon": "https://maps.gstatic.com/mapfiles/place_api/icons/v1/png_71/school-71.png", "icon_background_color": "#7B9EB0", "icon_mask_base_uri": "https://maps.gstatic.com/mapfiles/place_api/icons/v2/school_pinlet", "name": "Ananda Marga Residential High School", "photos": [{"height": 3000, "html_attributions": ["<a href=\"https://maps.google.com/maps/contrib/111639154876171600082\">Photography Zone</a>"], "photo_reference": "Aap_uECIt9X11h1uT4GYNq2dBeicKIlNz-mYSXzrEqAEjvP94NivWiMWts1k76iC_pP8HelYS7mUln2zRkO8OaLVjQCrgfBWJRAddeswbTawG3rqxC3eurv9A3ocs_eurwxH0jk4BRbN6bBZkgd_0VezHSmHpI9AqT3morrcjEcwpwaxlSb_", "width": 4000}], "place_id": "ChIJ69q8ExFH9DkRb81TizU1VYE", "plus_code": {"compound_code": "GWRH+3W Singhpur, Jharkhand, India", "global_code": "7MM7GWRH+3W"}, "rating": 4.3, "reference": "ChIJ69q8ExFH9DkRb81TizU1VYE", "scope": "GOOGLE", "types": ["school", "point_of_interest", "establishment"], "user_ratings_total": 6, "vicinity": "Khairachatar Road, Garea Kudar, Singhpur"}, {"business_status": "OPERATIONAL", "geometry": {"location": {"lat": 23.5400745, "lng": 85.9345183}, "viewport": {"northeast": {"lat": 23.54142228029151, "lng": 85.9358938802915}, "southwest": {"lat": 23.5387243197085, "lng": 85.9331959197085}}}, "icon": "https://maps.gstatic.com/mapfiles/place_api/icons/v1/png_71/school-71.png", "icon_background_color": "#7B9EB0", "icon_mask_base_uri": "https://maps.gstatic.com/mapfiles/place_api/icons/v2/school_pinlet", "name": "Utkramit Madhya VidyalayBasaria", "photos": [{"height": 3456, "html_attributions": ["<a href=\"https://maps.google.com/maps/contrib/101779150422055237453\">\u0936\u093e\u0928\u0926\u093e\u0930 \u091c\u092c\u0930\u0926\u0938\u094d\u0924 \u091c\u093f\u0902\u0926\u093e\u092c\u093e\u0926 Jharkhand</a>"], "photo_reference": "Aap_uEBaLKJ0ebEXaoxtaWkpDWRgJALQAAjhxy0EFnlEWQ87a0Q7spN1u7Nv6SACrwDO48Jv1FNyewU1yvOn-zMKbbSmyBAaT6sMwbqVTcf505-YCjcbfCbql95geSjFGWxjlZvBuofUTO8AVZTfOSe78tfmtcPbjJ2pgGzmnicHSQ6eXww4", "width": 4608}], "place_id": "ChIJnRvdmQs49DkRDTd_1tl1Ceg", "plus_code": {"compound_code": "GWRM+2R Tangtona, Jharkhand, India", "global_code": "7MM7GWRM+2R"}, "rating": 5, "reference": "ChIJnRvdmQs49DkRDTd_1tl1Ceg", "scope": "GOOGLE", "types": ["school", "point_of_interest", "establishment"], "user_ratings_total": 3, "vicinity": "Tangtona"}, {"business_status": "OPERATIONAL", "geometry": {"location": {"lat": 23.54006110000001, "lng": 85.9345993}, "viewport": {"northeast": {"lat": 23.5414094802915, "lng": 85.93596198029151}, "southwest": {"lat": 23.5387115197085, "lng": 85.9332640197085}}}, "icon": "https://maps.gstatic.com/mapfiles/place_api/icons/v1/png_71/school-71.png", "icon_background_color": "#7B9EB0", "icon_mask_base_uri": "https://maps.gstatic.com/mapfiles/place_api/icons/v2/school_pinlet", "name": "JAGTU KTR", "place_id": "ChIJTWwOkW459DkRoDkzNsbOk6g", "reference": "ChIJTWwOkW459DkRoDkzNsbOk6g", "scope": "GOOGLE", "types": ["primary_school", "school", "point_of_interest", "establishment"], "vicinity": "GWRM+2RH, Basaria"}, {"business_status": "OPERATIONAL", "geometry": {"location": {"lat": 23.5383473, "lng": 85.93292079999999}, "viewport": {"northeast": {"lat": 23.5397221302915, "lng": 85.9342962302915}, "southwest": {"lat": 23.53702416970849, "lng": 85.93159826970849}}}, "icon": "https://maps.gstatic.com/mapfiles/place_api/icons/v1/png_71/school-71.png", "icon_background_color": "#7B9EB0", "icon_mask_base_uri": "https://maps.gstatic.com/mapfiles/place_api/icons/v2/school_pinlet", "name": "Govt. Middle School Khairachatar", "place_id": "ChIJGZQYLQo49DkR3oM9PdcP-Ck", "plus_code": {"compound_code": "GWQM+85 Basaria, Jharkhand, India", "global_code": "7MM7GWQM+85"}, "reference": "ChIJGZQYLQo49DkR3oM9PdcP-Ck", "scope": "GOOGLE", "types": ["school", "point_of_interest", "establishment"], "vicinity": "Purulia Road, Basaria"}], "status": "OK"}