{"html_attributions": [], "results": [{"business_status": "OPERATIONAL", "geometry": {"location": {"lat": 23.7663385, "lng": 85.92696970000001}, "viewport": {"northeast": {"lat": 23.7676892302915, "lng": 85.92831963029151}, "southwest": {"lat": 23.7649912697085, "lng": 85.92562166970849}}}, "icon": "https://maps.gstatic.com/mapfiles/place_api/icons/v1/png_71/school-71.png", "icon_background_color": "#7B9EB0", "icon_mask_base_uri": "https://maps.gstatic.com/mapfiles/place_api/icons/v2/school_pinlet", "name": "\u0906\u0902\u0917\u0928\u0935\u093e\u0921\u093c\u0940 \u0938\u094d\u0915\u0942\u0932", "place_id": "ChIJseVL5Ilr9DkRIvZ31ljtdm4", "plus_code": {"compound_code": "QW8G+GQ Jarangdih Basti, Jharkhand, India", "global_code": "7MM7QW8G+GQ"}, "reference": "ChIJseVL5Ilr9DkRIvZ31ljtdm4", "scope": "GOOGLE", "types": ["school", "point_of_interest", "establishment"], "vicinity": "Unnamed Road"}, {"business_status": "OPERATIONAL", "geometry": {"location": {"lat": 23.772014, "lng": 85.9323563}, "viewport": {"northeast": {"lat": 23.7733883802915, "lng": 85.9337289802915}, "southwest": {"lat": 23.7706904197085, "lng": 85.93103101970848}}}, "icon": "https://maps.gstatic.com/mapfiles/place_api/icons/v1/png_71/school-71.png", "icon_background_color": "#7B9EB0", "icon_mask_base_uri": "https://maps.gstatic.com/mapfiles/place_api/icons/v2/school_pinlet", "name": "Primary School Lodhar Bera", "place_id": "ChIJq7WR124V9DkRV3s7aOwk6JU", "plus_code": {"compound_code": "QWCJ+RW Bermo, Jharkhand, India", "global_code": "7MM7QWCJ+RW"}, "rating": 1, "reference": "ChIJq7WR124V9DkRV3s7aOwk6JU", "scope": "GOOGLE", "types": ["school", "point_of_interest", "establishment"], "user_ratings_total": 1, "vicinity": "Unnamed Road"}, {"business_status": "OPERATIONAL", "geometry": {"location": {"lat": 23.7669635, "lng": 85.9361536}, "viewport": {"northeast": {"lat": 23.7682407802915, "lng": 85.9375053802915}, "southwest": {"lat": 23.7655428197085, "lng": 85.93480741970849}}}, "icon": "https://maps.gstatic.com/mapfiles/place_api/icons/v1/png_71/school-71.png", "icon_background_color": "#7B9EB0", "icon_mask_base_uri": "https://maps.gstatic.com/mapfiles/place_api/icons/v2/school_pinlet", "name": "Saraswati Vidya Bhawan Middle School", "photos": [{"height": 2340, "html_attributions": ["<a href=\"https://maps.google.com/maps/contrib/102400149091311565577\">Vicky Swarnkar</a>"], "photo_reference": "Aap_uEAsniVgllr_Mh-GqxNaKQvV4TvPN5ru4xa8dFGmwt1dnnaoph2pAeFf-Pa8xuFJBGwdfqUmWPC7U7qUhPqZugt-IOutDKxclD20G350z5D3BFocM4yfwrOn2Tu1HufZkJUO9sHhCpf0GBOVUPhgleULg09e9i3ydRnZwG1Rnj5ycpum", "width": 4160}], "place_id": "ChIJof7gqaEV9DkRc8c4xF8aLWg", "reference": "ChIJof7gqaEV9DkRc8c4xF8aLWg", "scope": "GOOGLE", "types": ["school", "point_of_interest", "establishment"], "vicinity": "QW8P+QFJ, Jaridih, Upper Bazar, Ranchi"}, {"business_status": "OPERATIONAL", "geometry": {"location": {"lat": 23.771461, "lng": 85.91588469999999}, "viewport": {"northeast": {"lat": 23.7728874302915, "lng": 85.9172862802915}, "southwest": {"lat": 23.77018946970849, "lng": 85.91458831970849}}}, "icon": "https://maps.gstatic.com/mapfiles/place_api/icons/v1/png_71/school-71.png", "icon_background_color": "#7B9EB0", "icon_mask_base_uri": "https://maps.gstatic.com/mapfiles/place_api/icons/v2/school_pinlet", "name": "Vikash Classes", "opening_hours": {"open_now": false}, "photos": [{"height": 3228, "html_attributions": ["<a href=\"https://maps.google.com/maps/contrib/111868468200035213675\">Vikash Classes</a>"], "photo_reference": "Aap_uECSltyYX6jvoaW7aU7y1tiLrreu4b0UatKsBjL8RFuYAGOV2HbqqnW3wW1J8E1mmxwumuuMMHdSmWXUJvv9OnHlVMBzHosDma5aPENpQrhsCbuX4hKsWDZF_VkjZsyLFvs39MGxsuzrFhNaYmxPJiAmvNFmPO76WFqqjhhRPIXvJRNM", "width": 2494}], "place_id": "ChIJMTHBmxhr9DkRiSXnpds-vg0", "plus_code": {"compound_code": "QWC8+H9 Jarangdih, Jharkhand, India", "global_code": "7MM7QWC8+H9"}, "rating": 5, "reference": "ChIJMTHBmxhr9DkRiSXnpds-vg0", "scope": "GOOGLE", "types": ["school", "point_of_interest", "establishment"], "user_ratings_total": 1, "vicinity": "Mandal bhawan, Jarangdih"}, {"business_status": "OPERATIONAL", "geometry": {"location": {"lat": 23.7730444, "lng": 85.9161473}, "viewport": {"northeast": {"lat": 23.7743973802915, "lng": 85.91745618029151}, "southwest": {"lat": 23.7716994197085, "lng": 85.9147582197085}}}, "icon": "https://maps.gstatic.com/mapfiles/place_api/icons/v1/png_71/school-71.png", "icon_background_color": "#7B9EB0", "icon_mask_base_uri": "https://maps.gstatic.com/mapfiles/place_api/icons/v2/school_pinlet", "name": "Uttkramit Middle School,Jarangdih", "place_id": "ChIJd134z_hr9DkRjAkcQ26-iKg", "plus_code": {"compound_code": "QWF8+6F Jarangdih, Jharkhand, India", "global_code": "7MM7QWF8+6F"}, "reference": "ChIJd134z_hr9DkRjAkcQ26-iKg", "scope": "GOOGLE", "types": ["school", "point_of_interest", "establishment"], "vicinity": "12 no. Road, Jarangdih"}, {"business_status": "OPERATIONAL", "geometry": {"location": {"lat": 23.7656913, "lng": 85.9361871}, "viewport": {"northeast": {"lat": 23.76703198029151, "lng": 85.9375893802915}, "southwest": {"lat": 23.7643340197085, "lng": 85.93489141970849}}}, "icon": "https://maps.gstatic.com/mapfiles/place_api/icons/v1/png_71/school-71.png", "icon_background_color": "#7B9EB0", "icon_mask_base_uri": "https://maps.gstatic.com/mapfiles/place_api/icons/v2/school_pinlet", "name": "AWADH BIHARI SARASWATI SHISHU / VIDYA MANDIR", "opening_hours": {"open_now": false}, "photos": [{"height": 810, "html_attributions": ["<a href=\"https://maps.google.com/maps/contrib/100249691512230015547\">AWADH BIHARI SARASWATI SHISHU / VIDYA MANDIR</a>"], "photo_reference": "Aap_uEBvEaTOryKikKgS3vrNv_SxoSxjNKYt2v0LXtv53p0jmUyNrZo4XIS9ptBcgKaggU2IXb5FzRDyk601TJYPij-jojzrNnOh_rB4vNVq-9e7zO4RsnUe9FgjZiWPqmYQ2YiMAw2jiWdUZNRlId9S8rXqXxnmFJbTEo0U-kLUOFsqFIUS", "width": 1440}], "place_id": "ChIJ6WNuZdEU9DkRMDCWcuDNmek", "plus_code": {"compound_code": "QW8P+7F Bermo, Jharkhand, India", "global_code": "7MM7QW8P+7F"}, "rating": 4.8, "reference": "ChIJ6WNuZdEU9DkRMDCWcuDNmek", "scope": "GOOGLE", "types": ["school", "point_of_interest", "establishment"], "user_ratings_total": 28, "vicinity": "Behind S.B.I, Jaridih Bazar, Bermo"}, {"business_status": "OPERATIONAL", "geometry": {"location": {"lat": 23.766244, "lng": 85.9148287}, "viewport": {"northeast": {"lat": 23.76772018029151, "lng": 85.9162325802915}, "southwest": {"lat": 23.7650222197085, "lng": 85.91353461970849}}}, "icon": "https://maps.gstatic.com/mapfiles/place_api/icons/v1/png_71/school-71.png", "icon_background_color": "#7B9EB0", "icon_mask_base_uri": "https://maps.gstatic.com/mapfiles/place_api/icons/v2/school_pinlet", "name": "Nav Prathmik Vidhyalaya", "photos": [{"height": 3120, "html_attributions": ["<a href=\"https://maps.google.com/maps/contrib/116105541607122320641\">Shahnawaz Alam</a>"], "photo_reference": "Aap_uEBJP_ZcBwcEYr5CsPIpybAvK0w2HEmRrVnShKKSGulPtvjyYzAnt8E-vo3TRbVISztiOl61_dlkR_OhfiqeHcIZfxW3qYGUcl1hjtYTI00v69WlmZ5T7Qm5tmb3qeWwD7fCJVlYXON3AwHBrsQJ0Qh0-XSKqJ3jvIJsMNDQ1d37ehE2", "width": 4160}], "place_id": "ChIJU-C9Rflr9DkRise0bcT2Zt8", "rating": 4, "reference": "ChIJU-C9Rflr9DkRise0bcT2Zt8", "scope": "GOOGLE", "types": ["school", "point_of_interest", "establishment"], "user_ratings_total": 1, "vicinity": "QW87+FWW, Bokaro Steel City"}, {"business_status": "OPERATIONAL", "geometry": {"location": {"lat": 23.7650919, "lng": 85.9368423}, "viewport": {"northeast": {"lat": 23.7664089802915, "lng": 85.9382380302915}, "southwest": {"lat": 23.7637110197085, "lng": 85.9355400697085}}}, "icon": "https://maps.gstatic.com/mapfiles/place_api/icons/v1/png_71/school-71.png", "icon_background_color": "#7B9EB0", "icon_mask_base_uri": "https://maps.gstatic.com/mapfiles/place_api/icons/v2/school_pinlet", "name": "MOHAMMAD SHAHBAZ", "place_id": "ChIJFdHxWfkV9DkRjHH2fn-dfjo", "plus_code": {"compound_code": "QW8P+2P Jaridih Bazar, Jharkhand, India", "global_code": "7MM7QW8P+2P"}, "reference": "ChIJFdHxWfkV9DkRjHH2fn-dfjo", "scope": "GOOGLE", "types": ["school", "point_of_interest", "establishment"], "vicinity": "near STATION ROAD, Jaridih Bazar"}, {"business_status": "OPERATIONAL", "geometry": {"location": {"lat": 23.7644516, "lng": 85.9374733}, "viewport": {"northeast": {"lat": 23.7657465302915, "lng": 85.93884603029151}, "southwest": {"lat": 23.7630485697085, "lng": 85.93614806970851}}}, "icon": "https://maps.gstatic.com/mapfiles/place_api/icons/v1/png_71/school-71.png", "icon_background_color": "#7B9EB0", "icon_mask_base_uri": "https://maps.gstatic.com/mapfiles/place_api/icons/v2/school_pinlet", "name": "Sharda Education", "photos": [{"height": 1080, "html_attributions": ["<a href=\"https://maps.google.com/maps/contrib/101877783105980590453\">rahul saw</a>"], "photo_reference": "Aap_uEAjvEAMVyrwYO2Rx97iF5H26qx1PTRhjfIADkRO_JdEdh2w9daVHmAh7hSqEHec29zRZHpx19f9rKWtNwwK3B7YieLIV-FoO-B_jQ5pbsOpHxYqmbHImQW0pVL1UgyujNppnNOmnLdegHMWKSHKa20yPlqdlSshX7N1f8ZVQZ7yvult", "width": 1080}], "place_id": "ChIJYYrhP5kV9DkRUIzQG-EybiU", "rating": 5, "reference": "ChIJYYrhP5kV9DkRUIzQG-EybiU", "scope": "GOOGLE", "types": ["school", "point_of_interest", "establishment"], "user_ratings_total": 4, "vicinity": "QW7P+QXQ, Jaridih Bazar"}, {"business_status": "OPERATIONAL", "geometry": {"location": {"lat": 23.7658076, "lng": 85.9380705}, "viewport": {"northeast": {"lat": 23.76721408029151, "lng": 85.93942253029151}, "southwest": {"lat": 23.7645161197085, "lng": 85.93672456970849}}}, "icon": "https://maps.gstatic.com/mapfiles/place_api/icons/v1/png_71/school-71.png", "icon_background_color": "#7B9EB0", "icon_mask_base_uri": "https://maps.gstatic.com/mapfiles/place_api/icons/v2/school_pinlet", "name": "K.B.M. KIDS GARDEN", "opening_hours": {"open_now": false}, "photos": [{"height": 1844, "html_attributions": ["<a href=\"https://maps.google.com/maps/contrib/111259126444585522719\">K.B.M. KIDS GARDEN</a>"], "photo_reference": "Aap_uEDt_iEIVd319X1nqagOmsePqnd-exTwNf3bBQIS-iyujVPBhSsD42dZhgSsx4uWxxgtgW4NYbXbw7Y-Wr_BHNzKRgYTHVNTeP4uRlFGXOQ0eqroOp5C8QAk2PBzROmNKWAWXB-jJaJEYyzR5hkAKT3CEcQixD4XHGZIdTbECaqRL-nq", "width": 3191}], "place_id": "ChIJK1RNHdEU9DkRm2l4QHK79R0", "plus_code": {"compound_code": "QW8Q+86 Jaridih Bazar, Jharkhand, India", "global_code": "7MM7QW8Q+86"}, "rating": 4.4, "reference": "ChIJK1RNHdEU9DkRm2l4QHK79R0", "scope": "GOOGLE", "types": ["school", "point_of_interest", "establishment"], "user_ratings_total": 7, "vicinity": "Gurudwara Road, Jaridih Bazar"}, {"business_status": "OPERATIONAL", "geometry": {"location": {"lat": 23.7729452, "lng": 85.9141683}, "viewport": {"northeast": {"lat": 23.7744913802915, "lng": 85.9153860802915}, "southwest": {"lat": 23.7717934197085, "lng": 85.91268811970849}}}, "icon": "https://maps.gstatic.com/mapfiles/place_api/icons/v1/png_71/school-71.png", "icon_background_color": "#7B9EB0", "icon_mask_base_uri": "https://maps.gstatic.com/mapfiles/place_api/icons/v2/school_pinlet", "name": "Swami Vivekanand School", "photos": [{"height": 1080, "html_attributions": ["<a href=\"https://maps.google.com/maps/contrib/117364985472459503051\">Sanjeet Yadav</a>"], "photo_reference": "Aap_uEBHrfhNi4zNKxJlxTbFuIv19MvZ9o-AGBepooMDn6kWMmf2_4tW3XdSR2E0716KSArmWqrpXlJY-bHE35QI54rTAgJfwrvjlw-7wg4zOpGat4WbZL69us3_9r5nlFIDn0q2qIweJw1lzh0xFYewanJmwhiXGastLoa_ZKh482rsFqtA", "width": 1920}], "place_id": "ChIJbRK1bjxr9DkRct7ZRqpYQJs", "rating": 4.3, "reference": "ChIJbRK1bjxr9DkRct7ZRqpYQJs", "scope": "GOOGLE", "types": ["school", "point_of_interest", "establishment"], "user_ratings_total": 9, "vicinity": "QWF7+5MF, Jarangdih"}, {"business_status": "OPERATIONAL", "geometry": {"location": {"lat": 23.7718778, "lng": 85.912565}, "viewport": {"northeast": {"lat": 23.7732885802915, "lng": 85.91389988029151}, "southwest": {"lat": 23.7705906197085, "lng": 85.91120191970849}}}, "icon": "https://maps.gstatic.com/mapfiles/place_api/icons/v1/png_71/school-71.png", "icon_background_color": "#7B9EB0", "icon_mask_base_uri": "https://maps.gstatic.com/mapfiles/place_api/icons/v2/school_pinlet", "name": "Princeroji", "place_id": "ChIJt3iEuFhr9DkRidnqyYOWEtQ", "reference": "ChIJt3iEuFhr9DkRidnqyYOWEtQ", "scope": "GOOGLE", "types": ["school", "point_of_interest", "establishment"], "vicinity": "QWC7+Q24, Jarangdih"}], "status": "OK"}