{"html_attributions": [], "results": [{"business_status": "OPERATIONAL", "geometry": {"location": {"lat": 23.9500662, "lng": 85.9281271}, "viewport": {"northeast": {"lat": 23.9514306302915, "lng": 85.92945353029151}, "southwest": {"lat": 23.9487326697085, "lng": 85.9267555697085}}}, "icon": "https://maps.gstatic.com/mapfiles/place_api/icons/v1/png_71/school-71.png", "icon_background_color": "#7B9EB0", "icon_mask_base_uri": "https://maps.gstatic.com/mapfiles/place_api/icons/v2/school_pinlet", "name": "Bridge bnaya jay", "place_id": "ChIJW5qPQQ1z9DkR1GCT2QPsfaw", "rating": 5, "reference": "ChIJW5qPQQ1z9DkR1GCT2QPsfaw", "scope": "GOOGLE", "types": ["school", "point_of_interest", "establishment"], "user_ratings_total": 1, "vicinity": "XW2H+27C, Chitramu"}, {"business_status": "OPERATIONAL", "geometry": {"location": {"lat": 23.9408761, "lng": 85.93431029999999}, "viewport": {"northeast": {"lat": 23.94223543029151, "lng": 85.93567088029151}, "southwest": {"lat": 23.9395374697085, "lng": 85.9329729197085}}}, "icon": "https://maps.gstatic.com/mapfiles/place_api/icons/v1/png_71/school-71.png", "icon_background_color": "#7B9EB0", "icon_mask_base_uri": "https://maps.gstatic.com/mapfiles/place_api/icons/v2/school_pinlet", "name": "Aangan Badi Kendra", "place_id": "ChIJK01i0YMN9DkRrNNp9Oj-U3U", "plus_code": {"compound_code": "WWRM+9P Chitramu, Jharkhand, India", "global_code": "7MM7WWRM+9P"}, "reference": "ChIJK01i0YMN9DkRrNNp9Oj-U3U", "scope": "GOOGLE", "types": ["school", "point_of_interest", "establishment"], "vicinity": "garam, Chitramu"}, {"business_status": "OPERATIONAL", "geometry": {"location": {"lat": 23.9375451, "lng": 85.9260896}, "viewport": {"northeast": {"lat": 23.9389159802915, "lng": 85.92737243029151}, "southwest": {"lat": 23.93621801970849, "lng": 85.92467446970849}}}, "icon": "https://maps.gstatic.com/mapfiles/place_api/icons/v1/png_71/school-71.png", "icon_background_color": "#7B9EB0", "icon_mask_base_uri": "https://maps.gstatic.com/mapfiles/place_api/icons/v2/school_pinlet", "name": "Primary school, Mungo rangamati", "place_id": "ChIJp1SiyaVz9DkR90fwx_Q74Qs", "rating": 5, "reference": "ChIJp1SiyaVz9DkR90fwx_Q74Qs", "scope": "GOOGLE", "types": ["school", "point_of_interest", "establishment"], "user_ratings_total": 1, "vicinity": "WWQG+2C8, Mungo Rangamati"}, {"business_status": "OPERATIONAL", "geometry": {"location": {"lat": 23.9375451, "lng": 85.9260896}, "viewport": {"northeast": {"lat": 23.9389159802915, "lng": 85.92737243029151}, "southwest": {"lat": 23.93621801970849, "lng": 85.92467446970849}}}, "icon": "https://maps.gstatic.com/mapfiles/place_api/icons/v1/png_71/school-71.png", "icon_background_color": "#7B9EB0", "icon_mask_base_uri": "https://maps.gstatic.com/mapfiles/place_api/icons/v2/school_pinlet", "name": "Primary school", "place_id": "ChIJWYQZFAFz9DkR5fRRb7AzgsI", "rating": 5, "reference": "ChIJWYQZFAFz9DkR5fRRb7AzgsI", "scope": "GOOGLE", "types": ["school", "point_of_interest", "establishment"], "user_ratings_total": 1, "vicinity": "WWQG+2C8, Mungo Rangamati"}, {"business_status": "OPERATIONAL", "geometry": {"location": {"lat": 23.9430058, "lng": 85.9147653}, "viewport": {"northeast": {"lat": 23.9442613802915, "lng": 85.91608748029151}, "southwest": {"lat": 23.94156341970849, "lng": 85.9133895197085}}}, "icon": "https://maps.gstatic.com/mapfiles/place_api/icons/v1/png_71/school-71.png", "icon_background_color": "#7B9EB0", "icon_mask_base_uri": "https://maps.gstatic.com/mapfiles/place_api/icons/v2/school_pinlet", "name": "studio Rani", "photos": [{"height": 2576, "html_attributions": ["<a href=\"https://maps.google.com/maps/contrib/116759038973820866941\">Studio Rani Music</a>"], "photo_reference": "Aap_uEAGJv3eSV7Fc4GxLCk2aTOV3VxdbAlObqxX5IQSEH_8Ydq8PohgKW-gWGdaz8BuUMjAzruyh9j73jVA_OmJCy25FJclslCkqpDFwHgYCCUWUVnB1acpMHVvxx8xua2ny-Vwpe4ScRuq7A7emvlBfzOn3pQ8l8x_DhgOW3hIBjsipoSR", "width": 1932}], "place_id": "ChIJGZlCJW1z9DkRN1wlyn2-OqI", "reference": "ChIJGZlCJW1z9DkRN1wlyn2-OqI", "scope": "GOOGLE", "types": ["school", "point_of_interest", "establishment"], "vicinity": "WWV7+6W2, Mungo Rangamati"}, {"business_status": "OPERATIONAL", "geometry": {"location": {"lat": 23.9385616, "lng": 85.93353739999999}, "viewport": {"northeast": {"lat": 23.9398553302915, "lng": 85.9350025302915}, "southwest": {"lat": 23.9371573697085, "lng": 85.93230456970849}}}, "icon": "https://maps.gstatic.com/mapfiles/place_api/icons/v1/png_71/school-71.png", "icon_background_color": "#7B9EB0", "icon_mask_base_uri": "https://maps.gstatic.com/mapfiles/place_api/icons/v2/school_pinlet", "name": "School \u0917\u094d\u0930\u093e\u092e \u091a\u093f\u0924\u0930\u093e\u092e\u0942", "place_id": "ChIJ6bnKmxAN9DkRvQ709yaQYr0", "plus_code": {"compound_code": "WWQM+CC Chitramu, Jharkhand, India", "global_code": "7MM7WWQM+CC"}, "reference": "ChIJ6bnKmxAN9DkRvQ709yaQYr0", "scope": "GOOGLE", "types": ["school", "point_of_interest", "establishment"], "vicinity": "garam, Chitramu"}], "status": "OK"}