{"html_attributions": [], "results": [{"business_status": "OPERATIONAL", "geometry": {"location": {"lat": 23.5875511, "lng": 85.94120860000001}, "viewport": {"northeast": {"lat": 23.5890654302915, "lng": 85.94223678029152}, "southwest": {"lat": 23.5863674697085, "lng": 85.9395388197085}}}, "icon": "https://maps.gstatic.com/mapfiles/place_api/icons/v1/png_71/school-71.png", "icon_background_color": "#7B9EB0", "icon_mask_base_uri": "https://maps.gstatic.com/mapfiles/place_api/icons/v2/school_pinlet", "name": "Middle school, Jharmunga", "opening_hours": {"open_now": false}, "place_id": "ChIJ07Qj2xo59DkRmDMSlHdCr9s", "reference": "ChIJ07Qj2xo59DkRmDMSlHdCr9s", "scope": "GOOGLE", "types": ["school", "point_of_interest", "establishment"], "vicinity": "HWQR+2FG, Jharmunga"}, {"business_status": "OPERATIONAL", "geometry": {"location": {"lat": 23.5876424, "lng": 85.94109929999999}, "viewport": {"northeast": {"lat": 23.5891364302915, "lng": 85.94219848029151}, "southwest": {"lat": 23.5864384697085, "lng": 85.93950051970849}}}, "icon": "https://maps.gstatic.com/mapfiles/place_api/icons/v1/png_71/school-71.png", "icon_background_color": "#7B9EB0", "icon_mask_base_uri": "https://maps.gstatic.com/mapfiles/place_api/icons/v2/school_pinlet", "name": "U.M.S JHARMUNGA", "opening_hours": {"open_now": false}, "photos": [{"height": 2322, "html_attributions": ["<a href=\"https://maps.google.com/maps/contrib/114527395178932103838\">Rafique Alam</a>"], "photo_reference": "Aap_uEA4FaPIU68sBF9sk3rN8d80YnQJ3mtJ-6woB6cWasjgdZ-ybouEhR8HB7L49R_PzNWUHZFWP3IltgTaujo0mcrJzykWV5uK6f1CnFg3i4fKpsUn0vIr3Y_Y0fbRe92OSqpcaqDWW8pbUbrB5e0wb-0_sh49LDTR91c20GRpewrJaViX", "width": 4128}], "place_id": "ChIJaasrgI859DkROiWl3bL9AwE", "plus_code": {"compound_code": "HWQR+3C Jharmunga, Jharkhand, India", "global_code": "7MM7HWQR+3C"}, "reference": "ChIJaasrgI859DkROiWl3bL9AwE", "scope": "GOOGLE", "types": ["school", "point_of_interest", "establishment"], "vicinity": "Jharmunga Road, Garri, Jharmunga"}, {"business_status": "OPERATIONAL", "geometry": {"location": {"lat": 23.58098230000001, "lng": 85.937598}, "viewport": {"northeast": {"lat": 23.5823513302915, "lng": 85.9388769302915}, "southwest": {"lat": 23.5796533697085, "lng": 85.9361789697085}}}, "icon": "https://maps.gstatic.com/mapfiles/place_api/icons/v1/png_71/school-71.png", "icon_background_color": "#7B9EB0", "icon_mask_base_uri": "https://maps.gstatic.com/mapfiles/place_api/icons/v2/school_pinlet", "name": "u hs manjura", "place_id": "ChIJH8JGci059DkRtPY_d0fP9AE", "reference": "ChIJH8JGci059DkRtPY_d0fP9AE", "scope": "GOOGLE", "types": ["school", "point_of_interest", "establishment"], "vicinity": "HWJQ+92X, Manjura"}, {"business_status": "OPERATIONAL", "geometry": {"location": {"lat": 23.5806965, "lng": 85.9376419}, "viewport": {"northeast": {"lat": 23.5820755302915, "lng": 85.9388776302915}, "southwest": {"lat": 23.5793775697085, "lng": 85.9361796697085}}}, "icon": "https://maps.gstatic.com/mapfiles/place_api/icons/v1/png_71/school-71.png", "icon_background_color": "#7B9EB0", "icon_mask_base_uri": "https://maps.gstatic.com/mapfiles/place_api/icons/v2/school_pinlet", "name": "N.U.P HIGH SCHOOL MANJURA", "place_id": "ChIJqX6gI5s49DkR1mhtOvTxZKo", "rating": 3.8, "reference": "ChIJqX6gI5s49DkR1mhtOvTxZKo", "scope": "GOOGLE", "types": ["school", "point_of_interest", "establishment"], "user_ratings_total": 4, "vicinity": "HWJQ+73C, Manjura"}, {"business_status": "OPERATIONAL", "geometry": {"location": {"lat": 23.5806188, "lng": 85.9375725}, "viewport": {"northeast": {"lat": 23.5819923302915, "lng": 85.9388289302915}, "southwest": {"lat": 23.5792943697085, "lng": 85.93613096970849}}}, "icon": "https://maps.gstatic.com/mapfiles/place_api/icons/v1/png_71/school-71.png", "icon_background_color": "#7B9EB0", "icon_mask_base_uri": "https://maps.gstatic.com/mapfiles/place_api/icons/v2/school_pinlet", "name": "Upgraded High School MANJURA", "place_id": "ChIJl9tmI5s49DkRB81bEq6zhGQ", "rating": 3.5, "reference": "ChIJl9tmI5s49DkRB81bEq6zhGQ", "scope": "GOOGLE", "types": ["school", "point_of_interest", "establishment"], "user_ratings_total": 2, "vicinity": "HWJQ+62W, Manjura"}, {"business_status": "OPERATIONAL", "geometry": {"location": {"lat": 23.5873137, "lng": 85.9335796}, "viewport": {"northeast": {"lat": 23.5886546302915, "lng": 85.9349408302915}, "southwest": {"lat": 23.5859566697085, "lng": 85.93224286970849}}}, "icon": "https://maps.gstatic.com/mapfiles/place_api/icons/v1/png_71/school-71.png", "icon_background_color": "#7B9EB0", "icon_mask_base_uri": "https://maps.gstatic.com/mapfiles/place_api/icons/v2/school_pinlet", "name": "N.p.s.barwadih", "place_id": "ChIJEVIxK1c59DkR0jIC6h2DSnk", "plus_code": {"compound_code": "HWPM+WC Manjura, Jharkhand, India", "global_code": "7MM7HWPM+WC"}, "reference": "ChIJEVIxK1c59DkR0jIC6h2DSnk", "scope": "GOOGLE", "types": ["school", "point_of_interest", "establishment"], "vicinity": "Manjura Basti Road, Manjura"}], "status": "OK"}