{"html_attributions": [], "results": [{"business_status": "OPERATIONAL", "geometry": {"location": {"lat": 23.8439007, "lng": 85.9399825}, "viewport": {"northeast": {"lat": 23.8452197302915, "lng": 85.9413210802915}, "southwest": {"lat": 23.8425217697085, "lng": 85.9386231197085}}}, "icon": "https://maps.gstatic.com/mapfiles/place_api/icons/v1/png_71/school-71.png", "icon_background_color": "#7B9EB0", "icon_mask_base_uri": "https://maps.gstatic.com/mapfiles/place_api/icons/v2/school_pinlet", "name": "Harladih High School", "place_id": "ChIJ81VXELkT9DkRQK8xmxtzBJI", "plus_code": {"compound_code": "RWVQ+HX Harladih, Jharkhand, India", "global_code": "7MM7RWVQ+HX"}, "reference": "ChIJ81VXELkT9DkRQK8xmxtzBJI", "scope": "GOOGLE", "types": ["school", "point_of_interest", "establishment"], "vicinity": ""}, {"business_status": "OPERATIONAL", "geometry": {"location": {"lat": 23.8419175, "lng": 85.94207879999999}, "viewport": {"northeast": {"lat": 23.8433207802915, "lng": 85.94333433029149}, "southwest": {"lat": 23.8406228197085, "lng": 85.94063636970849}}}, "icon": "https://maps.gstatic.com/mapfiles/place_api/icons/v1/png_71/school-71.png", "icon_background_color": "#7B9EB0", "icon_mask_base_uri": "https://maps.gstatic.com/mapfiles/place_api/icons/v2/school_pinlet", "name": "Primary School Bhander Kudar", "place_id": "ChIJFb4hOSUT9DkRJH2pm_LcVfw", "reference": "ChIJFb4hOSUT9DkRJH2pm_LcVfw", "scope": "GOOGLE", "types": ["school", "point_of_interest", "establishment"], "vicinity": "RWRR+QR8"}, {"business_status": "OPERATIONAL", "geometry": {"location": {"lat": 23.8519957, "lng": 85.935651}, "viewport": {"northeast": {"lat": 23.8531660802915, "lng": 85.9368437302915}, "southwest": {"lat": 23.8504681197085, "lng": 85.93414576970848}}}, "icon": "https://maps.gstatic.com/mapfiles/place_api/icons/v1/png_71/school-71.png", "icon_background_color": "#7B9EB0", "icon_mask_base_uri": "https://maps.gstatic.com/mapfiles/place_api/icons/v2/school_pinlet", "name": "Kailash Smark High School", "photos": [{"height": 720, "html_attributions": ["<a href=\"https://maps.google.com/maps/contrib/114958302311398621644\">Rakha Kumari</a>"], "photo_reference": "Aap_uEBQjA1Z2BBTtgjhbMaSNzJ_ZOdPQ-QIGH_PhPH5L_QFinUebspKRvzNp2yuOD5F2kmc1E9YwW04NUiw7gGEMgKMIzK5LZDOQ9n7Vn5qtuRUPT5SbkeBH1w_U9_RCR3skZv_qmHYUZUkYJ37BcSsYlUi2nmm3UyeznGMQ_6sLEsiNEH_", "width": 540}], "place_id": "ChIJb9N2abUT9DkRfeLmRU5IZ-E", "rating": 3, "reference": "ChIJb9N2abUT9DkRfeLmRU5IZ-E", "scope": "GOOGLE", "types": ["school", "point_of_interest", "establishment"], "user_ratings_total": 2, "vicinity": "VW2P+Q7R, Harladih"}, {"business_status": "OPERATIONAL", "geometry": {"location": {"lat": 23.8392007, "lng": 85.9511807}, "viewport": {"northeast": {"lat": 23.8403389302915, "lng": 85.9524937302915}, "southwest": {"lat": 23.8376409697085, "lng": 85.94979576970849}}}, "icon": "https://maps.gstatic.com/mapfiles/place_api/icons/v1/png_71/school-71.png", "icon_background_color": "#7B9EB0", "icon_mask_base_uri": "https://maps.gstatic.com/mapfiles/place_api/icons/v2/school_pinlet", "name": "SSA NPS DARJIMUHALLA", "photos": [{"height": 1080, "html_attributions": ["<a href=\"https://maps.google.com/maps/contrib/117511922598376040045\">Sarita Mahto</a>"], "photo_reference": "Aap_uEDGIqNmNcpi_WD_e0I-O4bCb_m7tmON-5SOBqqZtvu9At6KZQWG5JBksbB0SyJS22VMcZRv2fSj5Bk2zwlrrDCkkQWgrOLF6rWE_W2oNlul8XCFmpYKHKEBFVdjR-dr9TnnG29_LNmiLk0dkKFT68hV09oNkTjuWDx_F_RkY4PuEIjA", "width": 1920}], "place_id": "ChIJ_WeY-W8T9DkRGx8PV7SJZeo", "reference": "ChIJ_WeY-W8T9DkRGx8PV7SJZeo", "scope": "GOOGLE", "types": ["school", "point_of_interest", "establishment"], "vicinity": "RXQ2+MFM, Palamu"}, {"business_status": "OPERATIONAL", "geometry": {"location": {"lat": 23.8445419, "lng": 85.95723740000001}, "viewport": {"northeast": {"lat": 23.8457823302915, "lng": 85.95852673029151}, "southwest": {"lat": 23.8430843697085, "lng": 85.95582876970849}}}, "icon": "https://maps.gstatic.com/mapfiles/place_api/icons/v1/png_71/school-71.png", "icon_background_color": "#7B9EB0", "icon_mask_base_uri": "https://maps.gstatic.com/mapfiles/place_api/icons/v2/school_pinlet", "name": "UMS Barai", "place_id": "ChIJb8e_aNYT9DkR15ygiMI-T24", "reference": "ChIJb8e_aNYT9DkR15ygiMI-T24", "scope": "GOOGLE", "types": ["secondary_school", "school", "point_of_interest", "establishment"], "vicinity": "RXV4+RV9, Barai"}, {"business_status": "OPERATIONAL", "geometry": {"location": {"lat": 23.8509002, "lng": 85.9588411}, "viewport": {"northeast": {"lat": 23.85207933029151, "lng": 85.9601226802915}, "southwest": {"lat": 23.8493813697085, "lng": 85.9574247197085}}}, "icon": "https://maps.gstatic.com/mapfiles/place_api/icons/v1/png_71/school-71.png", "icon_background_color": "#7B9EB0", "icon_mask_base_uri": "https://maps.gstatic.com/mapfiles/place_api/icons/v2/school_pinlet", "name": "B. M. PUBLIC SCHOOL DEVNAGAR BARAI", "place_id": "ChIJAe6ByU8T9DkRxVOIdlm4V_0", "reference": "ChIJAe6ByU8T9DkRxVOIdlm4V_0", "scope": "GOOGLE", "types": ["school", "point_of_interest", "establishment"], "vicinity": "VX25+9G8, Barai"}], "status": "OK"}