{"html_attributions": [], "results": [{"business_status": "OPERATIONAL", "geometry": {"location": {"lat": 23.9718094, "lng": 85.95089229999999}, "viewport": {"northeast": {"lat": 23.97371115, "lng": 85.9523602302915}, "southwest": {"lat": 23.96610414999999, "lng": 85.94966226970848}}}, "icon": "https://maps.gstatic.com/mapfiles/place_api/icons/v1/png_71/school-71.png", "icon_background_color": "#7B9EB0", "icon_mask_base_uri": "https://maps.gstatic.com/mapfiles/place_api/icons/v2/school_pinlet", "name": "Madarsha Chino", "opening_hours": {"open_now": false}, "photos": [{"height": 720, "html_attributions": ["<a href=\"https://maps.google.com/maps/contrib/111094090183080846792\">Raza</a>"], "photo_reference": "Aap_uECX9B8rcS_ah4w5bAviXjpTBahznLWNmRDOVD2SsydletvR_z6jWnUxB_nBNuTiagVV3gBwRczBLGRBFHUI6RIPGHMy_aOGOudqFXxeSoX_ate4HwKA8T4f1Avm2vCl1vuQ4oYO4Dmd1q7VJ9bE89nXE7YCqH5L1a8ypMjQWHMqvQaY", "width": 1280}], "place_id": "ChIJ_bkTai0N9DkRgpF6WK6YfZI", "plus_code": {"compound_code": "XXC2+P9 Bharkhar, Jharkhand, India", "global_code": "7MM7XXC2+P9"}, "reference": "ChIJ_bkTai0N9DkRgpF6WK6YfZI", "scope": "GOOGLE", "types": ["school", "point_of_interest", "establishment"], "vicinity": "near Jama Masjid Chino"}, {"business_status": "OPERATIONAL", "geometry": {"location": {"lat": 23.9776119, "lng": 85.94578369999999}, "viewport": {"northeast": {"lat": 23.9790461302915, "lng": 85.9470604802915}, "southwest": {"lat": 23.9763481697085, "lng": 85.94436251970849}}}, "icon": "https://maps.gstatic.com/mapfiles/place_api/icons/v1/png_71/school-71.png", "icon_background_color": "#7B9EB0", "icon_mask_base_uri": "https://maps.gstatic.com/mapfiles/place_api/icons/v2/school_pinlet", "name": "jpp school bharkhar", "place_id": "ChIJAQAAALwM9DkR44H_VVjGNSM", "reference": "ChIJAQAAALwM9DkR44H_VVjGNSM", "scope": "GOOGLE", "types": ["school", "point_of_interest", "establishment"], "vicinity": "XWHW+28V, Bharkhar"}, {"business_status": "OPERATIONAL", "geometry": {"location": {"lat": 23.9770721, "lng": 85.93616229999999}, "viewport": {"northeast": {"lat": 23.97841183029151, "lng": 85.9375020802915}, "southwest": {"lat": 23.9757138697085, "lng": 85.93480411970849}}}, "icon": "https://maps.gstatic.com/mapfiles/place_api/icons/v1/png_71/school-71.png", "icon_background_color": "#7B9EB0", "icon_mask_base_uri": "https://maps.gstatic.com/mapfiles/place_api/icons/v2/school_pinlet", "name": "Middle School Ghuthiyagadha", "photos": [{"height": 1600, "html_attributions": ["<a href=\"https://maps.google.com/maps/contrib/108202563723449491740\">MUKESH MAHTO BHARKHAR</a>"], "photo_reference": "Aap_uEADRC3o1yKVprtI5e7iy4LE_BtNXj5r_APER9I7KFtSnkf-HU2uRhQB7MAXQMZaocEYg_7u0qBIFhMaGYx3JNGV3d2kwJRVN9EVR5rtCzI-84jMD35daS7xcBZgBT78PExVRl2VKYMBQWWzGJYvdfhyxSprYFItqvaKUmJ3eu71JPtZ", "width": 1200}], "place_id": "ChIJubxdl2EN9DkRQiZYUX3FHpo", "reference": "ChIJubxdl2EN9DkRQiZYUX3FHpo", "scope": "GOOGLE", "types": ["school", "point_of_interest", "establishment"], "vicinity": "XWGP+RFF, Bharkhar"}, {"business_status": "OPERATIONAL", "geometry": {"location": {"lat": 23.9566379, "lng": 85.9442475}, "viewport": {"northeast": {"lat": 23.9580651802915, "lng": 85.9455430302915}, "southwest": {"lat": 23.9553672197085, "lng": 85.9428450697085}}}, "icon": "https://maps.gstatic.com/mapfiles/place_api/icons/v1/png_71/school-71.png", "icon_background_color": "#7B9EB0", "icon_mask_base_uri": "https://maps.gstatic.com/mapfiles/place_api/icons/v2/school_pinlet", "name": "\u0909\u091a\u094d\u091a \u0935\u093f\u0926\u094d\u092f\u093e\u0932\u092f \u091c\u0930\u0942\u0935\u093e\u0921\u0940\u0939", "place_id": "ChIJA2fyBfgN9DkRqCfuRgPkO9o", "plus_code": {"compound_code": "XW4V+MM Chinikiro Jaruadih, Jharkhand, India", "global_code": "7MM7XW4V+MM"}, "reference": "ChIJA2fyBfgN9DkRqCfuRgPkO9o", "scope": "GOOGLE", "types": ["school", "point_of_interest", "establishment"], "vicinity": "Chinikiro Jaruadih"}], "status": "OK"}