{"html_attributions": [], "results": [{"business_status": "OPERATIONAL", "geometry": {"location": {"lat": 23.7622471, "lng": 86.0020562}, "viewport": {"northeast": {"lat": 23.7636542302915, "lng": 86.0033818802915}, "southwest": {"lat": 23.7609562697085, "lng": 86.0006839197085}}}, "icon": "https://maps.gstatic.com/mapfiles/place_api/icons/v1/png_71/school-71.png", "icon_background_color": "#7B9EB0", "icon_mask_base_uri": "https://maps.gstatic.com/mapfiles/place_api/icons/v2/school_pinlet", "name": "Toaquir", "opening_hours": {"open_now": false}, "place_id": "ChIJRwD6phEV9DkRWyy8oHnlC4U", "reference": "ChIJRwD6phEV9DkRWyy8oHnlC4U", "scope": "GOOGLE", "types": ["school", "point_of_interest", "establishment"], "vicinity": "Q262+VRV, Phusro"}, {"business_status": "OPERATIONAL", "geometry": {"location": {"lat": 23.7622471, "lng": 86.0020562}, "viewport": {"northeast": {"lat": 23.7636542302915, "lng": 86.0033818802915}, "southwest": {"lat": 23.7609562697085, "lng": 86.0006839197085}}}, "icon": "https://maps.gstatic.com/mapfiles/place_api/icons/v1/png_71/school-71.png", "icon_background_color": "#7B9EB0", "icon_mask_base_uri": "https://maps.gstatic.com/mapfiles/place_api/icons/v2/school_pinlet", "name": "Chandra bhanu singh", "place_id": "ChIJmTJlA1kV9DkRWYcZJYfX-hs", "reference": "ChIJmTJlA1kV9DkRWYcZJYfX-hs", "scope": "GOOGLE", "types": ["school", "point_of_interest", "establishment"], "vicinity": "Q262+VRV, Phusro"}, {"business_status": "OPERATIONAL", "geometry": {"location": {"lat": 23.7622471, "lng": 86.0020562}, "viewport": {"northeast": {"lat": 23.7636542302915, "lng": 86.0033818802915}, "southwest": {"lat": 23.7609562697085, "lng": 86.0006839197085}}}, "icon": "https://maps.gstatic.com/mapfiles/place_api/icons/v1/png_71/school-71.png", "icon_background_color": "#7B9EB0", "icon_mask_base_uri": "https://maps.gstatic.com/mapfiles/place_api/icons/v2/school_pinlet", "name": "Unique Coaching & Computer Center", "opening_hours": {"open_now": true}, "place_id": "ChIJ9dP-Oy0V9DkR4r4H68glg8M", "plus_code": {"compound_code": "Q262+VR Phusro, Jharkhand, India", "global_code": "7MM8Q262+VR"}, "reference": "ChIJ9dP-Oy0V9DkR4r4H68glg8M", "scope": "GOOGLE", "types": ["school", "point_of_interest", "establishment"], "vicinity": "Sharma market , Jawahar naga, Phusro"}, {"business_status": "OPERATIONAL", "geometry": {"location": {"lat": 23.7618898, "lng": 86.0022151}, "viewport": {"northeast": {"lat": 23.7632423802915, "lng": 86.0035542302915}, "southwest": {"lat": 23.7605444197085, "lng": 86.00085626970849}}}, "icon": "https://maps.gstatic.com/mapfiles/place_api/icons/v1/png_71/school-71.png", "icon_background_color": "#7B9EB0", "icon_mask_base_uri": "https://maps.gstatic.com/mapfiles/place_api/icons/v2/school_pinlet", "name": "Sayal Books Centre", "opening_hours": {"open_now": true}, "photos": [{"height": 3096, "html_attributions": ["<a href=\"https://maps.google.com/maps/contrib/103570685486363850519\">Vikash prajapati</a>"], "photo_reference": "Aap_uEBLWF-lqCdY6R_r0TVWEZQPccXyWJviRRRQBYSGMTXsRA1ik-n2vfCS8EFiLoY1vHjAgS7Hip_SFVu1FlRW_G0opCQjOSco3QndY11_9-5uPBRScScCG1YtbgaqG4VFPpzJpJhBlUQyaSPUVvovIhGitdVPxT6rfjj5FXZSJ18QAD2d", "width": 4128}], "place_id": "ChIJAzA3204U9DkRihNFUW7iLeA", "plus_code": {"compound_code": "Q262+QV Phusro, Jharkhand, India", "global_code": "7MM8Q262+QV"}, "rating": 4, "reference": "ChIJAzA3204U9DkRihNFUW7iLeA", "scope": "GOOGLE", "types": ["school", "point_of_interest", "establishment"], "user_ratings_total": 8, "vicinity": "Bank of Barod, Phusro"}, {"business_status": "OPERATIONAL", "geometry": {"location": {"lat": 23.7643298, "lng": 86.01300119999999}, "viewport": {"northeast": {"lat": 23.7657254302915, "lng": 86.0142602802915}, "southwest": {"lat": 23.7630274697085, "lng": 86.01156231970849}}}, "icon": "https://maps.gstatic.com/mapfiles/place_api/icons/v1/png_71/school-71.png", "icon_background_color": "#7B9EB0", "icon_mask_base_uri": "https://maps.gstatic.com/mapfiles/place_api/icons/v2/school_pinlet", "name": "Rukmini devi Public School, Phusro", "place_id": "ChIJ15Pib64X9DkRzIEpg5Ozl6w", "reference": "ChIJ15Pib64X9DkRzIEpg5Ozl6w", "scope": "GOOGLE", "types": ["school", "point_of_interest", "establishment"], "vicinity": "Q277+P6J, Phusro"}, {"business_status": "OPERATIONAL", "geometry": {"location": {"lat": 23.7609184, "lng": 86.0070324}, "viewport": {"northeast": {"lat": 23.7622391302915, "lng": 86.00836413029151}, "southwest": {"lat": 23.7595411697085, "lng": 86.0056661697085}}}, "icon": "https://maps.gstatic.com/mapfiles/place_api/icons/v1/png_71/school-71.png", "icon_background_color": "#7B9EB0", "icon_mask_base_uri": "https://maps.gstatic.com/mapfiles/place_api/icons/v2/school_pinlet", "name": "Anpati Devi Public School", "place_id": "ChIJh8WIZzQV9DkRlKlf4uTnhCE", "reference": "ChIJh8WIZzQV9DkRlKlf4uTnhCE", "scope": "GOOGLE", "types": ["school", "point_of_interest", "establishment"], "vicinity": "Q264+9R7, Rajabeda, Phusro"}, {"business_status": "OPERATIONAL", "geometry": {"location": {"lat": 23.762021, "lng": 86.011021}, "viewport": {"northeast": {"lat": 23.7634228802915, "lng": 86.0124131802915}, "southwest": {"lat": 23.76072491970849, "lng": 86.0097152197085}}}, "icon": "https://maps.gstatic.com/mapfiles/place_api/icons/v1/png_71/school-71.png", "icon_background_color": "#7B9EB0", "icon_mask_base_uri": "https://maps.gstatic.com/mapfiles/place_api/icons/v2/school_pinlet", "name": "Primery school", "place_id": "ChIJlY20FoYV9DkREgk0yl1-63k", "plus_code": {"compound_code": "Q266+RC Phusro, Jharkhand, India", "global_code": "7MM8Q266+RC"}, "reference": "ChIJlY20FoYV9DkREgk0yl1-63k", "scope": "GOOGLE", "types": ["school", "point_of_interest", "establishment"], "vicinity": "Dumri - Bermo - Jaina Road"}, {"business_status": "OPERATIONAL", "geometry": {"location": {"lat": 23.7666812, "lng": 85.9962492}, "viewport": {"northeast": {"lat": 23.76803973029151, "lng": 85.9975996802915}, "southwest": {"lat": 23.76534176970851, "lng": 85.9949017197085}}}, "icon": "https://maps.gstatic.com/mapfiles/place_api/icons/v1/png_71/school-71.png", "icon_background_color": "#7B9EB0", "icon_mask_base_uri": "https://maps.gstatic.com/mapfiles/place_api/icons/v2/school_pinlet", "name": "parimary School Phusro", "photos": [{"height": 4208, "html_attributions": ["<a href=\"https://maps.google.com/maps/contrib/112287836117130050423\">Sanju Ravi</a>"], "photo_reference": "Aap_uEAAc-5HT2rFz9iWc8VQbVp4bJH05uF3HQ6-SyTr7Od0PLVFLy4rfgnW5ocAbTas6yqxN5FuvRXHWUOiO4BRs4NQ_v91MkwNoNzFYt1vFdOZaOos6BYCB_Qa-uyHeNpOL-LbnKcu3yBGWBDe8X86OOoitwyoGmAIXdgw68d7n8bu741v", "width": 3120}], "place_id": "ChIJBVMFyDYU9DkR28SimmF4eQw", "plus_code": {"compound_code": "QX8W+MF Bokaro Steel City, Jharkhand, India", "global_code": "7MM7QX8W+MF"}, "rating": 5, "reference": "ChIJBVMFyDYU9DkR28SimmF4eQw", "scope": "GOOGLE", "types": ["school", "point_of_interest", "establishment"], "user_ratings_total": 1, "vicinity": "Bokaro Steel City"}, {"business_status": "OPERATIONAL", "geometry": {"location": {"lat": 23.7618767, "lng": 85.9989983}, "viewport": {"northeast": {"lat": 23.7631866802915, "lng": 86.0003190802915}, "southwest": {"lat": 23.7604887197085, "lng": 85.9976211197085}}}, "icon": "https://maps.gstatic.com/mapfiles/place_api/icons/v1/png_71/school-71.png", "icon_background_color": "#7B9EB0", "icon_mask_base_uri": "https://maps.gstatic.com/mapfiles/place_api/icons/v2/school_pinlet", "name": "Creative public school", "opening_hours": {"open_now": false}, "photos": [{"height": 1920, "html_attributions": ["<a href=\"https://maps.google.com/maps/contrib/101804360116589009012\">Mrityunjay Kumar</a>"], "photo_reference": "Aap_uECT9SHeFnC4kzcCeAoUDbdg_WkzKUm60YlS0NGiWjSLndw4mrnbx5Svqj5My-ncdvACL4_5AjtCHV4paRAf-Bo1MWg_4LYxEYpDqydfcZ5nSlbg__eRZRSb3UDToYRULQ9IXVdn_6Kd_Gi8_JI7RFENbWG0Rw26M5YuyaZOvY15WTV3", "width": 1080}], "place_id": "ChIJhSMzg0MV9DkRjXgTZdHG6dk", "plus_code": {"compound_code": "QX6X+QH Phusro, Jharkhand, India", "global_code": "7MM7QX6X+QH"}, "rating": 5, "reference": "ChIJhSMzg0MV9DkRjXgTZdHG6dk", "scope": "GOOGLE", "types": ["school", "point_of_interest", "establishment"], "user_ratings_total": 1, "vicinity": "Patel Nagar Road, Shastri Nagar, Phusro"}, {"business_status": "OPERATIONAL", "geometry": {"location": {"lat": 23.7650064, "lng": 85.9960574}, "viewport": {"northeast": {"lat": 23.7662208802915, "lng": 85.99740133029152}, "southwest": {"lat": 23.7635229197085, "lng": 85.9947033697085}}}, "icon": "https://maps.gstatic.com/mapfiles/place_api/icons/v1/png_71/school-71.png", "icon_background_color": "#7B9EB0", "icon_mask_base_uri": "https://maps.gstatic.com/mapfiles/place_api/icons/v2/school_pinlet", "name": "B B S Public School", "place_id": "ChIJidkHHTQU9DkRY-dtD-QtHUI", "plus_code": {"compound_code": "QX8W+2C Phusro, Jharkhand, India", "global_code": "7MM7QX8W+2C"}, "rating": 5, "reference": "ChIJidkHHTQU9DkRY-dtD-QtHUI", "scope": "GOOGLE", "types": ["school", "point_of_interest", "establishment"], "user_ratings_total": 1, "vicinity": "bata gali main road, Phusro"}, {"business_status": "OPERATIONAL", "geometry": {"location": {"lat": 23.7620051, "lng": 85.99593}, "viewport": {"northeast": {"lat": 23.7632825802915, "lng": 85.9972778302915}, "southwest": {"lat": 23.7605846197085, "lng": 85.99457986970849}}}, "icon": "https://maps.gstatic.com/mapfiles/place_api/icons/v1/png_71/school-71.png", "icon_background_color": "#7B9EB0", "icon_mask_base_uri": "https://maps.gstatic.com/mapfiles/place_api/icons/v2/school_pinlet", "name": "Modern Public School , Patel Nagar , Phusro Bermo", "opening_hours": {"open_now": false}, "place_id": "ChIJrTWDiTQU9DkRLWjeZs_F3ac", "plus_code": {"compound_code": "QX6W+R9 Phusro, Jharkhand, India", "global_code": "7MM7QX6W+R9"}, "rating": 3.4, "reference": "ChIJrTWDiTQU9DkRLWjeZs_F3ac", "scope": "GOOGLE", "types": ["school", "point_of_interest", "establishment"], "user_ratings_total": 5, "vicinity": "\u0930\u094b\u0921, \u092b\u0941\u0938\u0930\u094b"}, {"business_status": "OPERATIONAL", "geometry": {"location": {"lat": 23.7620027, "lng": 85.9958884}, "viewport": {"northeast": {"lat": 23.7633633302915, "lng": 85.99717203029151}, "southwest": {"lat": 23.7606653697085, "lng": 85.9944740697085}}}, "icon": "https://maps.gstatic.com/mapfiles/place_api/icons/v1/png_71/school-71.png", "icon_background_color": "#7B9EB0", "icon_mask_base_uri": "https://maps.gstatic.com/mapfiles/place_api/icons/v2/school_pinlet", "name": "Modern Public School , Shree Ganesh Mandir Road , Patel Nagar, Phusro", "place_id": "ChIJ2XEqijQU9DkRyGgmAyTgYFg", "plus_code": {"compound_code": "QX6W+R9 Phusro, Jharkhand, India", "global_code": "7MM7QX6W+R9"}, "reference": "ChIJ2XEqijQU9DkRyGgmAyTgYFg", "scope": "GOOGLE", "types": ["school", "point_of_interest", "establishment"], "vicinity": "Shree Ganesh Mandir Road, Patel Nagar , Phusro, \u0930\u094b\u0921, Phusro"}, {"business_status": "OPERATIONAL", "geometry": {"location": {"lat": 23.7634562, "lng": 85.99477159999999}, "viewport": {"northeast": {"lat": 23.7647565802915, "lng": 85.9961276302915}, "southwest": {"lat": 23.7620586197085, "lng": 85.99342966970849}}}, "icon": "https://maps.gstatic.com/mapfiles/place_api/icons/v1/png_71/school-71.png", "icon_background_color": "#7B9EB0", "icon_mask_base_uri": "https://maps.gstatic.com/mapfiles/place_api/icons/v2/school_pinlet", "name": "Sun Rise School", "opening_hours": {"open_now": true}, "place_id": "ChIJBfyRl8gV9DkRIQBrtTeC33o", "reference": "ChIJBfyRl8gV9DkRIQBrtTeC33o", "scope": "GOOGLE", "types": ["school", "point_of_interest", "establishment"], "vicinity": "QX7V+9WJ, Phusro"}, {"business_status": "OPERATIONAL", "geometry": {"location": {"lat": 23.7729287, "lng": 86.018014}, "viewport": {"northeast": {"lat": 23.7742945802915, "lng": 86.01936508029151}, "southwest": {"lat": 23.7715966197085, "lng": 86.01666711970849}}}, "icon": "https://maps.gstatic.com/mapfiles/place_api/icons/v1/png_71/school-71.png", "icon_background_color": "#7B9EB0", "icon_mask_base_uri": "https://maps.gstatic.com/mapfiles/place_api/icons/v2/school_pinlet", "name": "Sadaphal Bal Mandir", "place_id": "ChIJzYutkp4W9DkRNUhJ9xEW7sM", "plus_code": {"compound_code": "Q2F9+56 Phusro, Jharkhand, India", "global_code": "7MM8Q2F9+56"}, "rating": 4, "reference": "ChIJzYutkp4W9DkRNUhJ9xEW7sM", "scope": "GOOGLE", "types": ["school", "point_of_interest", "establishment"], "user_ratings_total": 5, "vicinity": "Sharda Colony, Phusro"}], "status": "OK"}