{"html_attributions": [], "results": [{"business_status": "OPERATIONAL", "geometry": {"location": {"lat": 23.54669250000001, "lng": 86.0452993}, "viewport": {"northeast": {"lat": 23.54807058029151, "lng": 86.04666143029151}, "southwest": {"lat": 23.54537261970851, "lng": 86.0439634697085}}}, "icon": "https://maps.gstatic.com/mapfiles/place_api/icons/v1/png_71/school-71.png", "icon_background_color": "#7B9EB0", "icon_mask_base_uri": "https://maps.gstatic.com/mapfiles/place_api/icons/v2/school_pinlet", "name": "EKDUARA HIGH SCHOOL", "photos": [{"height": 3024, "html_attributions": ["<a href=\"https://maps.google.com/maps/contrib/118187784001812294887\">EKDUARA HIGH SCHOOL</a>"], "photo_reference": "Aap_uEBh9n-0bEv4ceGf0PqUCPHeJhTeeW3E8bOt2xN2wOBjsUPN8w9pZa0qaAxrB07yoCA_PT2iXS8R5CfbFe88pC5Ps_EUg-5KSUvPF9hqK0ByshPrgJcA1zpJCumdr2cVW884rPPNHh00LSdIJQmcV0m1ab9vOLwEKnjE1w1JHXuhcBk", "width": 4032}], "place_id": "ChIJIRo7sq079DkRmV9FsGYTHns", "plus_code": {"compound_code": "G2WW+M4 Bhadadi, West Bengal, India", "global_code": "7MM8G2WW+M4"}, "reference": "ChIJIRo7sq079DkRmV9FsGYTHns", "scope": "GOOGLE", "types": ["secondary_school", "school", "point_of_interest", "establishment"], "vicinity": "Bhadadi"}, {"business_status": "OPERATIONAL", "geometry": {"location": {"lat": 23.5437704, "lng": 86.0426229}, "viewport": {"northeast": {"lat": 23.5451351302915, "lng": 86.0439047802915}, "southwest": {"lat": 23.5424371697085, "lng": 86.04120681970848}}}, "icon": "https://maps.gstatic.com/mapfiles/place_api/icons/v1/png_71/school-71.png", "icon_background_color": "#7B9EB0", "icon_mask_base_uri": "https://maps.gstatic.com/mapfiles/place_api/icons/v2/school_pinlet", "name": "Ekduara Farmer's Resourse Group", "photos": [{"height": 3492, "html_attributions": ["<a href=\"https://maps.google.com/maps/contrib/115091362430421116997\">Suman Kalyan Mandal</a>"], "photo_reference": "Aap_uEAk67P5SrnCGx1wielO7zhG9Bq1W038j1FTLhBYnctDtsL5tbYeBnh5K6XaxfkOsg-iEjb-bkM7T-_eldNCooSfdLhbi7Iai6NIWacfx9smKlk6HxBhCAMHtXJiBGODalME0bnpxHKm4qax9mbNnuPece0TLf7ZWOg__YjrdxpfaOI", "width": 4656}], "place_id": "ChIJAdK98zo79DkR2FGeRElMpDg", "plus_code": {"compound_code": "G2VV+G2 Ankduar, West Bengal, India", "global_code": "7MM8G2VV+G2"}, "rating": 5, "reference": "ChIJAdK98zo79DkR2FGeRElMpDg", "scope": "GOOGLE", "types": ["school", "point_of_interest", "establishment"], "user_ratings_total": 1, "vicinity": "Unnamed Road"}, {"business_status": "OPERATIONAL", "geometry": {"location": {"lat": 23.542296, "lng": 86.0444454}, "viewport": {"northeast": {"lat": 23.5430949302915, "lng": 86.0459127302915}, "southwest": {"lat": 23.5403969697085, "lng": 86.0432147697085}}}, "icon": "https://maps.gstatic.com/mapfiles/place_api/icons/v1/png_71/school-71.png", "icon_background_color": "#7B9EB0", "icon_mask_base_uri": "https://maps.gstatic.com/mapfiles/place_api/icons/v2/school_pinlet", "name": "Ekduara River Lift Irrigation.Pump House", "photos": [{"height": 3492, "html_attributions": ["<a href=\"https://maps.google.com/maps/contrib/115091362430421116997\">Suman Kalyan Mandal</a>"], "photo_reference": "Aap_uECRhKqRHtMXuSGNb_xReUKCnmeBk2tGiK5ruuOIzfPLPYPfqy3PTNuI8Ex1dzNOup0FgapRAA2hL-O1YU20yB75YyMp47gW9QF5yvD_3syzjaW4fMbDOwopLNnxVIs7EKRNT50yFPWkUbzkuwgL5qunIrYjvoMxcxSK8KpJ0QD4jYY", "width": 4656}], "place_id": "ChIJ0Y8gJ7479DkRxQ3GyFJj01w", "rating": 3, "reference": "ChIJ0Y8gJ7479DkRxQ3GyFJj01w", "scope": "GOOGLE", "types": ["school", "point_of_interest", "establishment"], "user_ratings_total": 1, "vicinity": "G2RV+WQ8"}, {"business_status": "OPERATIONAL", "geometry": {"location": {"lat": 23.5564728, "lng": 86.0451016}, "viewport": {"northeast": {"lat": 23.5577922302915, "lng": 86.0464404302915}, "southwest": {"lat": 23.5550942697085, "lng": 86.04374246970849}}}, "icon": "https://maps.gstatic.com/mapfiles/place_api/icons/v1/png_71/school-71.png", "icon_background_color": "#7B9EB0", "icon_mask_base_uri": "https://maps.gstatic.com/mapfiles/place_api/icons/v2/school_pinlet", "name": "Barkatar", "opening_hours": {"open_now": true}, "photos": [{"height": 3264, "html_attributions": ["<a href=\"https://maps.google.com/maps/contrib/107423252198389513656\">Babuswar Murmu</a>"], "photo_reference": "Aap_uEAh5cMJBvLU-z80MVkPNEMHD7WR0Tk9fJCkbBCCjcZHyhtb1ruajoWSkJs6d_A8N6UI-3eWgGOQrhtQbkP54wS9FODATxYwgn4J3vkteY6bMdSvQIDSR7UhulYYBZIM5SPnv1XdXW8dP_qh28owK0aQRfn1Bpx4kuyxBEGMrv8fk7rm", "width": 2448}], "place_id": "ChIJ07hXzWU79DkRk6wY7DnlUIA", "plus_code": {"compound_code": "H24W+H2 Bhadadi, West Bengal, India", "global_code": "7MM8H24W+H2"}, "rating": 3, "reference": "ChIJ07hXzWU79DkRk6wY7DnlUIA", "scope": "GOOGLE", "types": ["school", "point_of_interest", "establishment"], "user_ratings_total": 2, "vicinity": "VILL-BARKATAR POST-DAMRU PS-JOYPUR"}, {"business_status": "OPERATIONAL", "geometry": {"location": {"lat": 23.5577931, "lng": 86.0513192}, "viewport": {"northeast": {"lat": 23.5592002802915, "lng": 86.05260273029151}, "southwest": {"lat": 23.55650231970849, "lng": 86.0499047697085}}}, "icon": "https://maps.gstatic.com/mapfiles/place_api/icons/v1/png_71/school-71.png", "icon_background_color": "#7B9EB0", "icon_mask_base_uri": "https://maps.gstatic.com/mapfiles/place_api/icons/v2/school_pinlet", "name": "Dambera Junior High School", "place_id": "ChIJ1ShoO1g69DkRvgaa_SrD6W8", "plus_code": {"compound_code": "H352+4G Dambera, West Bengal, India", "global_code": "7MM8H352+4G"}, "rating": 2, "reference": "ChIJ1ShoO1g69DkRvgaa_SrD6W8", "scope": "GOOGLE", "types": ["school", "point_of_interest", "establishment"], "user_ratings_total": 1, "vicinity": "Dambera"}, {"business_status": "OPERATIONAL", "geometry": {"location": {"lat": 23.5578426, "lng": 86.051472}, "viewport": {"northeast": {"lat": 23.5592090302915, "lng": 86.05287723029151}, "southwest": {"lat": 23.5565110697085, "lng": 86.05017926970851}}}, "icon": "https://maps.gstatic.com/mapfiles/place_api/icons/v1/png_71/school-71.png", "icon_background_color": "#7B9EB0", "icon_mask_base_uri": "https://maps.gstatic.com/mapfiles/place_api/icons/v2/school_pinlet", "name": "Dambera Primary School", "place_id": "ChIJH43FPFg69DkRpLND0j3kcKY", "reference": "ChIJH43FPFg69DkRpLND0j3kcKY", "scope": "GOOGLE", "types": ["school", "point_of_interest", "establishment"], "vicinity": "H352+4HQ, Dambera"}, {"business_status": "OPERATIONAL", "geometry": {"location": {"lat": 23.5546866, "lng": 86.03379799999999}, "viewport": {"northeast": {"lat": 23.5560054302915, "lng": 86.03504748029151}, "southwest": {"lat": 23.5533074697085, "lng": 86.03234951970849}}}, "icon": "https://maps.gstatic.com/mapfiles/place_api/icons/v1/png_71/school-71.png", "icon_background_color": "#7B9EB0", "icon_mask_base_uri": "https://maps.gstatic.com/mapfiles/place_api/icons/v2/school_pinlet", "name": "Damru Primary School", "place_id": "ChIJZ_Ulc0c69DkRA6zTBUVBxQI", "rating": 5, "reference": "ChIJZ_Ulc0c69DkRA6zTBUVBxQI", "scope": "GOOGLE", "types": ["school", "point_of_interest", "establishment"], "user_ratings_total": 1, "vicinity": "H23M+VGF, Damru"}], "status": "OK"}