{"html_attributions": [], "results": [{"business_status": "OPERATIONAL", "geometry": {"location": {"lat": 23.8257884, "lng": 86.050056}, "viewport": {"northeast": {"lat": 23.8269089802915, "lng": 86.05146853029152}, "southwest": {"lat": 23.8242110197085, "lng": 86.0487705697085}}}, "icon": "https://maps.gstatic.com/mapfiles/place_api/icons/v1/png_71/school-71.png", "icon_background_color": "#7B9EB0", "icon_mask_base_uri": "https://maps.gstatic.com/mapfiles/place_api/icons/v2/school_pinlet", "name": "Utkarmit Madhya Vidhalaya Manjhlitand", "place_id": "ChIJQUxl0yYR9DkRLIGRC7BPoa8", "reference": "ChIJQUxl0yYR9DkRLIGRC7BPoa8", "scope": "GOOGLE", "types": ["school", "point_of_interest", "establishment"], "vicinity": "R3G2+827, Birni"}, {"business_status": "OPERATIONAL", "geometry": {"location": {"lat": 23.8233545, "lng": 86.0463949}, "viewport": {"northeast": {"lat": 23.8247646302915, "lng": 86.0476874802915}, "southwest": {"lat": 23.8220666697085, "lng": 86.04498951970848}}}, "icon": "https://maps.gstatic.com/mapfiles/place_api/icons/v1/png_71/school-71.png", "icon_background_color": "#7B9EB0", "icon_mask_base_uri": "https://maps.gstatic.com/mapfiles/place_api/icons/v2/school_pinlet", "name": "Primary school Asnatand", "place_id": "ChIJdZrz3E0R9DkRFXDdA034f7I", "plus_code": {"compound_code": "R2FW+8H Birni, Jharkhand, India", "global_code": "7MM8R2FW+8H"}, "reference": "ChIJdZrz3E0R9DkRFXDdA034f7I", "scope": "GOOGLE", "types": ["school", "point_of_interest", "establishment"], "vicinity": "Unnamed Road, Birni"}, {"business_status": "OPERATIONAL", "geometry": {"location": {"lat": 23.8256813, "lng": 86.0515375}, "viewport": {"northeast": {"lat": 23.8271157802915, "lng": 86.0528127302915}, "southwest": {"lat": 23.8244178197085, "lng": 86.05011476970849}}}, "icon": "https://maps.gstatic.com/mapfiles/place_api/icons/v1/png_71/school-71.png", "icon_background_color": "#7B9EB0", "icon_mask_base_uri": "https://maps.gstatic.com/mapfiles/place_api/icons/v2/school_pinlet", "name": "M.Tand School", "place_id": "ChIJSWHKNScR9DkR1rG262Qz8s4", "plus_code": {"compound_code": "R3G2+7J Birni, Jharkhand, India", "global_code": "7MM8R3G2+7J"}, "reference": "ChIJSWHKNScR9DkR1rG262Qz8s4", "scope": "GOOGLE", "types": ["school", "point_of_interest", "establishment"], "vicinity": "Manjhalitand"}, {"business_status": "OPERATIONAL", "geometry": {"location": {"lat": 23.8255197, "lng": 86.0516428}, "viewport": {"northeast": {"lat": 23.8268496302915, "lng": 86.05277513029151}, "southwest": {"lat": 23.8241516697085, "lng": 86.0500771697085}}}, "icon": "https://maps.gstatic.com/mapfiles/place_api/icons/v1/png_71/school-71.png", "icon_background_color": "#7B9EB0", "icon_mask_base_uri": "https://maps.gstatic.com/mapfiles/place_api/icons/v2/school_pinlet", "name": "U. M. V Manjhlitand", "opening_hours": {"open_now": false}, "photos": [{"height": 533, "html_attributions": ["<a href=\"https://maps.google.com/maps/contrib/117892655815725484790\">Sanjay Kumar</a>"], "photo_reference": "Aap_uEDE7bKP4M_11aIkJ7yjUSKSHfJUOvV23kIxiU-J0b3fjqfxqErKO4mgFx1ZuEuK_rJ0jw9oNQYVRhkPMZv2S6v1iyB2P1fdOmAkTxWWAzceaY96nQqKZRUAw2Ms_THdQt-xur4PkEAV-YS2hB_1cEqlfVK4cCAmcQRVu9unj92hI9kx", "width": 480}], "place_id": "ChIJk8seNCcR9DkRBl6eTE0GVeE", "reference": "ChIJk8seNCcR9DkRBl6eTE0GVeE", "scope": "GOOGLE", "types": ["school", "point_of_interest", "establishment"], "vicinity": "R3G2+6M2, Birni"}, {"business_status": "OPERATIONAL", "geometry": {"location": {"lat": 23.82940009999999, "lng": 86.0529162}, "viewport": {"northeast": {"lat": 23.8308179302915, "lng": 86.05432088029151}, "southwest": {"lat": 23.8281199697085, "lng": 86.05162291970849}}}, "icon": "https://maps.gstatic.com/mapfiles/place_api/icons/v1/png_71/school-71.png", "icon_background_color": "#7B9EB0", "icon_mask_base_uri": "https://maps.gstatic.com/mapfiles/place_api/icons/v2/school_pinlet", "name": "Narayan Mahto House", "place_id": "ChIJtSO7eCAR9DkR7-AWLuAHk1c", "rating": 5, "reference": "ChIJtSO7eCAR9DkR7-AWLuAHk1c", "scope": "GOOGLE", "types": ["school", "point_of_interest", "establishment"], "user_ratings_total": 1, "vicinity": "R3H3+Q57, Birni"}, {"business_status": "OPERATIONAL", "geometry": {"location": {"lat": 23.8367302, "lng": 86.0401435}, "viewport": {"northeast": {"lat": 23.8381721802915, "lng": 86.04164348029151}, "southwest": {"lat": 23.8354742197085, "lng": 86.0389455197085}}}, "icon": "https://maps.gstatic.com/mapfiles/place_api/icons/v1/png_71/school-71.png", "icon_background_color": "#7B9EB0", "icon_mask_base_uri": "https://maps.gstatic.com/mapfiles/place_api/icons/v2/school_pinlet", "name": "gandhi Memorial Public School (Katghara)", "place_id": "ChIJ6VIU2BYR9DkRf1vaxppovnI", "rating": 5, "reference": "ChIJ6VIU2BYR9DkRf1vaxppovnI", "scope": "GOOGLE", "types": ["school", "point_of_interest", "establishment"], "user_ratings_total": 2, "vicinity": "R2PR+M3R, Katghara"}, {"business_status": "OPERATIONAL", "geometry": {"location": {"lat": 23.826418, "lng": 86.03580869999999}, "viewport": {"northeast": {"lat": 23.8277112302915, "lng": 86.0371725302915}, "southwest": {"lat": 23.8250132697085, "lng": 86.03447456970848}}}, "icon": "https://maps.gstatic.com/mapfiles/place_api/icons/v1/png_71/school-71.png", "icon_background_color": "#7B9EB0", "icon_mask_base_uri": "https://maps.gstatic.com/mapfiles/place_api/icons/v2/school_pinlet", "name": "bhalmara School", "place_id": "ChIJwwdxfNER9DkRL4l0c8FElrA", "reference": "ChIJwwdxfNER9DkRL4l0c8FElrA", "scope": "GOOGLE", "types": ["school", "point_of_interest", "establishment"], "vicinity": "R2GP+H87, Nawadih"}, {"business_status": "OPERATIONAL", "geometry": {"location": {"lat": 23.8385573, "lng": 86.03858579999999}, "viewport": {"northeast": {"lat": 23.83985083029151, "lng": 86.0399507802915}, "southwest": {"lat": 23.8371528697085, "lng": 86.0372528197085}}}, "icon": "https://maps.gstatic.com/mapfiles/place_api/icons/v1/png_71/school-71.png", "icon_background_color": "#7B9EB0", "icon_mask_base_uri": "https://maps.gstatic.com/mapfiles/place_api/icons/v2/school_pinlet", "name": "B.D Public School", "opening_hours": {"open_now": true}, "photos": [{"height": 3120, "html_attributions": ["<a href=\"https://maps.google.com/maps/contrib/118095208949237529503\">Pankaj Mark</a>"], "photo_reference": "Aap_uEDSOnnezJEUqGTghchAJHBjFc_wqyQGVPxUyZn95MJsQbyVxMOh8f3WoxaudcmUSNWDcdJkQT7Ix9JhMcbFns77BDZvZmW4GX2MhMp04LAe9k6os0G6-NOIIsqzLVTw8AhCvJaZ3ME7l7K7bjpA1Z3qGBIXlAQiw_GrWAlp5uz_TDUu", "width": 4160}], "place_id": "ChIJ5xEixYYR9DkR23jJIEV54FE", "rating": 5, "reference": "ChIJ5xEixYYR9DkR23jJIEV54FE", "scope": "GOOGLE", "types": ["school", "point_of_interest", "establishment"], "user_ratings_total": 1, "vicinity": "R2QQ+CCG, Katghara"}], "status": "OK"}