{"html_attributions": [], "results": [{"business_status": "OPERATIONAL", "geometry": {"location": {"lat": 23.8708626, "lng": 86.0439087}, "viewport": {"northeast": {"lat": 23.8721814302915, "lng": 86.0452480302915}, "southwest": {"lat": 23.86948346970849, "lng": 86.0425500697085}}}, "icon": "https://maps.gstatic.com/mapfiles/place_api/icons/v1/png_71/school-71.png", "icon_background_color": "#7B9EB0", "icon_mask_base_uri": "https://maps.gstatic.com/mapfiles/place_api/icons/v2/school_pinlet", "name": "Durga mandap junodih", "photos": [{"height": 1440, "html_attributions": ["<a href=\"https://maps.google.com/maps/contrib/114345559132199416908\">Prem Kumar</a>"], "photo_reference": "Aap_uEC12gD4oOoy5dgyZe0g82uaZmt4P4uN1hR18ha_0qO_m9MScyllPRLSd9fX9T6_sFwvhiphAbYQ_tq-YVTg_nwlIDLuj-epbDbZgqNLqr5ZSeHzR2IV84KZeM3aQPRqej_3RVN92iDMdREjkw1MdqWyiHOaU85KjU0kwXmyw8SCQvhb", "width": 2560}], "place_id": "ChIJ1yjDwo8R9DkRU0iWv-igb0Y", "rating": 5, "reference": "ChIJ1yjDwo8R9DkRU0iWv-igb0Y", "scope": "GOOGLE", "types": ["school", "point_of_interest", "establishment"], "user_ratings_total": 1, "vicinity": "V2CV+8HV, Junodih"}, {"business_status": "OPERATIONAL", "geometry": {"location": {"lat": 23.8655483, "lng": 86.04965419999999}, "viewport": {"northeast": {"lat": 23.86733248029151, "lng": 86.0510339802915}, "southwest": {"lat": 23.8646345197085, "lng": 86.0483360197085}}}, "icon": "https://maps.gstatic.com/mapfiles/place_api/icons/v1/png_71/school-71.png", "icon_background_color": "#7B9EB0", "icon_mask_base_uri": "https://maps.gstatic.com/mapfiles/place_api/icons/v2/school_pinlet", "name": "Utkarmit Madhya Vidyalaya School Junodih", "place_id": "ChIJBYsX34gR9DkR1GQaNkvFI-Y", "plus_code": {"compound_code": "V28X+6V Junodih, Jharkhand, India", "global_code": "7MM8V28X+6V"}, "reference": "ChIJBYsX34gR9DkR1GQaNkvFI-Y", "scope": "GOOGLE", "types": ["school", "point_of_interest", "establishment"], "vicinity": "Junodih"}, {"business_status": "OPERATIONAL", "geometry": {"location": {"lat": 23.8728747, "lng": 86.0428522}, "viewport": {"northeast": {"lat": 23.8742293802915, "lng": 86.0441593302915}, "southwest": {"lat": 23.8715314197085, "lng": 86.0414613697085}}}, "icon": "https://maps.gstatic.com/mapfiles/place_api/icons/v1/png_71/school-71.png", "icon_background_color": "#7B9EB0", "icon_mask_base_uri": "https://maps.gstatic.com/mapfiles/place_api/icons/v2/school_pinlet", "name": "Shiv mandir junodih", "place_id": "ChIJg8fKrEgR9DkRk8ptnEFfHBw", "reference": "ChIJg8fKrEgR9DkRk8ptnEFfHBw", "scope": "GOOGLE", "types": ["school", "point_of_interest", "establishment"], "vicinity": "V2FV+44X, Junodih"}, {"business_status": "OPERATIONAL", "geometry": {"location": {"lat": 23.8645387, "lng": 86.050411}, "viewport": {"northeast": {"lat": 23.86734175, "lng": 86.0515056802915}, "southwest": {"lat": 23.86360435, "lng": 86.04880771970849}}}, "icon": "https://maps.gstatic.com/mapfiles/place_api/icons/v1/png_71/school-71.png", "icon_background_color": "#7B9EB0", "icon_mask_base_uri": "https://maps.gstatic.com/mapfiles/place_api/icons/v2/school_pinlet", "name": "\u0936\u093f\u0935 \u092e\u0902\u0926\u093f\u0930 \u091c\u0941\u0928\u094b\u0921\u0940\u0939", "place_id": "ChIJoZEtV9MR9DkRgs1WeSmnVXU", "reference": "ChIJoZEtV9MR9DkRgs1WeSmnVXU", "scope": "GOOGLE", "types": ["school", "point_of_interest", "establishment"], "vicinity": "V372+R57, Junodih"}, {"business_status": "OPERATIONAL", "geometry": {"location": {"lat": 23.8783007, "lng": 86.0454355}, "viewport": {"northeast": {"lat": 23.8796473802915, "lng": 86.0466670302915}, "southwest": {"lat": 23.8769494197085, "lng": 86.0439690697085}}}, "icon": "https://maps.gstatic.com/mapfiles/place_api/icons/v1/png_71/school-71.png", "icon_background_color": "#7B9EB0", "icon_mask_base_uri": "https://maps.gstatic.com/mapfiles/place_api/icons/v2/school_pinlet", "name": "Parathmik Madh Bidyale Koklodih", "photos": [{"height": 1280, "html_attributions": ["<a href=\"https://maps.google.com/maps/contrib/102162096771935483474\">Jina Mrna Koklodih Me</a>"], "photo_reference": "Aap_uECfl_i7-yWLZlLvv9draXtk8lTdwHIW77r-B7JD2zIFhrk3luq9eTHsTZ4591hB-wFDTbJrUDppVRRa5VIfJHGrmFaQnJ895aSZeY8lB0QH2O_XCsFyvzCvziqvJfxctOkIWomqDq4EmR78wRABOpUDTP7Ed32cW_JAuvjlg_Hs-bW4", "width": 720}], "place_id": "ChIJiUuPlA4R9DkR4JqotPp2dGg", "rating": 1, "reference": "ChIJiUuPlA4R9DkR4JqotPp2dGg", "scope": "GOOGLE", "types": ["school", "point_of_interest", "establishment"], "user_ratings_total": 1, "vicinity": "V2HW+85F, Koklodih"}, {"business_status": "OPERATIONAL", "geometry": {"location": {"lat": 23.8578714, "lng": 86.04265939999999}, "viewport": {"northeast": {"lat": 23.8592541802915, "lng": 86.04398773029149}, "southwest": {"lat": 23.8565562197085, "lng": 86.04128976970848}}}, "icon": "https://maps.gstatic.com/mapfiles/place_api/icons/v1/png_71/school-71.png", "icon_background_color": "#7B9EB0", "icon_mask_base_uri": "https://maps.gstatic.com/mapfiles/place_api/icons/v2/school_pinlet", "name": "Bhushan High School", "photos": [{"height": 3120, "html_attributions": ["<a href=\"https://maps.google.com/maps/contrib/106235089876823262750\">manish kumar</a>"], "photo_reference": "Aap_uEB1CLyN-fr-IdCn8xGNcP16URmNSfzmQF8PdNj4oZg2jhlU9SnlIAUEGe244-fEjr8qt3CUd6oXrRoIGJOLewBQxkRcWUloEfKmDrAD7qNHK8KXEzH8RoRQVuVPYMEo4hJujY0BjngZOenrcYxs33SJytJgRt3lmXq2GOs72tmBk5nh", "width": 4160}], "place_id": "ChIJXbtO1qcR9DkR50b_M7UlIhk", "rating": 4, "reference": "ChIJXbtO1qcR9DkR50b_M7UlIhk", "scope": "GOOGLE", "types": ["school", "point_of_interest", "establishment"], "user_ratings_total": 21, "vicinity": "V25V+43V, Junodih"}], "status": "OK"}