{"html_attributions": [], "results": [{"business_status": "OPERATIONAL", "geometry": {"location": {"lat": 23.9457038, "lng": 86.0379481}, "viewport": {"northeast": {"lat": 23.9469969802915, "lng": 86.03938298029149}, "southwest": {"lat": 23.9442990197085, "lng": 86.03668501970849}}}, "icon": "https://maps.gstatic.com/mapfiles/place_api/icons/v1/png_71/school-71.png", "icon_background_color": "#7B9EB0", "icon_mask_base_uri": "https://maps.gstatic.com/mapfiles/place_api/icons/v2/school_pinlet", "name": "GAUSIYA JAMA MASJID KHAKI KALA", "opening_hours": {"open_now": true}, "photos": [{"height": 768, "html_attributions": ["<a href=\"https://maps.google.com/maps/contrib/107685643258074064716\">Zamal Ansari</a>"], "photo_reference": "Aap_uEAk6I6wya98O7mFxQYrNO3XYfHWT1xHvR3_Hm7lfaHUlUjhOx9KTKueIcqWvpovVlbkdsOzf4xvhF12HXOKIEdCt4Bq2pjl1AWR4DXaHoLAFBfXlXGgi3sIiRp5kS6QPsB-SHgOA2S2hE4Vdwpov1f_pUmxoYIahv3gn1jtI9iN3zsN", "width": 614}], "place_id": "ChIJYcMtSlkO9DkRtBDKjlnkh5k", "plus_code": {"compound_code": "W2WQ+75 Khakhikalan, Jharkhand, India", "global_code": "7MM8W2WQ+75"}, "rating": 5, "reference": "ChIJYcMtSlkO9DkRtBDKjlnkh5k", "scope": "GOOGLE", "types": ["school", "point_of_interest", "establishment"], "user_ratings_total": 8, "vicinity": "Dumri - Bermo - Jaina Road, Khakhikalan"}, {"business_status": "OPERATIONAL", "geometry": {"location": {"lat": 23.946302, "lng": 86.0345657}, "viewport": {"northeast": {"lat": 23.9476435302915, "lng": 86.03592638029151}, "southwest": {"lat": 23.94494556970849, "lng": 86.0332284197085}}}, "icon": "https://maps.gstatic.com/mapfiles/place_api/icons/v1/png_71/school-71.png", "icon_background_color": "#7B9EB0", "icon_mask_base_uri": "https://maps.gstatic.com/mapfiles/place_api/icons/v2/school_pinlet", "name": "YADAV MANISH", "opening_hours": {"open_now": true}, "photos": [{"height": 4000, "html_attributions": ["<a href=\"https://maps.google.com/maps/contrib/102553859659393936317\">YADAV MANISH</a>"], "photo_reference": "Aap_uEAD4xpX9ZKAgBCDthG83E6F5uthm60MroNrUoV838v4-hSXQizEqGuhnskqT6ij-GqH8S1y-YrMv1RhGxXh3aUnMr37LaG2iTKqYTUxS1Q34WaQdBLiGao03ZQ8NlCb0JwWuzuVtFJ-vT-ZTpkw1QcNd0MbMmDamMyAUlamzzOkwFKE", "width": 3000}], "place_id": "ChIJzRYIt4YP9DkRIjMhoa-mZQY", "plus_code": {"compound_code": "W2WM+GR Khakhikalan, Jharkhand, India", "global_code": "7MM8W2WM+GR"}, "reference": "ChIJzRYIt4YP9DkRIjMhoa-mZQY", "scope": "GOOGLE", "types": ["secondary_school", "school", "point_of_interest", "establishment"], "vicinity": "Unnamed Road, Khakhikalan"}, {"business_status": "OPERATIONAL", "geometry": {"location": {"lat": 23.9587728, "lng": 86.0540864}, "viewport": {"northeast": {"lat": 23.9600852802915, "lng": 86.0554307302915}, "southwest": {"lat": 23.95738731970849, "lng": 86.0527327697085}}}, "icon": "https://maps.gstatic.com/mapfiles/place_api/icons/v1/png_71/school-71.png", "icon_background_color": "#7B9EB0", "icon_mask_base_uri": "https://maps.gstatic.com/mapfiles/place_api/icons/v2/school_pinlet", "name": "Chand babu", "place_id": "ChIJQ6pZaAIP9DkRAAAAMEKtnjE", "plus_code": {"compound_code": "X353+GJ Rasuntaura, Jharkhand, India", "global_code": "7MM8X353+GJ"}, "reference": "ChIJQ6pZaAIP9DkRAAAAMEKtnjE", "scope": "GOOGLE", "types": ["school", "point_of_interest", "establishment"], "vicinity": "General Store Roshan Tunda"}, {"business_status": "OPERATIONAL", "geometry": {"location": {"lat": 23.9397847, "lng": 86.0548084}, "viewport": {"northeast": {"lat": 23.94109003029151, "lng": 86.05628608029151}, "southwest": {"lat": 23.9383920697085, "lng": 86.05358811970851}}}, "icon": "https://maps.gstatic.com/mapfiles/place_api/icons/v1/png_71/school-71.png", "icon_background_color": "#7B9EB0", "icon_mask_base_uri": "https://maps.gstatic.com/mapfiles/place_api/icons/v2/school_pinlet", "name": "Arif Honda", "photos": [{"height": 4000, "html_attributions": ["<a href=\"https://maps.google.com/maps/contrib/113926214529380989265\">Jabir Ansari</a>"], "photo_reference": "Aap_uECpvfp1oRwZ_XBZpFaRqUBDdzjkPdXkihoK4GspVIQgsS9brrYK4qSwMajqWOLkF2-izPHKnzepFaE3mFfgT98uqe0J95MuJ0cIyp6CYPpoQ10qXu1yZTCOedj6NuhIGhyS5rHkr9ZEMk_vGeOSkQgFPMG7whGhtyR7R6UaprNQz8vM", "width": 2250}], "place_id": "ChIJlxQZYvIP9DkRc3HZ3kF7sTk", "rating": 5, "reference": "ChIJlxQZYvIP9DkRc3HZ3kF7sTk", "scope": "GOOGLE", "types": ["school", "point_of_interest", "establishment"], "user_ratings_total": 2, "vicinity": "W3Q3+WW7, Asnasingha"}], "status": "OK"}