{"html_attributions": [], "results": [{"business_status": "OPERATIONAL", "geometry": {"location": {"lat": 23.7541139, "lng": 86.061739}, "viewport": {"northeast": {"lat": 23.7554438302915, "lng": 86.06318863029152}, "southwest": {"lat": 23.7527458697085, "lng": 86.0604906697085}}}, "icon": "https://maps.gstatic.com/mapfiles/place_api/icons/v1/png_71/school-71.png", "icon_background_color": "#7B9EB0", "icon_mask_base_uri": "https://maps.gstatic.com/mapfiles/place_api/icons/v2/school_pinlet", "name": "BRL DAV Public School,Bhandaridah", "photos": [{"height": 3472, "html_attributions": ["<a href=\"https://maps.google.com/maps/contrib/107986591103050916906\">puja kumari</a>"], "photo_reference": "Aap_uECgT1u92PSMJsGr1NNUuFZILVPu720641pCdM09Z5aPEtq0Vul7MiM0QfoZwuA2PdiZj_Yi8c8tGAir7awG-0PkxzkI7FaY1phYftwG3lrjh5iwKWtQha2uHSWDspqh4zrR0Wwap5C9gYwpzwbqK2mjFY8DETTfvx5gzKOfM8wpj3UM", "width": 4624}], "place_id": "ChIJY5UTNa8X9DkR898FkF_Vmz4", "rating": 4.1, "reference": "ChIJY5UTNa8X9DkR898FkF_Vmz4", "scope": "GOOGLE", "types": ["school", "point_of_interest", "establishment"], "user_ratings_total": 83, "vicinity": "Q336+JMX, Bhandaridah"}, {"business_status": "OPERATIONAL", "geometry": {"location": {"lat": 23.7411746, "lng": 86.0625728}, "viewport": {"northeast": {"lat": 23.7425790302915, "lng": 86.06399473029151}, "southwest": {"lat": 23.7398810697085, "lng": 86.06129676970849}}}, "icon": "https://maps.gstatic.com/mapfiles/place_api/icons/v1/png_71/school-71.png", "icon_background_color": "#7B9EB0", "icon_mask_base_uri": "https://maps.gstatic.com/mapfiles/place_api/icons/v2/school_pinlet", "name": "SRU middle school Bhandaridah", "place_id": "ChIJc8D2DTEX9DkRjKKjDBPcUY8", "reference": "ChIJc8D2DTEX9DkRjKKjDBPcUY8", "scope": "GOOGLE", "types": ["school", "point_of_interest", "establishment"], "vicinity": "P3R7+F28, Bhandaridah"}, {"business_status": "OPERATIONAL", "geometry": {"location": {"lat": 23.7564836, "lng": 86.0596843}, "viewport": {"northeast": {"lat": 23.7579811302915, "lng": 86.06103568029151}, "southwest": {"lat": 23.7552831697085, "lng": 86.0583377197085}}}, "icon": "https://maps.gstatic.com/mapfiles/place_api/icons/v1/png_71/school-71.png", "icon_background_color": "#7B9EB0", "icon_mask_base_uri": "https://maps.gstatic.com/mapfiles/place_api/icons/v2/school_pinlet", "name": "Middle school bhandaridah", "photos": [{"height": 1981, "html_attributions": ["<a href=\"https://maps.google.com/maps/contrib/108750036052411487790\">Fact_of Real</a>"], "photo_reference": "Aap_uEA-peAjhqdwj_iJYlqkmK8HnV6ONwrItq55INGrU3sbekC1LshoMbs1Vjc_PFqZmJkWBj4_bdYHSnGPVyEjH2Dem8FCYt4h-e5l6O8S3Z2XuJbna8S62XVr4LxT2lw8w-IRQshPnWcRxmJ30k5FkArv3vrzCxDqCRc-2QgfkrLAg1Cr", "width": 4096}], "place_id": "ChIJAVENDqwX9DkROZAZPrKEruQ", "plus_code": {"compound_code": "Q345+HV Tarmi, Jharkhand, India", "global_code": "7MM8Q345+HV"}, "reference": "ChIJAVENDqwX9DkROZAZPrKEruQ", "scope": "GOOGLE", "types": ["school", "point_of_interest", "establishment"], "vicinity": "Chandrapura, phusro Road, Tarmi"}, {"business_status": "OPERATIONAL", "geometry": {"location": {"lat": 23.7394715, "lng": 86.0658662}, "viewport": {"northeast": {"lat": 23.7409470802915, "lng": 86.0671062302915}, "southwest": {"lat": 23.7382491197085, "lng": 86.06440826970848}}}, "icon": "https://maps.gstatic.com/mapfiles/place_api/icons/v1/png_71/school-71.png", "icon_background_color": "#7B9EB0", "icon_mask_base_uri": "https://maps.gstatic.com/mapfiles/place_api/icons/v2/school_pinlet", "name": "HIGH SCHOOL, MANGO, \u0939\u093e\u0908 \u0938\u094d\u0915\u0942\u0932, \u092e\u093e\u0928\u0917\u094b", "place_id": "ChIJx8zFJ34X9DkR1mn8O5vLrJw", "plus_code": {"compound_code": "P3Q8+Q8 Tantri, Jharkhand, India", "global_code": "7MM8P3Q8+Q8"}, "reference": "ChIJx8zFJ34X9DkR1mn8O5vLrJw", "scope": "GOOGLE", "types": ["school", "point_of_interest", "establishment"], "vicinity": "Village - Mango, Post - Tupkadih"}, {"business_status": "OPERATIONAL", "geometry": {"location": {"lat": 23.7560883, "lng": 86.0584858}, "viewport": {"northeast": {"lat": 23.7574902802915, "lng": 86.05982283029151}, "southwest": {"lat": 23.7547923197085, "lng": 86.0571248697085}}}, "icon": "https://maps.gstatic.com/mapfiles/place_api/icons/v1/png_71/school-71.png", "icon_background_color": "#7B9EB0", "icon_mask_base_uri": "https://maps.gstatic.com/mapfiles/place_api/icons/v2/school_pinlet", "name": "SRU middle school Bhandaridah", "photos": [{"height": 1804, "html_attributions": ["<a href=\"https://maps.google.com/maps/contrib/115861149222742291234\">Sudarshan Nath</a>"], "photo_reference": "Aap_uECQ45tafxx9yltJb-VKgHSHkCqSF1V2u4YjHoehpzMU5Xtpln-M_BiNb7R5BzKgzqSolZN1vHAy1La31BcXbolX-v6_HV7s6MS5oYgfAR98MWd7Tbfm1etOzGN-BNOykeSemOGWkYSISEK10ESssdEcsQI89igOk4YF6v7aR7ryZG2G", "width": 3200}], "place_id": "ChIJ68xRz_kX9DkRsRkYExLHnIU", "reference": "ChIJ68xRz_kX9DkRsRkYExLHnIU", "scope": "GOOGLE", "types": ["school", "point_of_interest", "establishment"], "vicinity": "Q345+C9Q, Bhandaridah"}, {"business_status": "OPERATIONAL", "geometry": {"location": {"lat": 23.7585487, "lng": 86.0577656}, "viewport": {"northeast": {"lat": 23.7599398302915, "lng": 86.05912773029151}, "southwest": {"lat": 23.75724186970849, "lng": 86.0564297697085}}}, "icon": "https://maps.gstatic.com/mapfiles/place_api/icons/v1/png_71/school-71.png", "icon_background_color": "#7B9EB0", "icon_mask_base_uri": "https://maps.gstatic.com/mapfiles/place_api/icons/v2/school_pinlet", "name": "Ambasta public school", "photos": [{"height": 450, "html_attributions": ["<a href=\"https://maps.google.com/maps/contrib/104153590420152223457\">Abhi sinha</a>"], "photo_reference": "Aap_uECrsjGQcjO8QOLL9pJj-ssSufMoCBu4aIBVRxd-l2fp5Hpo285Mq3lsCCvTgQQ9dkbJ30W7F0nNhQBkfQFPgfkNlaIpFpEPenHekTwXA9OgZRvbA5fOOarPcYBHoDyY3vUqXUaldf4EsKPR3st5EqZWGupcVbFGBnxhX3v-_Bqnbyq2", "width": 750}], "place_id": "ChIJ0ZIEmikX9DkRmatYaD3JOZY", "plus_code": {"compound_code": "Q355+C4 Bhandaridah, Jharkhand, India", "global_code": "7MM8Q355+C4"}, "rating": 5, "reference": "ChIJ0ZIEmikX9DkRmatYaD3JOZY", "scope": "GOOGLE", "types": ["school", "point_of_interest", "establishment"], "user_ratings_total": 2, "vicinity": "BHANDARIDAH, hethbera"}, {"business_status": "OPERATIONAL", "geometry": {"location": {"lat": 23.7369932, "lng": 86.06266839999999}, "viewport": {"northeast": {"lat": 23.7383392802915, "lng": 86.0640641802915}, "southwest": {"lat": 23.7356413197085, "lng": 86.06136621970849}}}, "icon": "https://maps.gstatic.com/mapfiles/place_api/icons/v1/png_71/school-71.png", "icon_background_color": "#7B9EB0", "icon_mask_base_uri": "https://maps.gstatic.com/mapfiles/place_api/icons/v2/school_pinlet", "name": "Aayush Store Muslim Tola Mango", "opening_hours": {"open_now": true}, "photos": [{"height": 3264, "html_attributions": ["<a href=\"https://maps.google.com/maps/contrib/105659447883782275716\">Sahdeo Pal</a>"], "photo_reference": "Aap_uED97Oe-ME9MuzjSbSfEIgXfg4-ykkMBcxCzOVmrFi0O3fTGlvxW14f2fYGMGBLH4aswSLBurn0QB5NtZggsstR15rn6UeGWzEdGDrgJnMWXiS9KJBRDz1WH0xqxklPARTZel8sJYOj4fqfmjdYDxNzkQOC0GOtTJQexQm9R4eoCb4n_", "width": 1836}], "place_id": "ChIJw7lg0-EX9DkRQ171CgR25iI", "plus_code": {"compound_code": "P3P7+Q3 Muslim Tola, Jharkhand, India", "global_code": "7MM8P3P7+Q3"}, "rating": 5, "reference": "ChIJw7lg0-EX9DkRQ171CgR25iI", "scope": "GOOGLE", "types": ["school", "point_of_interest", "establishment"], "user_ratings_total": 1, "vicinity": "Mango Panchayat, Muslim Tola"}], "status": "OK"}