{"html_attributions": [], "results": [{"business_status": "OPERATIONAL", "geometry": {"location": {"lat": 23.966713, "lng": 86.05910899999999}, "viewport": {"northeast": {"lat": 23.9680424802915, "lng": 86.0604765802915}, "southwest": {"lat": 23.96534451970849, "lng": 86.05777861970849}}}, "icon": "https://maps.gstatic.com/mapfiles/place_api/icons/v1/png_71/school-71.png", "icon_background_color": "#7B9EB0", "icon_mask_base_uri": "https://maps.gstatic.com/mapfiles/place_api/icons/v2/school_pinlet", "name": "DARUL ULOOM FAIZENE MUSTAFA BADKI TAND", "photos": [{"height": 956, "html_attributions": ["<a href=\"https://maps.google.com/maps/contrib/117191766108442331827\">Maksud Ansari</a>"], "photo_reference": "Aap_uECE9UQkVNn4o3IyP2saXJ1SdgmwkCNrXSa4buQ5QNX5tYTL7DwevW4oKafINzqHMQNkBneCuExS6IKEdA-Qtq7rWPDolqEERdIX3wzEx6zCjvaRmyhKJxLv2vCknE4sZAHE0FDpDa1gcIramElhdKaiAm9bIo1ukH5rUjjmVt4FqZb3", "width": 956}], "place_id": "ChIJyVs61uAP9DkRXghzOjwSdW0", "rating": 5, "reference": "ChIJyVs61uAP9DkRXghzOjwSdW0", "scope": "GOOGLE", "types": ["school", "point_of_interest", "establishment"], "user_ratings_total": 4, "vicinity": "X385+MJQ, Rangamati"}, {"business_status": "OPERATIONAL", "geometry": {"location": {"lat": 23.966697, "lng": 86.0590833}, "viewport": {"northeast": {"lat": 23.9680238802915, "lng": 86.06045338029149}, "southwest": {"lat": 23.96532591970849, "lng": 86.05775541970849}}}, "icon": "https://maps.gstatic.com/mapfiles/place_api/icons/v1/png_71/school-71.png", "icon_background_color": "#7B9EB0", "icon_mask_base_uri": "https://maps.gstatic.com/mapfiles/place_api/icons/v2/school_pinlet", "name": "Madarsa Faizan E Mustafa Barkitand", "place_id": "ChIJebLDlhsP9DkR__-dpCNbXc8", "plus_code": {"compound_code": "X385+MJ Rangamati, Jharkhand, India", "global_code": "7MM8X385+MJ"}, "rating": 5, "reference": "ChIJebLDlhsP9DkR__-dpCNbXc8", "scope": "GOOGLE", "types": ["school", "point_of_interest", "establishment"], "user_ratings_total": 1, "vicinity": "Rangamati"}, {"business_status": "OPERATIONAL", "geometry": {"location": {"lat": 23.9679118, "lng": 86.05869179999999}, "viewport": {"northeast": {"lat": 23.9691722802915, "lng": 86.0602878302915}, "southwest": {"lat": 23.9664743197085, "lng": 86.0575898697085}}}, "icon": "https://maps.gstatic.com/mapfiles/place_api/icons/v1/png_71/school-71.png", "icon_background_color": "#7B9EB0", "icon_mask_base_uri": "https://maps.gstatic.com/mapfiles/place_api/icons/v2/school_pinlet", "name": "Rangamati", "photos": [{"height": 581, "html_attributions": ["<a href=\"https://maps.google.com/maps/contrib/101068036628054159982\">Ramkishun verma</a>"], "photo_reference": "Aap_uEBId_42JIMUyvnIXZA-TgEn7859A1Hvrr5C8HRR9VWy54Vv3UtoF0rs2O-Wp65sasCv3RTXfR29oFEFaLquQ_KoJuc1jWfPEkWkwoUeim6EMu6WKga9OWp1QbEtpSuVQa7WossdHDhOIGKw7Ul0r8RWCqhBJSxR1sPdOvOB13OqJWIL", "width": 1032}], "place_id": "ChIJAQAA8BsP9DkR_8d-ScYoj80", "plus_code": {"compound_code": "X395+5F Rangamati, Jharkhand, India", "global_code": "7MM8X395+5F"}, "rating": 5, "reference": "ChIJAQAA8BsP9DkR_8d-ScYoj80", "scope": "GOOGLE", "types": ["school", "point_of_interest", "establishment"], "user_ratings_total": 1, "vicinity": "Rangamati"}, {"business_status": "OPERATIONAL", "geometry": {"location": {"lat": 23.965811, "lng": 86.0583628}, "viewport": {"northeast": {"lat": 23.9672058302915, "lng": 86.05967063029149}, "southwest": {"lat": 23.96450786970849, "lng": 86.05697266970849}}}, "icon": "https://maps.gstatic.com/mapfiles/place_api/icons/v1/png_71/school-71.png", "icon_background_color": "#7B9EB0", "icon_mask_base_uri": "https://maps.gstatic.com/mapfiles/place_api/icons/v2/school_pinlet", "name": "Upgraded Primary School Barkitand", "opening_hours": {"open_now": false}, "place_id": "ChIJr1uJgRsP9DkRZPhP3SFMyRU", "rating": 4, "reference": "ChIJr1uJgRsP9DkRZPhP3SFMyRU", "scope": "GOOGLE", "types": ["school", "point_of_interest", "establishment"], "user_ratings_total": 1, "vicinity": "X385+88H, Barkitand, Rangamati"}, {"business_status": "OPERATIONAL", "geometry": {"location": {"lat": 23.9634455, "lng": 86.0601686}, "viewport": {"northeast": {"lat": 23.9649580302915, "lng": 86.0616519302915}, "southwest": {"lat": 23.9622600697085, "lng": 86.05895396970848}}}, "icon": "https://maps.gstatic.com/mapfiles/place_api/icons/v1/png_71/school-71.png", "icon_background_color": "#7B9EB0", "icon_mask_base_uri": "https://maps.gstatic.com/mapfiles/place_api/icons/v2/school_pinlet", "name": "Infant modern school", "place_id": "ChIJwWbu5bcP9DkRUtDUwiecDdU", "plus_code": {"compound_code": "X376+93 Rangamati, Jharkhand, India", "global_code": "7MM8X376+93"}, "rating": 5, "reference": "ChIJwWbu5bcP9DkRUtDUwiecDdU", "scope": "GOOGLE", "types": ["school", "point_of_interest", "establishment"], "user_ratings_total": 1, "vicinity": "National Highway 19, Rangamati"}, {"business_status": "OPERATIONAL", "geometry": {"location": {"lat": 23.9657454, "lng": 86.058232}, "viewport": {"northeast": {"lat": 23.9671437802915, "lng": 86.0595555802915}, "southwest": {"lat": 23.9644458197085, "lng": 86.0568576197085}}}, "icon": "https://maps.gstatic.com/mapfiles/place_api/icons/v1/png_71/school-71.png", "icon_background_color": "#7B9EB0", "icon_mask_base_uri": "https://maps.gstatic.com/mapfiles/place_api/icons/v2/school_pinlet", "name": "School Badkitand", "photos": [{"height": 2220, "html_attributions": ["<a href=\"https://maps.google.com/maps/contrib/102880260852717176888\">Aynul Gameing videos</a>"], "photo_reference": "Aap_uEDYPIYyxEe3e-aLBjchsREld_rqXunL9F_vS_2E1cJO17oGwsrY0-ZikcIR-KTUlJ7t7C3StA3VCKi5k7jOz37w80D4zfxGSI0ir0q9zM-SXA3CKCQrw-sXWeck6qGQkeyhmP9HSRsE47ObHqoX9sERoa12TEvzEQJDjDKm9lHxp11m", "width": 1080}], "place_id": "ChIJtyOYVSQP9DkRHTYm-mrHUjM", "rating": 5, "reference": "ChIJtyOYVSQP9DkRHTYm-mrHUjM", "scope": "GOOGLE", "types": ["school", "point_of_interest", "establishment"], "user_ratings_total": 1, "vicinity": "X385+77X, badkitand"}, {"business_status": "OPERATIONAL", "geometry": {"location": {"lat": 23.9764533, "lng": 86.06297310000001}, "viewport": {"northeast": {"lat": 23.9777799802915, "lng": 86.0643948802915}, "southwest": {"lat": 23.97508201970849, "lng": 86.0616969197085}}}, "icon": "https://maps.gstatic.com/mapfiles/place_api/icons/v1/png_71/school-71.png", "icon_background_color": "#7B9EB0", "icon_mask_base_uri": "https://maps.gstatic.com/mapfiles/place_api/icons/v2/school_pinlet", "name": "NURI MASJID", "photos": [{"height": 720, "html_attributions": ["<a href=\"https://maps.google.com/maps/contrib/107933155734959226983\">Haidar Ansari</a>"], "photo_reference": "Aap_uEAKQNQQ_lNl10uY8Zo9s-Z_dCKGXZe9f82LztQk_e7eNzpChitxaEJMekswoA6htWQTu4lZo4SxMO3_-g84PRQs6mEEH5GzibSlAelLJJcfKP3AyWjsowBYo17RZlGAUTEQG4cOzJeiQDS3nAAkajZVt2FMsk2JBngRJZ9lL4eKaiF0", "width": 960}], "place_id": "ChIJ6YJH-RcP9DkR3cL1fjgSERg", "reference": "ChIJ6YJH-RcP9DkR3cL1fjgSERg", "scope": "GOOGLE", "types": ["school", "point_of_interest", "establishment"], "vicinity": "X3G7+H5Q, Lachmantura"}, {"business_status": "OPERATIONAL", "geometry": {"location": {"lat": 23.97715389999999, "lng": 86.0671192}, "viewport": {"northeast": {"lat": 23.9785498802915, "lng": 86.0683534802915}, "southwest": {"lat": 23.97585191970849, "lng": 86.0656555197085}}}, "icon": "https://maps.gstatic.com/mapfiles/place_api/icons/v1/png_71/school-71.png", "icon_background_color": "#7B9EB0", "icon_mask_base_uri": "https://maps.gstatic.com/mapfiles/place_api/icons/v2/school_pinlet", "name": "\u0909\u0924\u094d\u0915\u094d\u0930\u092e\u093f\u0924 \u092a\u094d\u0930\u093e\u0925\u092e\u093f\u0915 \u0935\u093f\u0926\u094d\u092f\u093e\u0932\u092f \u0928\u0926\u093f\u092f\u093e\u092a\u093e\u0930, \u0932\u0915\u094d\u0937\u094d\u092e\u0923 \u091f\u0941\u0902\u0921\u093e", "opening_hours": {"open_now": false}, "photos": [{"height": 3024, "html_attributions": ["<a href=\"https://maps.google.com/maps/contrib/117154200660414886919\">Anil K Saw</a>"], "photo_reference": "Aap_uECUCvZ6vzG_neBliPGmrMYkVj5McHHST9FTq6Ad-vf0QR-5rXVJRT-3-jGvihuAMBH1BK8qTa62NS_Sb-e-PvwUhdo_6ImAfnoyEuCaHbOcuHfk4LH9a3hfZZWoW98tFr81y1rKvc_zM0cGU1eltuQrqTUFbzaZNcztTPBo7cobqKkt", "width": 4032}], "place_id": "ChIJs6d0jEIP9DkRJ_XkIhcskVI", "rating": 5, "reference": "ChIJs6d0jEIP9DkRJ_XkIhcskVI", "scope": "GOOGLE", "types": ["primary_school", "school", "point_of_interest", "establishment"], "user_ratings_total": 1, "vicinity": "X3G8+VR9, Lachmantura"}, {"business_status": "OPERATIONAL", "geometry": {"location": {"lat": 23.9608605, "lng": 86.0605501}, "viewport": {"northeast": {"lat": 23.9622863302915, "lng": 86.0619435302915}, "southwest": {"lat": 23.9595883697085, "lng": 86.0592455697085}}}, "icon": "https://maps.gstatic.com/mapfiles/place_api/icons/v1/png_71/school-71.png", "icon_background_color": "#7B9EB0", "icon_mask_base_uri": "https://maps.gstatic.com/mapfiles/place_api/icons/v2/school_pinlet", "name": "UHS High School", "place_id": "ChIJF3VDx6EP9DkRbxa4wKIcqGg", "plus_code": {"compound_code": "X366+86 Khairatura, Jharkhand, India", "global_code": "7MM8X366+86"}, "reference": "ChIJF3VDx6EP9DkRbxa4wKIcqGg", "scope": "GOOGLE", "types": ["school", "point_of_interest", "establishment"], "vicinity": "National Highway 19, Khairatura"}, {"business_status": "OPERATIONAL", "geometry": {"location": {"lat": 23.9605578, "lng": 86.06069389999999}, "viewport": {"northeast": {"lat": 23.9618669802915, "lng": 86.0620410802915}, "southwest": {"lat": 23.9591690197085, "lng": 86.05934311970849}}}, "icon": "https://maps.gstatic.com/mapfiles/place_api/icons/v1/png_71/school-71.png", "icon_background_color": "#7B9EB0", "icon_mask_base_uri": "https://maps.gstatic.com/mapfiles/place_api/icons/v2/school_pinlet", "name": "Middle School, Roshnatunda", "photos": [{"height": 3120, "html_attributions": ["<a href=\"https://maps.google.com/maps/contrib/108447915925283644965\">For 0.2</a>"], "photo_reference": "Aap_uEDxTlZSfAkHWDBueVCI0K1ichChAXNDhAjHQ-nApBFz6dUNsUZYOJn4dEQP29gNiFTw4nWVCIRoR3LQ42S_X-FinInRGkcRr93oCJB6u1PJC28Ih7EOZS5y6sn3rpOAxD1W7fUiYeKmcLtzOrCZaBIUNEnJbLAjyLZ_-IUOKFKa7ogN", "width": 4160}], "place_id": "ChIJLVW6jlcP9DkREaSPPHQGerY", "plus_code": {"compound_code": "X366+67 Khairatura, Jharkhand, India", "global_code": "7MM8X366+67"}, "rating": 4, "reference": "ChIJLVW6jlcP9DkREaSPPHQGerY", "scope": "GOOGLE", "types": ["school", "point_of_interest", "establishment"], "user_ratings_total": 2, "vicinity": "Unnamed Road, Khairatura"}, {"business_status": "OPERATIONAL", "geometry": {"location": {"lat": 23.9593, "lng": 86.0674737}, "viewport": {"northeast": {"lat": 23.9605881802915, "lng": 86.06877248029151}, "southwest": {"lat": 23.9578902197085, "lng": 86.0660745197085}}}, "icon": "https://maps.gstatic.com/mapfiles/place_api/icons/v1/png_71/school-71.png", "icon_background_color": "#7B9EB0", "icon_mask_base_uri": "https://maps.gstatic.com/mapfiles/place_api/icons/v2/school_pinlet", "name": "Mahendra Cycle & Shoe Centre", "opening_hours": {"open_now": false}, "place_id": "ChIJvfy10aQP9DkRpgPYj9EgWmU", "plus_code": {"compound_code": "X358+PX Khairatura, Jharkhand, India", "global_code": "7MM8X358+PX"}, "rating": 5, "reference": "ChIJvfy10aQP9DkRpgPYj9EgWmU", "scope": "GOOGLE", "types": ["school", "point_of_interest", "establishment"], "user_ratings_total": 1, "vicinity": "National Highway 19, Khairatura"}, {"business_status": "OPERATIONAL", "geometry": {"location": {"lat": 23.9605698, "lng": 86.0604723}, "viewport": {"northeast": {"lat": 23.9618777802915, "lng": 86.06181918029151}, "southwest": {"lat": 23.9591798197085, "lng": 86.05912121970849}}}, "icon": "https://maps.gstatic.com/mapfiles/place_api/icons/v1/png_71/school-71.png", "icon_background_color": "#7B9EB0", "icon_mask_base_uri": "https://maps.gstatic.com/mapfiles/place_api/icons/v2/school_pinlet", "name": "Upgraded middle school khairatura", "place_id": "ChIJA39fNU0P9DkRCJXriImo5tI", "reference": "ChIJA39fNU0P9DkRCJXriImo5tI", "scope": "GOOGLE", "types": ["school", "point_of_interest", "establishment"], "vicinity": "X366+65H, Khairatura"}, {"business_status": "OPERATIONAL", "geometry": {"location": {"lat": 23.9720176, "lng": 86.05556519999999}, "viewport": {"northeast": {"lat": 23.9734052302915, "lng": 86.0566266802915}, "southwest": {"lat": 23.97070726970849, "lng": 86.05392871970848}}}, "icon": "https://maps.gstatic.com/mapfiles/place_api/icons/v1/png_71/school-71.png", "icon_background_color": "#7B9EB0", "icon_mask_base_uri": "https://maps.gstatic.com/mapfiles/place_api/icons/v2/school_pinlet", "name": "Markaz e Ahle Sunnat Darul Uloom Imam Ahmad Raza", "opening_hours": {"open_now": false}, "photos": [{"height": 2080, "html_attributions": ["<a href=\"https://maps.google.com/maps/contrib/114858670191382729494\">Md Gulam Nabi</a>"], "photo_reference": "Aap_uEDniJMvIlKBkvhBsiSrERuYioaekVeTxsyBTi1nxCLCGkTBB_WjJgYObvhEk7wFhGxXJiqYe7EmVv-mCV4a0TogMjgrqI0ITq-LRSxWmv4BF_B52bnrCurhbF4JMPwcFDPZpu2a_4WO897rcrgoT8pq2xuHsQcaMKWT2npQcSkDddpl", "width": 4160}], "place_id": "ChIJSwxCBx8P9DkRK-9g-01O608", "rating": 5, "reference": "ChIJSwxCBx8P9DkRK-9g-01O608", "scope": "GOOGLE", "types": ["school", "point_of_interest", "establishment"], "user_ratings_total": 5, "vicinity": "X3C4+R64, Lachmantura"}, {"business_status": "OPERATIONAL", "geometry": {"location": {"lat": 23.9749745, "lng": 86.0562408}, "viewport": {"northeast": {"lat": 23.9762564802915, "lng": 86.0577851802915}, "southwest": {"lat": 23.97355851970849, "lng": 86.0550872197085}}}, "icon": "https://maps.gstatic.com/mapfiles/place_api/icons/v1/png_71/school-71.png", "icon_background_color": "#7B9EB0", "icon_mask_base_uri": "https://maps.gstatic.com/mapfiles/place_api/icons/v2/school_pinlet", "name": "Jio mobile", "place_id": "ChIJjS_V0GEP9DkROYezcPIf2F8", "plus_code": {"compound_code": "X3F4+XF Lachmantura, Jharkhand, India", "global_code": "7MM8X3F4+XF"}, "reference": "ChIJjS_V0GEP9DkROYezcPIf2F8", "scope": "GOOGLE", "types": ["school", "point_of_interest", "establishment"], "vicinity": "Laxmantunda Qabristan, Lachmantura"}, {"business_status": "OPERATIONAL", "geometry": {"location": {"lat": 23.9798178, "lng": 86.0639066}, "viewport": {"northeast": {"lat": 23.9812457802915, "lng": 86.06512433029151}, "southwest": {"lat": 23.9785478197085, "lng": 86.06242636970849}}}, "icon": "https://maps.gstatic.com/mapfiles/place_api/icons/v1/png_71/school-71.png", "icon_background_color": "#7B9EB0", "icon_mask_base_uri": "https://maps.gstatic.com/mapfiles/place_api/icons/v2/school_pinlet", "name": "UMS teliya tunda", "place_id": "ChIJNX6ypvAP9DkR172TY4KcU4w", "rating": 2, "reference": "ChIJNX6ypvAP9DkR172TY4KcU4w", "scope": "GOOGLE", "types": ["school", "point_of_interest", "establishment"], "user_ratings_total": 2, "vicinity": "X3H7+WHF, Teliatura"}, {"business_status": "OPERATIONAL", "geometry": {"location": {"lat": 23.9798416, "lng": 86.0639222}, "viewport": {"northeast": {"lat": 23.9812693302915, "lng": 86.0651405302915}, "southwest": {"lat": 23.9785713697085, "lng": 86.0624425697085}}}, "icon": "https://maps.gstatic.com/mapfiles/place_api/icons/v1/png_71/school-71.png", "icon_background_color": "#7B9EB0", "icon_mask_base_uri": "https://maps.gstatic.com/mapfiles/place_api/icons/v2/school_pinlet", "name": "Upgraded Middle School Teliatunda", "opening_hours": {"open_now": false}, "place_id": "ChIJYYDdujwP9DkR9MxUCT1XHwo", "rating": 3.3, "reference": "ChIJYYDdujwP9DkR9MxUCT1XHwo", "scope": "GOOGLE", "types": ["school", "point_of_interest", "establishment"], "user_ratings_total": 3, "vicinity": "X3H7+WHM, Teliatura"}, {"business_status": "OPERATIONAL", "geometry": {"location": {"lat": 23.9785382, "lng": 86.0595517}, "viewport": {"northeast": {"lat": 23.9798577802915, "lng": 86.0608883302915}, "southwest": {"lat": 23.9771598197085, "lng": 86.0581903697085}}}, "icon": "https://maps.gstatic.com/mapfiles/place_api/icons/v1/png_71/school-71.png", "icon_background_color": "#7B9EB0", "icon_mask_base_uri": "https://maps.gstatic.com/mapfiles/place_api/icons/v2/school_pinlet", "name": "Shishu niketan public school", "place_id": "ChIJoQeCH0sP9DkRxnxBy79a6h8", "plus_code": {"compound_code": "X3H5+CR Lachmantura, Jharkhand, India", "global_code": "7MM8X3H5+CR"}, "reference": "ChIJoQeCH0sP9DkRxnxBy79a6h8", "scope": "GOOGLE", "types": ["school", "point_of_interest", "establishment"], "vicinity": "Lachmantura"}, {"business_status": "CLOSED_TEMPORARILY", "geometry": {"location": {"lat": 23.9791439, "lng": 86.0584365}, "viewport": {"northeast": {"lat": 23.9804977302915, "lng": 86.0598349302915}, "southwest": {"lat": 23.9777997697085, "lng": 86.0571369697085}}}, "icon": "https://maps.gstatic.com/mapfiles/place_api/icons/v1/png_71/school-71.png", "icon_background_color": "#7B9EB0", "icon_mask_base_uri": "https://maps.gstatic.com/mapfiles/place_api/icons/v2/school_pinlet", "name": "UPGRADED MIDDLE SCHOOL LAXMANTUNDA", "permanently_closed": true, "photos": [{"height": 1200, "html_attributions": ["<a href=\"https://maps.google.com/maps/contrib/105051615923924622390\">Md Ali Ahmad</a>"], "photo_reference": "Aap_uEA3VjpxF5A7sc2xp3xVzWaYPX9VFwq2cA5bb1ZQ8pNC5P1tFvbXXPQ5fDwF0QCCAWpHO0MnjfLcPSwX3zIqHwratiUbQCUPD8yDRC-3XUfZb5gCsltw0YxSzlPjboGBQQkVfimaMsMQOMeAInsDZLtbHlNA-h6s77PSFl3NE5Ygsuc6", "width": 1600}], "place_id": "ChIJsVmf4CMP9DkRHP0z1hsyRyw", "plus_code": {"compound_code": "X3H5+M9 Lachmantura, Jharkhand, India", "global_code": "7MM8X3H5+M9"}, "rating": 4.9, "reference": "ChIJsVmf4CMP9DkRHP0z1hsyRyw", "scope": "GOOGLE", "types": ["school", "point_of_interest", "establishment"], "user_ratings_total": 8, "vicinity": "Laxmantunda Qabristan, Lachmantura"}], "status": "OK"}