{"html_attributions": [], "results": [{"business_status": "OPERATIONAL", "geometry": {"location": {"lat": 23.59615299999999, "lng": 86.08780469999999}, "viewport": {"northeast": {"lat": 23.5975310302915, "lng": 86.08911323029149}, "southwest": {"lat": 23.59483306970849, "lng": 86.08641526970848}}}, "icon": "https://maps.gstatic.com/mapfiles/place_api/icons/v1/png_71/school-71.png", "icon_background_color": "#7B9EB0", "icon_mask_base_uri": "https://maps.gstatic.com/mapfiles/place_api/icons/v2/school_pinlet", "name": "Madhyamik School Radhanagar", "place_id": "ChIJmxkK7vQ79DkRq56c1UOeFl8", "rating": 4, "reference": "ChIJmxkK7vQ79DkRq56c1UOeFl8", "scope": "GOOGLE", "types": ["school", "point_of_interest", "establishment"], "user_ratings_total": 1, "vicinity": "H3WQ+F47, Radhagaon"}, {"business_status": "OPERATIONAL", "geometry": {"location": {"lat": 23.5902108, "lng": 86.0941689}, "viewport": {"northeast": {"lat": 23.5915074302915, "lng": 86.09549513029151}, "southwest": {"lat": 23.58880946970849, "lng": 86.0927971697085}}}, "icon": "https://maps.gstatic.com/mapfiles/place_api/icons/v1/png_71/school-71.png", "icon_background_color": "#7B9EB0", "icon_mask_base_uri": "https://maps.gstatic.com/mapfiles/place_api/icons/v2/school_pinlet", "name": "Primary School", "photos": [{"height": 1836, "html_attributions": ["<a href=\"https://maps.google.com/maps/contrib/102864513402995638465\">/ Subhash Hansda /</a>"], "photo_reference": "Aap_uEDwDx0yZDW7USeAPaebCZvHXyB_2OYniwjV7Mi9gKI-HeQ7Hn1lxLtMSDEEqyJzk_JcRkMiFF1NhI64Hb5xno65Gc9iP7Lj_p3wX2ri2eMwNX_vfes5dyEUpI69qzUOvrexGvu1crFNF5mc5Bj33-yxlaNqr08tc4dJCv9GZZK5wNwE", "width": 3264}], "place_id": "ChIJQTraT8sk9DkRXwwzQ5X2bP0", "plus_code": {"compound_code": "H3RV+3M Ghatiali, India", "global_code": "7MM8H3RV+3M"}, "rating": 3.5, "reference": "ChIJQTraT8sk9DkRXwwzQ5X2bP0", "scope": "GOOGLE", "types": ["school", "point_of_interest", "establishment"], "user_ratings_total": 4, "vicinity": "Mandladih, Ghatiali"}, {"business_status": "OPERATIONAL", "geometry": {"location": {"lat": 23.5940616, "lng": 86.0969514}, "viewport": {"northeast": {"lat": 23.5953372802915, "lng": 86.0982220802915}, "southwest": {"lat": 23.5926393197085, "lng": 86.0955241197085}}}, "icon": "https://maps.gstatic.com/mapfiles/place_api/icons/v1/png_71/school-71.png", "icon_background_color": "#7B9EB0", "icon_mask_base_uri": "https://maps.gstatic.com/mapfiles/place_api/icons/v2/school_pinlet", "name": "Floral Public School", "place_id": "ChIJlfZxaMok9DkRind7XNcU2XY", "reference": "ChIJlfZxaMok9DkRind7XNcU2XY", "scope": "GOOGLE", "types": ["school", "point_of_interest", "establishment"], "vicinity": "H3VW+JQG, Ghatiali"}, {"business_status": "OPERATIONAL", "geometry": {"location": {"lat": 23.5886483, "lng": 86.0984386}, "viewport": {"northeast": {"lat": 23.5899498802915, "lng": 86.0997514802915}, "southwest": {"lat": 23.5872519197085, "lng": 86.0970535197085}}}, "icon": "https://maps.gstatic.com/mapfiles/place_api/icons/v1/png_71/school-71.png", "icon_background_color": "#7B9EB0", "icon_mask_base_uri": "https://maps.gstatic.com/mapfiles/place_api/icons/v2/school_pinlet", "name": "Anul Genral Stor Mohandih", "photos": [{"height": 1080, "html_attributions": ["<a href=\"https://maps.google.com/maps/contrib/111800633756975599687\">The Akhtar film</a>"], "photo_reference": "Aap_uEC1OznkHXDWqpYgapi_G2ccTP7tLsX9xa4GDGiQrNFHm2t9YtRn5nQHUErI6oCaXIaodCp_W7ShLyYjNym1K2q4_FW9s7nM_7pkgJ-DovEGoLozPyoRE9hyHM6-2FFjtXrAjUOKRfO3wq3b-yMDnzX1WioSieLUUMqj1Qeg5HA9jAM", "width": 1920}], "place_id": "ChIJbxDKJucl9DkRb07QBOTx9u8", "reference": "ChIJbxDKJucl9DkRb07QBOTx9u8", "scope": "GOOGLE", "types": ["school", "point_of_interest", "establishment"], "vicinity": "H3QX+F94, Radhagaon"}, {"business_status": "OPERATIONAL", "geometry": {"location": {"lat": 23.5886152, "lng": 86.0988091}, "viewport": {"northeast": {"lat": 23.5899857802915, "lng": 86.1000654802915}, "southwest": {"lat": 23.5872878197085, "lng": 86.0973675197085}}}, "icon": "https://maps.gstatic.com/mapfiles/place_api/icons/v1/png_71/school-71.png", "icon_background_color": "#7B9EB0", "icon_mask_base_uri": "https://maps.gstatic.com/mapfiles/place_api/icons/v2/school_pinlet", "name": "Aganwadi Mohandih Muslim Tola 2", "opening_hours": {"open_now": false}, "place_id": "ChIJu4VPkf4l9DkRGENOHsh2uEQ", "plus_code": {"compound_code": "H3QX+CG Bokaro Steel City, Jharkhand, India", "global_code": "7MM8H3QX+CG"}, "reference": "ChIJu4VPkf4l9DkRGENOHsh2uEQ", "scope": "GOOGLE", "types": ["school", "point_of_interest", "establishment"], "vicinity": "Mohandih, Bokaro Steel City"}, {"business_status": "OPERATIONAL", "geometry": {"location": {"lat": 23.5886011, "lng": 86.0988225}, "viewport": {"northeast": {"lat": 23.5899735802915, "lng": 86.10007073029149}, "southwest": {"lat": 23.5872756197085, "lng": 86.09737276970849}}}, "icon": "https://maps.gstatic.com/mapfiles/place_api/icons/v1/png_71/school-71.png", "icon_background_color": "#7B9EB0", "icon_mask_base_uri": "https://maps.gstatic.com/mapfiles/place_api/icons/v2/school_pinlet", "name": "UMS Mohandih", "photos": [{"height": 4128, "html_attributions": ["<a href=\"https://maps.google.com/maps/contrib/110417532065776034698\">Shakil Aryan</a>"], "photo_reference": "Aap_uEBAwgxMUcKSyRjiP6oCJ4kNiX-szfIY_V_7BjjFPnR1H_50AfmilIJy-OI1iNDh494zTwovKiVvEoU9ZdT287Q7tPmkEExvHBtzI_VVpw9z74JReZRJbA93Meua_C_a1IOHYOw9WJOjxsQxIi4ITUxt3ysZ_FVtA1A8CdsfWQUJYdHV", "width": 2322}], "place_id": "ChIJlRKAHcwk9DkRzyqcFJwGhJk", "rating": 4.2, "reference": "ChIJlRKAHcwk9DkRzyqcFJwGhJk", "scope": "GOOGLE", "types": ["school", "point_of_interest", "establishment"], "user_ratings_total": 9, "vicinity": "H3QX+CGW, Ghatiali"}, {"business_status": "OPERATIONAL", "geometry": {"location": {"lat": 23.591438, "lng": 86.0994241}, "viewport": {"northeast": {"lat": 23.5927356302915, "lng": 86.1008489302915}, "southwest": {"lat": 23.5900376697085, "lng": 86.09815096970848}}}, "icon": "https://maps.gstatic.com/mapfiles/place_api/icons/v1/png_71/school-71.png", "icon_background_color": "#7B9EB0", "icon_mask_base_uri": "https://maps.gstatic.com/mapfiles/place_api/icons/v2/school_pinlet", "name": "Aganwadi Muslim mohalla -2 ,code- 285", "opening_hours": {"open_now": false}, "photos": [{"height": 1970, "html_attributions": ["<a href=\"https://maps.google.com/maps/contrib/101715096964892620507\">ShahidVeNoN</a>"], "photo_reference": "Aap_uEBPsDv_ZB8V9AQCtWSmsbjyr6wB49DjJIdY4yuqhPn9pxLGxl7xa9qYhQLiomcRjEFt3-yaPZVbA9qXJo4l-hAuWt1RK8FdWzWhTWeJIGxaLrJE4FQ6_lUUmI8iSrrI-azVFZvTwlhrASv5r25Wcv3yTn4g2redC9RTUy2wX1VaoWRi", "width": 4160}], "place_id": "ChIJqQstEuYl9DkRAbHxb63h2GM", "reference": "ChIJqQstEuYl9DkRAbHxb63h2GM", "scope": "GOOGLE", "types": ["school", "point_of_interest", "establishment"], "vicinity": "H3RX+HQF, Ghatiali"}], "status": "OK"}