{"html_attributions": [], "results": [{"business_status": "OPERATIONAL", "geometry": {"location": {"lat": 23.787514, "lng": 86.08067299999999}, "viewport": {"northeast": {"lat": 23.7891852302915, "lng": 86.0821119302915}, "southwest": {"lat": 23.7864872697085, "lng": 86.07941396970848}}}, "icon": "https://maps.gstatic.com/mapfiles/place_api/icons/v1/png_71/school-71.png", "icon_background_color": "#7B9EB0", "icon_mask_base_uri": "https://maps.gstatic.com/mapfiles/place_api/icons/v2/school_pinlet", "name": "Sara World School", "opening_hours": {"open_now": false}, "photos": [{"height": 558, "html_attributions": ["<a href=\"https://maps.google.com/maps/contrib/106240974124581100970\">Sara World School</a>"], "photo_reference": "Aap_uECuC6n5rBIJ2yLPqMdMRp_7s6temSDplUFNq-Gl5Td-CG8cwdTyeqdgWBz-iUMoMvtqPE8LQLv1wENqVcLPs-RhYtYT7UAMKoID4wpRnB55Wthaj1pLPCtEWTSE2_tUVfCzMmahzzlouEhBZSKkw8xF4iQTKemYF-1C9HspD8o0mSNU", "width": 1280}], "place_id": "ChIJTb7UUEIX9DkR_8r5-XBSGx8", "plus_code": {"compound_code": "Q3QJ+27 Alargo, Jharkhand, India", "global_code": "7MM8Q3QJ+27"}, "rating": 4.5, "reference": "ChIJTb7UUEIX9DkR_8r5-XBSGx8", "scope": "GOOGLE", "types": ["school", "point_of_interest", "establishment"], "user_ratings_total": 11, "vicinity": "Pipradih, Alargo"}, {"business_status": "OPERATIONAL", "geometry": {"location": {"lat": 23.7857581, "lng": 86.094236}, "viewport": {"northeast": {"lat": 23.7871389802915, "lng": 86.0952967302915}, "southwest": {"lat": 23.7844410197085, "lng": 86.09259876970849}}}, "icon": "https://maps.gstatic.com/mapfiles/place_api/icons/v1/png_71/school-71.png", "icon_background_color": "#7B9EB0", "icon_mask_base_uri": "https://maps.gstatic.com/mapfiles/place_api/icons/v2/school_pinlet", "name": "S.R.INTERNATIONAL ACADEMY", "photos": [{"height": 1534, "html_attributions": ["<a href=\"https://maps.google.com/maps/contrib/108741637235873146923\">nirmal mahto</a>"], "photo_reference": "Aap_uEBZm4t8fILGHdifVaJMxpG4QLdhl9jUQlOdQhRi01pFpVSyzajbaAPIQCLbOl9wVeE4-RreHtr9K08ssgImFtaUsMJCFAA_JfK8F75tPnPefoc_vyB-lAfiWJ64erT6PpxQ2i2nfLJphP4emMvkEidHSS2Tqs9D7d1ED0p8PTz10zDs", "width": 2592}], "place_id": "ChIJlRZGAOAZ9DkRs09r5mPjtlU", "plus_code": {"compound_code": "Q3PV+8M Chandrapura, Jharkhand, India", "global_code": "7MM8Q3PV+8M"}, "rating": 3.8, "reference": "ChIJlRZGAOAZ9DkRs09r5mPjtlU", "scope": "GOOGLE", "types": ["school", "point_of_interest", "establishment"], "user_ratings_total": 8, "vicinity": "At, Narra Road, P.S, Chandrapura"}, {"business_status": "OPERATIONAL", "geometry": {"location": {"lat": 23.7980144, "lng": 86.08415819999999}, "viewport": {"northeast": {"lat": 23.7993850302915, "lng": 86.0854501802915}, "southwest": {"lat": 23.7966870697085, "lng": 86.08275221970848}}}, "icon": "https://maps.gstatic.com/mapfiles/place_api/icons/v1/png_71/school-71.png", "icon_background_color": "#7B9EB0", "icon_mask_base_uri": "https://maps.gstatic.com/mapfiles/place_api/icons/v2/school_pinlet", "name": "Nasia School", "photos": [{"height": 3120, "html_attributions": ["<a href=\"https://maps.google.com/maps/contrib/112683455152360861819\">Dinesh kumar</a>"], "photo_reference": "Aap_uEB865BHmjh5UW0mAFRhEBIs_DA_vlZF1w2cAUbdR8N2uvLbMFvmupbP1zB9dyRsKNqVtN_4WJC8TO5OGPI88ct-y3rg67e8z421R-W2rcxh1627_bgHB8RifpUQMsdq30lcQegC4QGufT3j_XH8XNSJbl1PlwSkJQS2bBUfLdT0Xdf8", "width": 4160}], "place_id": "ChIJFy2HGlAX9DkR8yvm5ss5a3k", "reference": "ChIJFy2HGlAX9DkR8yvm5ss5a3k", "scope": "GOOGLE", "types": ["school", "point_of_interest", "establishment"], "vicinity": "Q3XM+6M3, Nasia"}, {"business_status": "OPERATIONAL", "geometry": {"location": {"lat": 23.7981791, "lng": 86.08436809999999}, "viewport": {"northeast": {"lat": 23.7995715802915, "lng": 86.0856023302915}, "southwest": {"lat": 23.7968736197085, "lng": 86.08290436970849}}}, "icon": "https://maps.gstatic.com/mapfiles/place_api/icons/v1/png_71/school-71.png", "icon_background_color": "#7B9EB0", "icon_mask_base_uri": "https://maps.gstatic.com/mapfiles/place_api/icons/v2/school_pinlet", "name": "UPS", "place_id": "ChIJ_aovEVAX9DkRWbfrhfKFedE", "rating": 3.5, "reference": "ChIJ_aovEVAX9DkRWbfrhfKFedE", "scope": "GOOGLE", "types": ["school", "point_of_interest", "establishment"], "user_ratings_total": 2, "vicinity": "Q3XM+7PH, Nasia"}, {"business_status": "OPERATIONAL", "geometry": {"location": {"lat": 23.7848628, "lng": 86.0954383}, "viewport": {"northeast": {"lat": 23.7862679802915, "lng": 86.0966967302915}, "southwest": {"lat": 23.7835700197085, "lng": 86.09399876970849}}}, "icon": "https://maps.gstatic.com/mapfiles/place_api/icons/v1/png_71/school-71.png", "icon_background_color": "#7B9EB0", "icon_mask_base_uri": "https://maps.gstatic.com/mapfiles/place_api/icons/v2/school_pinlet", "name": "NEW ELEMENTARY SCHOOL, HARLATAND", "photos": [{"height": 1944, "html_attributions": ["<a href=\"https://maps.google.com/maps/contrib/108741637235873146923\">nirmal mahto</a>"], "photo_reference": "Aap_uEAdver0ve3yGS_JZlcLeqitsuWp5ubcbLYZcxI4uLJCjJ-RCsMLcIehSw0XrVHW43fiSSQZ1lW0IMntyLdGDZeY2UG8z0VArnGsxjW1t5iJgAPi3Pnmk6zms3yo_DngD1Gsd8PbERId1HxPLSiAIxBnsGXcS5a994uVztY654nPPH9Q", "width": 2592}], "place_id": "ChIJLUGA_gEZ9DkR8J8d7YgPZFc", "plus_code": {"compound_code": "Q3MW+W5 Narra, Jharkhand, India", "global_code": "7MM8Q3MW+W5"}, "reference": "ChIJLUGA_gEZ9DkR8J8d7YgPZFc", "scope": "GOOGLE", "types": ["school", "point_of_interest", "establishment"], "vicinity": "Unnamed Road, Narra"}, {"business_status": "OPERATIONAL", "geometry": {"location": {"lat": 23.797449, "lng": 86.09214419999999}, "viewport": {"northeast": {"lat": 23.7987097302915, "lng": 86.0934654302915}, "southwest": {"lat": 23.7960117697085, "lng": 86.0907674697085}}}, "icon": "https://maps.gstatic.com/mapfiles/place_api/icons/v1/png_71/school-71.png", "icon_background_color": "#7B9EB0", "icon_mask_base_uri": "https://maps.gstatic.com/mapfiles/place_api/icons/v2/school_pinlet", "name": "Siv Mandir", "place_id": "ChIJi7UpilcX9DkRf4QaUejNrTg", "reference": "ChIJi7UpilcX9DkRf4QaUejNrTg", "scope": "GOOGLE", "types": ["school", "point_of_interest", "establishment"], "vicinity": "Q3WR+XVC, Fatehpur"}, {"business_status": "OPERATIONAL", "geometry": {"location": {"lat": 23.7836114, "lng": 86.0981319}, "viewport": {"northeast": {"lat": 23.7851991302915, "lng": 86.0995958802915}, "southwest": {"lat": 23.7825011697085, "lng": 86.09689791970848}}}, "icon": "https://maps.gstatic.com/mapfiles/place_api/icons/v1/png_71/school-71.png", "icon_background_color": "#7B9EB0", "icon_mask_base_uri": "https://maps.gstatic.com/mapfiles/place_api/icons/v2/school_pinlet", "name": "Inter Science College,Madanpur Chandrapura", "place_id": "ChIJV91Y6UYZ9DkRLGA5tpyED34", "reference": "ChIJV91Y6UYZ9DkRLGA5tpyED34", "scope": "GOOGLE", "types": ["school", "point_of_interest", "establishment"], "vicinity": "Q3MX+C7R, Narra"}], "status": "OK"}