{"html_attributions": [], "next_page_token": "Aap_uEAjEvH8VfuPp-Erwgt0wgvkUEbzm6HLOafkw7v5YXL2nNNg2umICO_l3fGnNbGZcwK31xxl7DmFC5iecPipv-5t3Hxsv5gfEf1gkS9jAPTVUN3lhTGwcjUFBR8hJHxb_e5fckevrDjFt_6eRritZkd0F53URAmgepn8NcHFUavjBhzOMmhSzpsaYaKFPYAxFToqcHCCtSO33i-hk0iIc84m20advpfpJ-BSRtAnzEHtCeq-Zkr7_PlvIj5DJkgvpCNRlPZA0_7lNNxopq-60IOry9IU9malWRmfrYVmb8YDSPszGdwxI47Jq2I4oHMz3EkCRsh6TkqY4niG6_tCpvg7j2Phqc_vFUZTH6v6weVAONXY_9Fk_-D8-wCCUmt6epX2IrJ6DyFeMtVUEoXzPb_8TVcL1CrHZFqPRaeXP7gvOTeggcw", "results": [{"business_status": "OPERATIONAL", "geometry": {"location": {"lat": 23.6398932, "lng": 86.1024338}, "viewport": {"northeast": {"lat": 23.64125363029151, "lng": 86.1037504302915}, "southwest": {"lat": 23.6385556697085, "lng": 86.10105246970849}}}, "icon": "https://maps.gstatic.com/mapfiles/place_api/icons/v1/png_71/school-71.png", "icon_background_color": "#7B9EB0", "icon_mask_base_uri": "https://maps.gstatic.com/mapfiles/place_api/icons/v2/school_pinlet", "name": "Global Computer Education", "opening_hours": {"open_now": false}, "place_id": "ChIJP5dF9Egj9DkRIjg-pxPqwXo", "rating": 3, "reference": "ChIJP5dF9Egj9DkRIjg-pxPqwXo", "scope": "GOOGLE", "types": ["school", "point_of_interest", "establishment"], "user_ratings_total": 2, "vicinity": "J4Q2+XX3, Dumro, Siwandih, Bokaro Steel City"}, {"business_status": "OPERATIONAL", "geometry": {"location": {"lat": 23.6377377, "lng": 86.10637799999999}, "viewport": {"northeast": {"lat": 23.6390625802915, "lng": 86.1077218802915}, "southwest": {"lat": 23.63636461970849, "lng": 86.10502391970849}}}, "icon": "https://maps.gstatic.com/mapfiles/place_api/icons/v1/png_71/school-71.png", "icon_background_color": "#7B9EB0", "icon_mask_base_uri": "https://maps.gstatic.com/mapfiles/place_api/icons/v2/school_pinlet", "name": "Anganwadi Centre", "place_id": "ChIJb1u-fUYj9DkRTVOGoh12y7I", "reference": "ChIJb1u-fUYj9DkRTVOGoh12y7I", "scope": "GOOGLE", "types": ["school", "point_of_interest", "establishment"], "vicinity": "J4Q4+3HR, Dumro, Siwandih, Bokaro Steel City"}, {"business_status": "OPERATIONAL", "geometry": {"location": {"lat": 23.6477659, "lng": 86.1187667}, "viewport": {"northeast": {"lat": 23.6491128302915, "lng": 86.1201221802915}, "southwest": {"lat": 23.64641486970849, "lng": 86.11742421970848}}}, "icon": "https://maps.gstatic.com/mapfiles/place_api/icons/v1/png_71/school-71.png", "icon_background_color": "#7B9EB0", "icon_mask_base_uri": "https://maps.gstatic.com/mapfiles/place_api/icons/v2/school_pinlet", "name": "ARS Public School", "opening_hours": {"open_now": false}, "photos": [{"height": 854, "html_attributions": ["<a href=\"https://maps.google.com/maps/contrib/112368988229831322737\">Vaibhav Kumar</a>"], "photo_reference": "Aap_uEDU30wwX1wBlyyLSPNRJgRsniCQVdJhTkZ4CdAYHpLjQKr55THoDXsvl6nEu-5_8xX0LteEd5N_Z2Au059X-vvgVVBnwEVrcQW_VbXvfFuzqnzC-x2iAvmVTih99CCZ7fSSoh4e84kGyRMrGrwTJefqsdc2fmpaZrtj1_vR4cHk6C8", "width": 1280}], "place_id": "ChIJ6UgXcxQj9DkRhNSUq-eGLM8", "plus_code": {"compound_code": "J4X9+4G Bokaro Steel City, Jharkhand, India", "global_code": "7MM8J4X9+4G"}, "rating": 4, "reference": "ChIJ6UgXcxQj9DkRhNSUq-eGLM8", "scope": "GOOGLE", "types": ["school", "point_of_interest", "establishment"], "user_ratings_total": 73, "vicinity": "BSL LH, Lakda Khanda, Bokaro Steel City"}, {"business_status": "OPERATIONAL", "geometry": {"location": {"lat": 23.6488092, "lng": 86.1059475}, "viewport": {"northeast": {"lat": 23.6499750802915, "lng": 86.10692668029151}, "southwest": {"lat": 23.6472771197085, "lng": 86.1042287197085}}}, "icon": "https://maps.gstatic.com/mapfiles/place_api/icons/v1/png_71/school-71.png", "icon_background_color": "#7B9EB0", "icon_mask_base_uri": "https://maps.gstatic.com/mapfiles/place_api/icons/v2/school_pinlet", "name": "New science school", "place_id": "ChIJj_Zvhjkj9DkRxDq1PFt29hY", "plus_code": {"compound_code": "J4X4+G9 Bokaro Steel City, Jharkhand, India", "global_code": "7MM8J4X4+G9"}, "rating": 5, "reference": "ChIJj_Zvhjkj9DkRxDq1PFt29hY", "scope": "GOOGLE", "types": ["school", "point_of_interest", "establishment"], "user_ratings_total": 2, "vicinity": "Kunwar Singh Colony chas, Azad Nager, Bokaro Steel City"}, {"business_status": "OPERATIONAL", "geometry": {"location": {"lat": 23.6485985, "lng": 86.10665259999999}, "viewport": {"northeast": {"lat": 23.6504088302915, "lng": 86.1081937802915}, "southwest": {"lat": 23.6477108697085, "lng": 86.1054958197085}}}, "icon": "https://maps.gstatic.com/mapfiles/place_api/icons/v1/png_71/school-71.png", "icon_background_color": "#7B9EB0", "icon_mask_base_uri": "https://maps.gstatic.com/mapfiles/place_api/icons/v2/school_pinlet", "name": "Viswakerma Field, School", "opening_hours": {"open_now": false}, "place_id": "ChIJVQ4HeTkj9DkRkADPo0FcM2c", "reference": "ChIJVQ4HeTkj9DkRkADPo0FcM2c", "scope": "GOOGLE", "types": ["school", "point_of_interest", "establishment"], "vicinity": "J4X4+CMJ, Azad Nager, Bokaro Steel City"}, {"business_status": "OPERATIONAL", "geometry": {"location": {"lat": 23.6474708, "lng": 86.1044579}, "viewport": {"northeast": {"lat": 23.6487993302915, "lng": 86.1057975802915}, "southwest": {"lat": 23.6461013697085, "lng": 86.10309961970849}}}, "icon": "https://maps.gstatic.com/mapfiles/place_api/icons/v1/png_71/school-71.png", "icon_background_color": "#7B9EB0", "icon_mask_base_uri": "https://maps.gstatic.com/mapfiles/place_api/icons/v2/school_pinlet", "name": "Ravi sir classes", "place_id": "ChIJKWts3W0j9DkRFEkpap03wis", "reference": "ChIJKWts3W0j9DkRFEkpap03wis", "scope": "GOOGLE", "types": ["secondary_school", "school", "point_of_interest", "establishment"], "vicinity": "J4W3+XQP, Azad Nager, Bokaro Steel City"}, {"business_status": "OPERATIONAL", "geometry": {"location": {"lat": 23.6490214, "lng": 86.1084966}, "viewport": {"northeast": {"lat": 23.6503193802915, "lng": 86.1098126302915}, "southwest": {"lat": 23.6476214197085, "lng": 86.10711466970848}}}, "icon": "https://maps.gstatic.com/mapfiles/place_api/icons/v1/png_71/school-71.png", "icon_background_color": "#7B9EB0", "icon_mask_base_uri": "https://maps.gstatic.com/mapfiles/place_api/icons/v2/school_pinlet", "name": "Vishwakarma School", "place_id": "ChIJ06j8MtAj9DkRdRJG9BcP2-4", "rating": 5, "reference": "ChIJ06j8MtAj9DkRdRJG9BcP2-4", "scope": "GOOGLE", "types": ["school", "point_of_interest", "establishment"], "user_ratings_total": 1, "vicinity": "J4X5+J95, Jhopari Colony, Ritudih, Bokaro Steel City"}, {"business_status": "OPERATIONAL", "geometry": {"location": {"lat": 23.6489403, "lng": 86.1087383}, "viewport": {"northeast": {"lat": 23.6502197802915, "lng": 86.1100424302915}, "southwest": {"lat": 23.6475218197085, "lng": 86.1073444697085}}}, "icon": "https://maps.gstatic.com/mapfiles/place_api/icons/v1/png_71/school-71.png", "icon_background_color": "#7B9EB0", "icon_mask_base_uri": "https://maps.gstatic.com/mapfiles/place_api/icons/v2/school_pinlet", "name": "Vishwa Karma High School T.O.P more", "opening_hours": {"open_now": false}, "place_id": "ChIJ8b08VDkj9DkRg7CCQWT1zoE", "rating": 2, "reference": "ChIJ8b08VDkj9DkRg7CCQWT1zoE", "scope": "GOOGLE", "types": ["school", "point_of_interest", "establishment"], "user_ratings_total": 2, "vicinity": "J4X5+HFH, Jhopari Colony, Ritudih, Bokaro Steel City"}, {"business_status": "OPERATIONAL", "geometry": {"location": {"lat": 23.6511362, "lng": 86.1042279}, "viewport": {"northeast": {"lat": 23.6525480802915, "lng": 86.1056276802915}, "southwest": {"lat": 23.6498501197085, "lng": 86.1029297197085}}}, "icon": "https://maps.gstatic.com/mapfiles/place_api/icons/v1/png_71/school-71.png", "icon_background_color": "#7B9EB0", "icon_mask_base_uri": "https://maps.gstatic.com/mapfiles/place_api/icons/v2/school_pinlet", "name": "M S Vidhyalay", "photos": [{"height": 1920, "html_attributions": ["<a href=\"https://maps.google.com/maps/contrib/107167645771983804818\">Hindustani Ankit</a>"], "photo_reference": "Aap_uEDF3InQJ-7i3aFpGy67yJRiENrpFifiESIsfYXeMv4uZ230oV-dHv-NSHoRRt_93yChiLydutfUy6T3HtoozwEepsy68EmC7oI-yrfZBixNhNFNme2SgltZzn6who8i2dfi2jd4Jg5Ynag_foN0gBA_kt6meHAft4Jl04a8IBsftUQ", "width": 1080}], "place_id": "ChIJS_Qqdzoj9DkRDK1zOBXo1yQ", "rating": 4.3, "reference": "ChIJS_Qqdzoj9DkRDK1zOBXo1yQ", "scope": "GOOGLE", "types": ["school", "point_of_interest", "establishment"], "user_ratings_total": 3, "vicinity": "M423+FM5, Azad Nager, Bokaro Steel City"}, {"business_status": "OPERATIONAL", "geometry": {"location": {"lat": 23.6511891, "lng": 86.104022}, "viewport": {"northeast": {"lat": 23.6526300302915, "lng": 86.10543583029151}, "southwest": {"lat": 23.6499320697085, "lng": 86.1027378697085}}}, "icon": "https://maps.gstatic.com/mapfiles/place_api/icons/v1/png_71/school-71.png", "icon_background_color": "#7B9EB0", "icon_mask_base_uri": "https://maps.gstatic.com/mapfiles/place_api/icons/v2/school_pinlet", "name": "MS AZAD NAGAR HIGH SCHOOL", "place_id": "ChIJlSbXEzkj9DkRSkqbSsfaWx8", "plus_code": {"compound_code": "M423+FJ Bokaro Steel City, Jharkhand, India", "global_code": "7MM8M423+FJ"}, "rating": 5, "reference": "ChIJlSbXEzkj9DkRSkqbSsfaWx8", "scope": "GOOGLE", "types": ["school", "point_of_interest", "establishment"], "user_ratings_total": 1, "vicinity": "Azad Nager, Bokaro Steel City"}, {"business_status": "OPERATIONAL", "geometry": {"location": {"lat": 23.6475667, "lng": 86.10262569999999}, "viewport": {"northeast": {"lat": 23.6488828802915, "lng": 86.1039615302915}, "southwest": {"lat": 23.6461849197085, "lng": 86.1012635697085}}}, "icon": "https://maps.gstatic.com/mapfiles/place_api/icons/v1/png_71/school-71.png", "icon_background_color": "#7B9EB0", "icon_mask_base_uri": "https://maps.gstatic.com/mapfiles/place_api/icons/v2/school_pinlet", "name": "ManishKumar Gupta", "place_id": "ChIJjTMSEr8j9DkRyNKWs4qrgKY", "plus_code": {"compound_code": "J4X3+23 Bokaro Steel City, Jharkhand, India", "global_code": "7MM8J4X3+23"}, "reference": "ChIJjTMSEr8j9DkRyNKWs4qrgKY", "scope": "GOOGLE", "types": ["school", "point_of_interest", "establishment"], "vicinity": "Unnamed Road, Azad Nager, Bokaro Steel City"}, {"business_status": "OPERATIONAL", "geometry": {"location": {"lat": 23.6456627, "lng": 86.1088637}, "viewport": {"northeast": {"lat": 23.6470102302915, "lng": 86.1102291302915}, "southwest": {"lat": 23.6443122697085, "lng": 86.1075311697085}}}, "icon": "https://maps.gstatic.com/mapfiles/place_api/icons/v1/png_71/school-71.png", "icon_background_color": "#7B9EB0", "icon_mask_base_uri": "https://maps.gstatic.com/mapfiles/place_api/icons/v2/school_pinlet", "name": "Abhay Tution", "place_id": "ChIJaRWSBl4j9DkR8xwcqg3lUB8", "plus_code": {"compound_code": "J4W5+7G Bokaro Steel City, Jharkhand, India", "global_code": "7MM8J4W5+7G"}, "rating": 3, "reference": "ChIJaRWSBl4j9DkR8xwcqg3lUB8", "scope": "GOOGLE", "types": ["school", "point_of_interest", "establishment"], "user_ratings_total": 2, "vicinity": "Unnamed Road, Jhopari Colony, Ritudih, Bokaro Steel City"}, {"business_status": "OPERATIONAL", "geometry": {"location": {"lat": 23.645448, "lng": 86.1030909}, "viewport": {"northeast": {"lat": 23.6468493802915, "lng": 86.1044559802915}, "southwest": {"lat": 23.6441514197085, "lng": 86.10175801970848}}}, "icon": "https://maps.gstatic.com/mapfiles/place_api/icons/v1/png_71/generic_business-71.png", "icon_background_color": "#7B9EB0", "icon_mask_base_uri": "https://maps.gstatic.com/mapfiles/place_api/icons/v2/generic_pinlet", "name": "Anganwadi School", "photos": [{"height": 2448, "html_attributions": ["<a href=\"https://maps.google.com/maps/contrib/104224057016607409042\">Mantosh Kumar</a>"], "photo_reference": "Aap_uEBdJ9u9SlKEB_S2zUOKzvewLt8N5FYnoPzW-vKS1no2lAuib8SBGaNGRI9hLz76pZZqFHU0OV5W3QDkMXmOsKec_xDXNYreFiVW9Irn3Rl5r0I6Vf6ntB_oY-8fePZIMbam5pzc0ykF-GX4bsQ0udMHct0dLN-J1s9W35iJGjvCIgyp", "width": 3264}], "place_id": "ChIJpQRdmjcj9DkRAyx7-0wNgMA", "reference": "ChIJpQRdmjcj9DkRAyx7-0wNgMA", "scope": "GOOGLE", "types": ["school", "point_of_interest", "establishment"], "vicinity": "J4W3+56G, Azad Nager, Bokaro Steel City"}, {"business_status": "OPERATIONAL", "geometry": {"location": {"lat": 23.6445856, "lng": 86.1071518}, "viewport": {"northeast": {"lat": 23.6460638802915, "lng": 86.10831633029152}, "southwest": {"lat": 23.64336591970849, "lng": 86.10561836970851}}}, "icon": "https://maps.gstatic.com/mapfiles/place_api/icons/v1/png_71/school-71.png", "icon_background_color": "#7B9EB0", "icon_mask_base_uri": "https://maps.gstatic.com/mapfiles/place_api/icons/v2/school_pinlet", "name": "JATATOLA FOOTBALL GROUND", "opening_hours": {"open_now": true}, "photos": [{"height": 1080, "html_attributions": ["<a href=\"https://maps.google.com/maps/contrib/102138120983610688517\">Vishal Murmu</a>"], "photo_reference": "Aap_uEDQSIRYnMnCCpC0Pr1XhumSSrA9iaLv3O8B5JFZ4QdFDI9k-p46H0dIZYyuwPKWVJdjMCdxLf_CH_Xq_cPPC9InNryilpqGguX_zLfvfZ6cLs0P46wLMyxECQCGUt21UmCJYz8VwdjVYjhhNV7U_jrZJZwBj9QvfMmB7PAmCY3GFNko", "width": 1920}], "place_id": "ChIJ-7yAyyIj9DkRYn6jBUnS6jw", "plus_code": {"compound_code": "J4V4+RV Bokaro Steel City, Jharkhand, India", "global_code": "7MM8J4V4+RV"}, "reference": "ChIJ-7yAyyIj9DkRYn6jBUnS6jw", "scope": "GOOGLE", "types": ["school", "point_of_interest", "establishment"], "vicinity": "Azad Nagar, Siwandih, Bokaro Steel City"}, {"business_status": "OPERATIONAL", "geometry": {"location": {"lat": 23.6448187, "lng": 86.1031342}, "viewport": {"northeast": {"lat": 23.6461905802915, "lng": 86.10449708029151}, "southwest": {"lat": 23.6434926197085, "lng": 86.1017991197085}}}, "icon": "https://maps.gstatic.com/mapfiles/place_api/icons/v1/png_71/school-71.png", "icon_background_color": "#7B9EB0", "icon_mask_base_uri": "https://maps.gstatic.com/mapfiles/place_api/icons/v2/school_pinlet", "name": "Agnostic public School", "opening_hours": {"open_now": false}, "place_id": "ChIJibt5wo8j9DkR-qci0HjC0No", "reference": "ChIJibt5wo8j9DkR-qci0HjC0No", "scope": "GOOGLE", "types": ["school", "point_of_interest", "establishment"], "vicinity": "J4V3+W7C, Azad Nagar, Siwandih, Bokaro Steel City"}, {"business_status": "OPERATIONAL", "geometry": {"location": {"lat": 23.6474221, "lng": 86.1112239}, "viewport": {"northeast": {"lat": 23.6487554302915, "lng": 86.1125675802915}, "southwest": {"lat": 23.6460574697085, "lng": 86.10986961970849}}}, "icon": "https://maps.gstatic.com/mapfiles/place_api/icons/v1/png_71/school-71.png", "icon_background_color": "#7B9EB0", "icon_mask_base_uri": "https://maps.gstatic.com/mapfiles/place_api/icons/v2/school_pinlet", "name": "IT FLAVOURS", "opening_hours": {"open_now": true}, "place_id": "ChIJ35X-8z4j9DkR4gQFuabbj1c", "rating": 4.8, "reference": "ChIJ35X-8z4j9DkR4gQFuabbj1c", "scope": "GOOGLE", "types": ["school", "point_of_interest", "establishment"], "user_ratings_total": 4, "vicinity": "J4W6+XF9, Jhopari Colony, Ritudih, Bokaro Steel City"}, {"business_status": "OPERATIONAL", "geometry": {"location": {"lat": 23.6444207, "lng": 86.1031288}, "viewport": {"northeast": {"lat": 23.6457309302915, "lng": 86.10446518029151}, "southwest": {"lat": 23.64303296970849, "lng": 86.10176721970849}}}, "icon": "https://maps.gstatic.com/mapfiles/place_api/icons/v1/png_71/school-71.png", "icon_background_color": "#7B9EB0", "icon_mask_base_uri": "https://maps.gstatic.com/mapfiles/place_api/icons/v2/school_pinlet", "name": "Rishi Kesh Tution", "place_id": "ChIJL5pC97sj9DkRTTGTkmxm6y4", "reference": "ChIJL5pC97sj9DkRTTGTkmxm6y4", "scope": "GOOGLE", "types": ["school", "point_of_interest", "establishment"], "vicinity": "J4V3+Q76, Azad Nager, Bokaro Steel City"}, {"business_status": "OPERATIONAL", "geometry": {"location": {"lat": 23.643438, "lng": 86.1052844}, "viewport": {"northeast": {"lat": 23.6448898802915, "lng": 86.10658768029151}, "southwest": {"lat": 23.64219191970849, "lng": 86.1038897197085}}}, "icon": "https://maps.gstatic.com/mapfiles/place_api/icons/v1/png_71/school-71.png", "icon_background_color": "#7B9EB0", "icon_mask_base_uri": "https://maps.gstatic.com/mapfiles/place_api/icons/v2/school_pinlet", "name": "Md Haidar tyer mistri", "photos": [{"height": 2560, "html_attributions": ["<a href=\"https://maps.google.com/maps/contrib/110791464329509996624\">Md Haidar</a>"], "photo_reference": "Aap_uEBn507JtND0Y3gzeeXcLPO5V_lqHNxKjhg65Gme2NjV2Wk1fQizPAoXBLSu-OmcsQ7n_VGCEVlko85qZizg5uY9cfF9OWuiZeziEqc8H-JUoqNiAh4AaakHhZRsqX8tzMBFaAa2SolJoTzy0dvjbk3IcrftLmVvALj1A3ziwbm8O6Uf", "width": 1920}], "place_id": "ChIJ4RP9kRIj9DkRbAw5vjCo3wA", "plus_code": {"compound_code": "J4V4+94 Bokaro Steel City, Jharkhand, India", "global_code": "7MM8J4V4+94"}, "reference": "ChIJ4RP9kRIj9DkRbAw5vjCo3wA", "scope": "GOOGLE", "types": ["school", "point_of_interest", "establishment"], "vicinity": "Unnamed Road, Azad Nager, Bokaro Steel City"}, {"business_status": "OPERATIONAL", "geometry": {"location": {"lat": 23.6440844, "lng": 86.102694}, "viewport": {"northeast": {"lat": 23.6454486302915, "lng": 86.1040076802915}, "southwest": {"lat": 23.6427506697085, "lng": 86.1013097197085}}}, "icon": "https://maps.gstatic.com/mapfiles/place_api/icons/v1/png_71/school-71.png", "icon_background_color": "#7B9EB0", "icon_mask_base_uri": "https://maps.gstatic.com/mapfiles/place_api/icons/v2/school_pinlet", "name": "Hamidya Public School", "place_id": "ChIJIXrF6Tcj9DkR1pqVHYrAJIQ", "rating": 2, "reference": "ChIJIXrF6Tcj9DkR1pqVHYrAJIQ", "scope": "GOOGLE", "types": ["school", "point_of_interest", "establishment"], "user_ratings_total": 1, "vicinity": "J4V3+J3P, Azad Nager, Bokaro Steel City"}, {"business_status": "OPERATIONAL", "geometry": {"location": {"lat": 23.6440088, "lng": 86.1026048}, "viewport": {"northeast": {"lat": 23.6453886302915, "lng": 86.1039683302915}, "southwest": {"lat": 23.6426906697085, "lng": 86.10127036970849}}}, "icon": "https://maps.gstatic.com/mapfiles/place_api/icons/v1/png_71/school-71.png", "icon_background_color": "#7B9EB0", "icon_mask_base_uri": "https://maps.gstatic.com/mapfiles/place_api/icons/v2/school_pinlet", "name": "DaarulQazq( Molana Kalimullah )", "place_id": "ChIJI1SPwjcj9DkRQ_FSOwfH_98", "plus_code": {"compound_code": "J4V3+J2 Bokaro Steel City, Jharkhand, India", "global_code": "7MM8J4V3+J2"}, "reference": "ChIJI1SPwjcj9DkRQ_FSOwfH_98", "scope": "GOOGLE", "types": ["school", "point_of_interest", "establishment"], "vicinity": "Unnamed Road, Azad Nager, Bokaro Steel City"}], "status": "OK"}