{"html_attributions": [], "results": [{"business_status": "OPERATIONAL", "geometry": {"location": {"lat": 23.5710965, "lng": 85.58767329999999}, "viewport": {"northeast": {"lat": 23.57240223029151, "lng": 85.5889712302915}, "southwest": {"lat": 23.5697042697085, "lng": 85.5862732697085}}}, "icon": "https://maps.gstatic.com/mapfiles/place_api/icons/v1/png_71/school-71.png", "icon_background_color": "#7B9EB0", "icon_mask_base_uri": "https://maps.gstatic.com/mapfiles/place_api/icons/v2/school_pinlet", "name": "Ahsan High School Jario", "photos": [{"height": 640, "html_attributions": ["<a href=\"https://maps.google.com/maps/contrib/102932264905601402851\">MD Shamir Ansari</a>"], "photo_reference": "Aap_uEBlLzjDUnjOJ5ZugO76HWmg0oGy7f1kH05bh-AoXvRRYGx-mqBP9lDCtFwSlpbvOpHg-0mbisS-PXlIoIuLfkXaGewNq4Vn5Lb8-MmIqqTP5vtl0CPVrgS6GEMz5ZwwymAVBZCrjdS6jm_ua8oTKAKs7z_akJA9JF1ZYf3FtAAaTxQf", "width": 384}], "place_id": "ChIJE6orG4L39DkRFGIBaq7g2QY", "rating": 5, "reference": "ChIJE6orG4L39DkRFGIBaq7g2QY", "scope": "GOOGLE", "types": ["school", "point_of_interest", "establishment"], "user_ratings_total": 2, "vicinity": "HHCQ+C3M, Jario"}, {"business_status": "OPERATIONAL", "geometry": {"location": {"lat": 23.5773415, "lng": 85.5856492}, "viewport": {"northeast": {"lat": 23.5786119302915, "lng": 85.58690858029152}, "southwest": {"lat": 23.5759139697085, "lng": 85.58421061970851}}}, "icon": "https://maps.gstatic.com/mapfiles/place_api/icons/v1/png_71/school-71.png", "icon_background_color": "#7B9EB0", "icon_mask_base_uri": "https://maps.gstatic.com/mapfiles/place_api/icons/v2/school_pinlet", "name": "Pappu Samar", "place_id": "ChIJb9tFFlb39DkR5c7-62ZeiCA", "rating": 5, "reference": "ChIJb9tFFlb39DkR5c7-62ZeiCA", "scope": "GOOGLE", "types": ["school", "point_of_interest", "establishment"], "user_ratings_total": 1, "vicinity": "HHGP+W7J, Jario"}, {"business_status": "OPERATIONAL", "geometry": {"location": {"lat": 23.558458, "lng": 85.5847916}, "viewport": {"northeast": {"lat": 23.5594771802915, "lng": 85.58624813029151}, "southwest": {"lat": 23.5567792197085, "lng": 85.58355016970849}}}, "icon": "https://maps.gstatic.com/mapfiles/place_api/icons/v1/png_71/school-71.png", "icon_background_color": "#7B9EB0", "icon_mask_base_uri": "https://maps.gstatic.com/mapfiles/place_api/icons/v2/school_pinlet", "name": "Usra Middle School", "opening_hours": {"open_now": false}, "photos": [{"height": 4608, "html_attributions": ["<a href=\"https://maps.google.com/maps/contrib/116380259929657068532\">Anshuman Bharti</a>"], "photo_reference": "Aap_uECT_XaqZc1JtC6SXd8dyhjZFwuSzHKrG1gujvI5T15FK9ZmqN8eeKLv_0kdAgoHXmOJZrWrwJm9NNg5vNM_KMjoox4bNaPJos2ecohZcdkeEvOVBP5rTA59tpbGR-W1dYgsw08_wSadRoDZ7F9VFVu4ThVk8_DJJmDgnOfpg2bdMLFq", "width": 2592}], "place_id": "ChIJWzts0TT29DkRlExQq4Ehq84", "plus_code": {"compound_code": "HH5M+9W Usra, Jharkhand, India", "global_code": "7MM7HH5M+9W"}, "rating": 4.7, "reference": "ChIJWzts0TT29DkRlExQq4Ehq84", "scope": "GOOGLE", "types": ["school", "point_of_interest", "establishment"], "user_ratings_total": 3, "vicinity": "Usra"}, {"business_status": "OPERATIONAL", "geometry": {"location": {"lat": 23.5637139, "lng": 85.5754855}, "viewport": {"northeast": {"lat": 23.5649650302915, "lng": 85.5767816802915}, "southwest": {"lat": 23.5622670697085, "lng": 85.5740837197085}}}, "icon": "https://maps.gstatic.com/mapfiles/place_api/icons/v1/png_71/school-71.png", "icon_background_color": "#7B9EB0", "icon_mask_base_uri": "https://maps.gstatic.com/mapfiles/place_api/icons/v2/school_pinlet", "name": "PRIMARY SCHOOL LOLO, GANDKE RAMGARH", "photos": [{"height": 2250, "html_attributions": ["<a href=\"https://maps.google.com/maps/contrib/105059621694792903925\">Dinesh Kumar Munda</a>"], "photo_reference": "Aap_uEBvId-xcrHGt45y_qJCP8zjwBu_fz67_Zn1fZvX0Hpu3Dn4Ixw4W__s4Fu5wv36ETEUGJigoGc4WV-zDVj2tV2LeXv3CEjDaYGKMeV8QlOIHAcH2PxshKVksLlqm8146z7v5WdNRGAuHFZCb9dhpCt5xaCnWvXomD6o57dV2CQSarY3", "width": 4000}], "place_id": "ChIJVQDqFKD39DkRwWyfxKWQwuI", "rating": 5, "reference": "ChIJVQDqFKD39DkRwWyfxKWQwuI", "scope": "GOOGLE", "types": ["school", "point_of_interest", "establishment"], "user_ratings_total": 1, "vicinity": "HH7G+F5Q, Lalo"}, {"business_status": "OPERATIONAL", "geometry": {"location": {"lat": 23.5637628, "lng": 85.57544039999999}, "viewport": {"northeast": {"lat": 23.5650024802915, "lng": 85.5767304302915}, "southwest": {"lat": 23.56230451970849, "lng": 85.5740324697085}}}, "icon": "https://maps.gstatic.com/mapfiles/place_api/icons/v1/png_71/school-71.png", "icon_background_color": "#7B9EB0", "icon_mask_base_uri": "https://maps.gstatic.com/mapfiles/place_api/icons/v2/school_pinlet", "name": "Lolo school", "photos": [{"height": 2250, "html_attributions": ["<a href=\"https://maps.google.com/maps/contrib/105059621694792903925\">Dinesh Kumar Munda</a>"], "photo_reference": "Aap_uECWG98SqVB6EWVc_2fDkjNvlNyi16SzsGdAXdUaVTXeBBGjds2V5HAoHdq1KHdZ0SofdFuPJxDcHC2tHKZmO0iRm7vFe-cyM21FB3Yv06kGWpPa0DWLIIsJxETG_jR32OmUeYwZVnL8xiBol8JB33A4daWpZAIz4CinQEoJEny_1w2p", "width": 4000}], "place_id": "ChIJz_A7ohb39DkReSxlf7KZnJk", "rating": 4.5, "reference": "ChIJz_A7ohb39DkReSxlf7KZnJk", "scope": "GOOGLE", "types": ["school", "point_of_interest", "establishment"], "user_ratings_total": 2, "vicinity": "HH7G+G54, Lalo"}, {"business_status": "OPERATIONAL", "geometry": {"location": {"lat": 23.5637217, "lng": 85.57542219999999}, "viewport": {"northeast": {"lat": 23.5649812302915, "lng": 85.5767229302915}, "southwest": {"lat": 23.5622832697085, "lng": 85.57402496970847}}}, "icon": "https://maps.gstatic.com/mapfiles/place_api/icons/v1/png_71/school-71.png", "icon_background_color": "#7B9EB0", "icon_mask_base_uri": "https://maps.gstatic.com/mapfiles/place_api/icons/v2/school_pinlet", "name": "\u092a\u094d\u0930\u093e\u0925\u092e\u093f\u0915 \u0935\u093f\u0926\u094d\u092f\u093e\u0932\u092f \u0932\u094b\u0932\u094b", "place_id": "ChIJ5SkhDLf39DkRX2QVBsmM8J8", "plus_code": {"compound_code": "HH7G+F5 Lalo, Jharkhand, India", "global_code": "7MM7HH7G+F5"}, "reference": "ChIJ5SkhDLf39DkRX2QVBsmM8J8", "scope": "GOOGLE", "types": ["primary_school", "school", "point_of_interest", "establishment"], "vicinity": "VILL. - LOLO, Gothwari Tand P.O, Gandey"}, {"business_status": "OPERATIONAL", "geometry": {"location": {"lat": 23.5799861, "lng": 85.5888538}, "viewport": {"northeast": {"lat": 23.58129178029151, "lng": 85.59017138029151}, "southwest": {"lat": 23.57859381970851, "lng": 85.58747341970849}}}, "icon": "https://maps.gstatic.com/mapfiles/place_api/icons/v1/png_71/school-71.png", "icon_background_color": "#7B9EB0", "icon_mask_base_uri": "https://maps.gstatic.com/mapfiles/place_api/icons/v2/school_pinlet", "name": "Jama Masjid Jario", "place_id": "ChIJo5GQ4pb39DkRvSs9zp3LNdk", "rating": 5, "reference": "ChIJo5GQ4pb39DkRvSs9zp3LNdk", "scope": "GOOGLE", "types": ["school", "point_of_interest", "establishment"], "user_ratings_total": 3, "vicinity": "HHHQ+XGX, Jario"}, {"business_status": "OPERATIONAL", "geometry": {"location": {"lat": 23.5605614, "lng": 85.59441869999999}, "viewport": {"northeast": {"lat": 23.5619703802915, "lng": 85.5958043802915}, "southwest": {"lat": 23.5592724197085, "lng": 85.59310641970849}}}, "icon": "https://maps.gstatic.com/mapfiles/place_api/icons/v1/png_71/school-71.png", "icon_background_color": "#7B9EB0", "icon_mask_base_uri": "https://maps.gstatic.com/mapfiles/place_api/icons/v2/school_pinlet", "name": "Kusumbha Middle school", "place_id": "ChIJr7oUTf339DkRGKZhPBgX6xU", "reference": "ChIJr7oUTf339DkRGKZhPBgX6xU", "scope": "GOOGLE", "types": ["school", "point_of_interest", "establishment"], "vicinity": "HH6V+6QF, Kusumba"}, {"business_status": "OPERATIONAL", "geometry": {"location": {"lat": 23.5605583, "lng": 85.5944633}, "viewport": {"northeast": {"lat": 23.56195973029151, "lng": 85.59584438029151}, "southwest": {"lat": 23.5592617697085, "lng": 85.59314641970849}}}, "icon": "https://maps.gstatic.com/mapfiles/place_api/icons/v1/png_71/school-71.png", "icon_background_color": "#7B9EB0", "icon_mask_base_uri": "https://maps.gstatic.com/mapfiles/place_api/icons/v2/school_pinlet", "name": "Upgraded High School Soso", "place_id": "ChIJBWYvAy329DkR_rT--gOTCzQ", "reference": "ChIJBWYvAy329DkR_rT--gOTCzQ", "scope": "GOOGLE", "types": ["school", "point_of_interest", "establishment"], "vicinity": "HH6V+6QG, Kusumba"}, {"business_status": "OPERATIONAL", "geometry": {"location": {"lat": 23.5795596, "lng": 85.5802379}, "viewport": {"northeast": {"lat": 23.5807317302915, "lng": 85.5817688802915}, "southwest": {"lat": 23.5780337697085, "lng": 85.5790709197085}}}, "icon": "https://maps.gstatic.com/mapfiles/place_api/icons/v1/png_71/school-71.png", "icon_background_color": "#7B9EB0", "icon_mask_base_uri": "https://maps.gstatic.com/mapfiles/place_api/icons/v2/school_pinlet", "name": "Vikash coaching center , bahatu", "place_id": "ChIJn-wtCof39DkRgb45PwwZOnI", "reference": "ChIJn-wtCof39DkRgb45PwwZOnI", "scope": "GOOGLE", "types": ["school", "point_of_interest", "establishment"], "vicinity": "HHHJ+R3H, Bahatu"}, {"business_status": "OPERATIONAL", "geometry": {"location": {"lat": 23.5801655, "lng": 85.580505}, "viewport": {"northeast": {"lat": 23.5812987302915, "lng": 85.5821452802915}, "southwest": {"lat": 23.57860076970849, "lng": 85.57944731970849}}}, "icon": "https://maps.gstatic.com/mapfiles/place_api/icons/v1/png_71/school-71.png", "icon_background_color": "#7B9EB0", "icon_mask_base_uri": "https://maps.gstatic.com/mapfiles/place_api/icons/v2/school_pinlet", "name": "School", "photos": [{"height": 3264, "html_attributions": ["<a href=\"https://maps.google.com/maps/contrib/114453635816457195736\">Dablu Kumar</a>"], "photo_reference": "Aap_uEBmu4sYp5lccYXgXoV9ViE682OkWyPF9HAf5eSNQVaPTb0msxBM2GELQ4BEIRLdzBN9dDGiQ4VSegH3NX0mUONwzLAJl0E_zdbD_UBESDPjJWhnwTB5LSY7dKtXU71zPka75q3p1Lc4n5YypfSgA-8cEJoi9y1kgXoh0TwH4R2IVx_j", "width": 2448}], "place_id": "ChIJs9Q-fTX39DkRurCwDtP3GD0", "reference": "ChIJs9Q-fTX39DkRurCwDtP3GD0", "scope": "GOOGLE", "types": ["school", "point_of_interest", "establishment"], "vicinity": "HHJJ+366, Bahatu"}], "status": "OK"}