{"html_attributions": [], "next_page_token": "Aap_uED9dNWj73NdpxXpPZB5hlT6G3btJlE5hja0HbS0l5wV--lcgMHQgCSgWjgpsKthFDvy5AKhuf6bXh-4G9axvcyBfELMXYHB0Iy3nfoZnetIUVdFYIc-Ab8qdB-pxxYkgILkVwJ4JefLPQDs4E1XtUqUe_QoJ2w3tcZGscOBOf0096YkQ6txFW9CX9knRtza4egFPQ-O2f58MJbgwoh624KtJPqxxlGYfSK77k6AdcTDUIbtJBe1Je5ewgObWf0voNAVYbVVl9K5-lPyypWeRXGvgOYM-Ufv1p04eMvKwl_QRqh9JWmRl9MEdHOyt6EEW4Wq9FdWawjkqLhZkQnqxK_OWXcKA-7n-RZDa41QdTCyEQOXkJ2Z47pYkQNqQ8-_HuQPCN7LH2qUNWxhubcbOdSI7bufPbOpRcnc0_imqFJGGrUcWWE", "results": [{"business_status": "OPERATIONAL", "geometry": {"location": {"lat": 23.7418592, "lng": 86.1060632}, "viewport": {"northeast": {"lat": 23.7433227302915, "lng": 86.1074715802915}, "southwest": {"lat": 23.74062476970849, "lng": 86.1047736197085}}}, "icon": "https://maps.gstatic.com/mapfiles/place_api/icons/v1/png_71/school-71.png", "icon_background_color": "#7B9EB0", "icon_mask_base_uri": "https://maps.gstatic.com/mapfiles/place_api/icons/v2/school_pinlet", "name": "Kendriya Vidyalaya CTPS Chandrapura", "opening_hours": {"open_now": false}, "photos": [{"height": 1440, "html_attributions": ["<a href=\"https://maps.google.com/maps/contrib/111714285432747319072\">Abhinav Kumar Singh</a>"], "photo_reference": "Aap_uEBoPZiN9ZuuzBWRoACJMQnlk9xVZXmheof4pH7MgvyLXFMGuFrWKI0rsZSGofURV8gAoIkWlqIAYlPDizJVRsDi5v21Djv6d8ZAnr4ERfnWv1SAhVEcC9vNcaU3dMaT0rCjdOhMp7q6NrQ1HpUxDIm69wwHxw6a8hPoNJXgubIPx_Nq", "width": 2560}], "place_id": "ChIJoT7n5TwY9DkRXu7lNT0Me5I", "plus_code": {"compound_code": "P4R4+PC Chandrapura, Jharkhand, India", "global_code": "7MM8P4R4+PC"}, "rating": 4, "reference": "ChIJoT7n5TwY9DkRXu7lNT0Me5I", "scope": "GOOGLE", "types": ["school", "point_of_interest", "establishment"], "user_ratings_total": 37, "vicinity": "Officer Hostel No 02, CTPS, DVC, D Type Colony Road, Chandrapura"}, {"business_status": "OPERATIONAL", "geometry": {"location": {"lat": 23.748061, "lng": 86.1055509}, "viewport": {"northeast": {"lat": 23.7494099302915, "lng": 86.10685398029149}, "southwest": {"lat": 23.7467119697085, "lng": 86.10415601970848}}}, "icon": "https://maps.gstatic.com/mapfiles/place_api/icons/v1/png_71/school-71.png", "icon_background_color": "#7B9EB0", "icon_mask_base_uri": "https://maps.gstatic.com/mapfiles/place_api/icons/v2/school_pinlet", "name": "Kids Kinder Garten School, Paschimpally Chandrapura,Bokaro.", "place_id": "ChIJQW8SD4wZ9DkR0_3rIDGd33Q", "plus_code": {"compound_code": "P4X4+66 Chandrapura, Jharkhand, India", "global_code": "7MM8P4X4+66"}, "rating": 5, "reference": "ChIJQW8SD4wZ9DkR0_3rIDGd33Q", "scope": "GOOGLE", "types": ["school", "point_of_interest", "establishment"], "user_ratings_total": 1, "vicinity": "Paschim Pally, Chandrapura"}, {"business_status": "OPERATIONAL", "geometry": {"location": {"lat": 23.7464437, "lng": 86.1060672}, "viewport": {"northeast": {"lat": 23.7479091302915, "lng": 86.10741383029149}, "southwest": {"lat": 23.7452111697085, "lng": 86.10471586970849}}}, "icon": "https://maps.gstatic.com/mapfiles/place_api/icons/v1/png_71/school-71.png", "icon_background_color": "#7B9EB0", "icon_mask_base_uri": "https://maps.gstatic.com/mapfiles/place_api/icons/v2/school_pinlet", "name": "DVC 2nd middle school", "photos": [{"height": 1080, "html_attributions": ["<a href=\"https://maps.google.com/maps/contrib/106731696766455034438\">rahul kumar</a>"], "photo_reference": "Aap_uEC_uW1OL65DcSEeNXhk8lOCdsR-Yfh6J19zd6NR30_NT-4MoLy37HnnNTvwtEXh15EgcEPvKxE1gl1OB2KjfQm2IK7wwL4wr_RxhJvyQ-uUBQB9KUiq3-8LN0sgukBeaNQiWI3C3jsWYDz0vXwwsuAdyeG3k4FYQBk_YM9KaWXg9wHO", "width": 1920}], "place_id": "ChIJYbWMBTsY9DkR0Kj7Cevuj9o", "rating": 3.3, "reference": "ChIJYbWMBTsY9DkR0Kj7Cevuj9o", "scope": "GOOGLE", "types": ["school", "point_of_interest", "establishment"], "user_ratings_total": 6, "vicinity": "P4W4+HCG, Paschim Pally, Chandrapura"}, {"business_status": "OPERATIONAL", "geometry": {"location": {"lat": 23.7498293, "lng": 86.10336880000001}, "viewport": {"northeast": {"lat": 23.7511917802915, "lng": 86.10469188029151}, "southwest": {"lat": 23.7484938197085, "lng": 86.10199391970849}}}, "icon": "https://maps.gstatic.com/mapfiles/place_api/icons/v1/png_71/school-71.png", "icon_background_color": "#7B9EB0", "icon_mask_base_uri": "https://maps.gstatic.com/mapfiles/place_api/icons/v2/school_pinlet", "name": "Samudayik Bhavan Bhursabad", "photos": [{"height": 1536, "html_attributions": ["<a href=\"https://maps.google.com/maps/contrib/101707914756168198034\">SURAJ HEMBROM BHURSABAD</a>"], "photo_reference": "Aap_uEAAUNctcxReJ7Sju_p4e8Zt_zVCdWuBUW1xHyiiKfFniew-gdH9Q3aQIjupXs1_eT21kfDyXe1j6OcoAFEvZzBbLnpV_G_v26nUk5QCDFo2yctE7_tjmiwvnzsPEWroX3uaa7D8yu16jSY52PQtGjRXgeJ10yctybxTvg3xkJ0Z2qL2", "width": 2560}], "place_id": "ChIJe_LnFP4Z9DkRUWhFmC64BbI", "rating": 3.5, "reference": "ChIJe_LnFP4Z9DkRUWhFmC64BbI", "scope": "GOOGLE", "types": ["school", "point_of_interest", "establishment"], "user_ratings_total": 2, "vicinity": "P4X3+W8Q, Chandrapura"}, {"business_status": "OPERATIONAL", "geometry": {"location": {"lat": 23.74678949999999, "lng": 86.10837459999999}, "viewport": {"northeast": {"lat": 23.74810778029151, "lng": 86.1097236802915}, "southwest": {"lat": 23.7454098197085, "lng": 86.10702571970849}}}, "icon": "https://maps.gstatic.com/mapfiles/place_api/icons/v1/png_71/school-71.png", "icon_background_color": "#7B9EB0", "icon_mask_base_uri": "https://maps.gstatic.com/mapfiles/place_api/icons/v2/school_pinlet", "name": "Pipe shed", "place_id": "ChIJJYXX6DQZ9DkRcQlLd0qOUKQ", "plus_code": {"compound_code": "P4W5+P8 Chandrapura, Jharkhand, India", "global_code": "7MM8P4W5+P8"}, "reference": "ChIJJYXX6DQZ9DkRcQlLd0qOUKQ", "scope": "GOOGLE", "types": ["school", "point_of_interest", "establishment"], "vicinity": "DVC Colony Road, Chandrapura"}, {"business_status": "OPERATIONAL", "geometry": {"location": {"lat": 23.7486784, "lng": 86.10263189999999}, "viewport": {"northeast": {"lat": 23.7500311802915, "lng": 86.10398098029151}, "southwest": {"lat": 23.74733321970849, "lng": 86.10128301970849}}}, "icon": "https://maps.gstatic.com/mapfiles/place_api/icons/v1/png_71/school-71.png", "icon_background_color": "#7B9EB0", "icon_mask_base_uri": "https://maps.gstatic.com/mapfiles/place_api/icons/v2/school_pinlet", "name": "M.P.P.S School", "opening_hours": {"open_now": false}, "place_id": "ChIJH-OdaiUY9DkRlnrZev1zqQA", "plus_code": {"compound_code": "P4X3+F3 Chandrapura, Jharkhand, India", "global_code": "7MM8P4X3+F3"}, "rating": 5, "reference": "ChIJH-OdaiUY9DkRlnrZev1zqQA", "scope": "GOOGLE", "types": ["school", "point_of_interest", "establishment"], "user_ratings_total": 3, "vicinity": "Near Durgapur Dometry, M.P.P.S. School, Chandrapura"}, {"business_status": "OPERATIONAL", "geometry": {"location": {"lat": 23.7501008, "lng": 86.10204619999999}, "viewport": {"northeast": {"lat": 23.7513823302915, "lng": 86.1033491802915}, "southwest": {"lat": 23.7486843697085, "lng": 86.10065121970848}}}, "icon": "https://maps.gstatic.com/mapfiles/place_api/icons/v1/png_71/school-71.png", "icon_background_color": "#7B9EB0", "icon_mask_base_uri": "https://maps.gstatic.com/mapfiles/place_api/icons/v2/school_pinlet", "name": "Birsa Munda College.Chandrapura", "place_id": "ChIJ7215mIkZ9DkRKVGnNcCo1Nk", "reference": "ChIJ7215mIkZ9DkRKVGnNcCo1Nk", "scope": "GOOGLE", "types": ["school", "point_of_interest", "establishment"], "vicinity": "Q422+2RV, Chandrapura"}, {"business_status": "OPERATIONAL", "geometry": {"location": {"lat": 23.7472047, "lng": 86.1101626}, "viewport": {"northeast": {"lat": 23.74855233029151, "lng": 86.1115464302915}, "southwest": {"lat": 23.7458543697085, "lng": 86.10884846970849}}}, "icon": "https://maps.gstatic.com/mapfiles/place_api/icons/v1/png_71/school-71.png", "icon_background_color": "#7B9EB0", "icon_mask_base_uri": "https://maps.gstatic.com/mapfiles/place_api/icons/v2/school_pinlet", "name": "Holy Cross Public School", "opening_hours": {"open_now": false}, "photos": [{"height": 3120, "html_attributions": ["<a href=\"https://maps.google.com/maps/contrib/100909789663680336473\">Monu Verma</a>"], "photo_reference": "Aap_uEAl2lFOE0Yt1yvQ_5b0XRx_mNyq2OY43t1FqJDmC655hHxo9YcrmFBHyNWFHfJ8XhQ24WqVC6Odsm0p4cpRK7bp6KjVXMZaOEju8IjmVEZt5WYsZbaKRbc-ZtWFBab2MXWSDC7JAhCVZYEu50-LO9WKz7ZhSb9tAU5GSp7AuBYdRiLA", "width": 4160}], "place_id": "ChIJuSJl2hkZ9DkRIkx4Mp-ODGY", "plus_code": {"compound_code": "P4W6+V3 Chandrapura, Jharkhand, India", "global_code": "7MM8P4W6+V3"}, "rating": 1, "reference": "ChIJuSJl2hkZ9DkRIkx4Mp-ODGY", "scope": "GOOGLE", "types": ["school", "point_of_interest", "establishment"], "user_ratings_total": 1, "vicinity": "behind adipalli puja pandal, Chandrapura"}, {"business_status": "OPERATIONAL", "geometry": {"location": {"lat": 23.7454518, "lng": 86.11049650000001}, "viewport": {"northeast": {"lat": 23.7467965302915, "lng": 86.11191288029151}, "southwest": {"lat": 23.74409856970849, "lng": 86.1092149197085}}}, "icon": "https://maps.gstatic.com/mapfiles/place_api/icons/v1/png_71/school-71.png", "icon_background_color": "#7B9EB0", "icon_mask_base_uri": "https://maps.gstatic.com/mapfiles/place_api/icons/v2/school_pinlet", "name": "Blossom School", "photos": [{"height": 4160, "html_attributions": ["<a href=\"https://maps.google.com/maps/contrib/110386068293079720185\">POONAM KUMARI</a>"], "photo_reference": "Aap_uEBPiiQqjxpZK7-kgV9Yts3Q8fNNCf3qGkbLnGriaBAMQ0BZQDmzzjSKH4AmNuZqvIuWp6AA7ZkBf4M_WOnHkYikr_Pj5y2L8QT2a1gM_L7GRZ_WVxjEqTU59hHbpF-JEoNinbWv4BA6WDPHKzCqsL6Qa1Y3G1D12-ElZOUhkHjVabqt", "width": 3120}], "place_id": "ChIJ2dr4JgcZ9DkRedpdxOqi36o", "plus_code": {"compound_code": "P4W6+55 Chandrapura, Jharkhand, India", "global_code": "7MM8P4W6+55"}, "rating": 3.4, "reference": "ChIJ2dr4JgcZ9DkRedpdxOqi36o", "scope": "GOOGLE", "types": ["school", "point_of_interest", "establishment"], "user_ratings_total": 10, "vicinity": "Shimla Colony, Chandrapura"}, {"business_status": "OPERATIONAL", "geometry": {"location": {"lat": 23.7455911, "lng": 86.112383}, "viewport": {"northeast": {"lat": 23.74691818029151, "lng": 86.11373233029151}, "southwest": {"lat": 23.7442202197085, "lng": 86.11103436970849}}}, "icon": "https://maps.gstatic.com/mapfiles/place_api/icons/v1/png_71/school-71.png", "icon_background_color": "#7B9EB0", "icon_mask_base_uri": "https://maps.gstatic.com/mapfiles/place_api/icons/v2/school_pinlet", "name": "BSG Educations", "photos": [{"height": 468, "html_attributions": ["<a href=\"https://maps.google.com/maps/contrib/101929734618871154497\">NEELAM BARNWAL</a>"], "photo_reference": "Aap_uECQ-sNKQJeUx2yC0wxKlnFTzKO5aqLKR7b8_h_KUvxPmDJm8-am93OfDPImP_VAwbetL_798ApsyOTXdIwqKIj63SCOGWAC7V3fwRIfouqoBgSD8m21geVci10qovM8_dis3nnTGZRnXgJgnKLFwm2Ou3sY2EddT1k1alC5xCX3b4m1", "width": 1040}], "place_id": "ChIJ____wzgY9DkRqK8_OyTA2Mw", "rating": 4.5, "reference": "ChIJ____wzgY9DkRqK8_OyTA2Mw", "scope": "GOOGLE", "types": ["school", "point_of_interest", "establishment"], "user_ratings_total": 4, "vicinity": "P4W6+6XJ, Shimla Colony, Chandrapura"}, {"business_status": "OPERATIONAL", "geometry": {"location": {"lat": 23.7454625, "lng": 86.1125131}, "viewport": {"northeast": {"lat": 23.7468815302915, "lng": 86.1138608802915}, "southwest": {"lat": 23.7441835697085, "lng": 86.11116291970849}}}, "icon": "https://maps.gstatic.com/mapfiles/place_api/icons/v1/png_71/school-71.png", "icon_background_color": "#7B9EB0", "icon_mask_base_uri": "https://maps.gstatic.com/mapfiles/place_api/icons/v2/school_pinlet", "name": "Blouse Shop At Home", "opening_hours": {"open_now": true}, "photos": [{"height": 1920, "html_attributions": ["<a href=\"https://maps.google.com/maps/contrib/115401950119401255600\">Mala Singh</a>"], "photo_reference": "Aap_uEBhdigeMAHPA0EDufcDayy5NvEsHGG6du6_STTpUktUKtmFVS10YQpxDh_pZeTlswBmoRnQHjthPdMVKoE-EHMQWglyPGUn02CUVu75MItRkaEn2iZzh6tDAHJSifwF21Ja3DKVWPgcggig5wRnCgrwdvG9FbIb0t5uPaKGMg9_VyLp", "width": 2560}], "place_id": "ChIJ____wzgY9DkRNEKuu30S2N8", "reference": "ChIJ____wzgY9DkRNEKuu30S2N8", "scope": "GOOGLE", "types": ["school", "point_of_interest", "establishment"], "vicinity": "P4W7+52J, Shimla Colony, Chandrapura"}, {"business_status": "OPERATIONAL", "geometry": {"location": {"lat": 23.74688620000001, "lng": 86.1133986}, "viewport": {"northeast": {"lat": 23.7482255802915, "lng": 86.11474798029151}, "southwest": {"lat": 23.74552761970849, "lng": 86.1120500197085}}}, "icon": "https://maps.gstatic.com/mapfiles/place_api/icons/v1/png_71/school-71.png", "icon_background_color": "#7B9EB0", "icon_mask_base_uri": "https://maps.gstatic.com/mapfiles/place_api/icons/v2/school_pinlet", "name": "DVC Plus2 High School", "photos": [{"height": 810, "html_attributions": ["<a href=\"https://maps.google.com/maps/contrib/113046943781035647856\">Jai Prakash</a>"], "photo_reference": "Aap_uEC5sh6nuSHLFvKPkDxuWPyv9WiZu2_KPKH8bKDvn3G5mcelDEboDD3D9nfg41wBFd4RvHhtbQ482UKpkHeym_0akHa_nM-eNd8tS82FEs1Lev0FfVlV03DyDFqkB53amqVsO8nzTir6HXbp2MzveXhJJHudWln1wMSspsKU72zbDYXw", "width": 1080}], "place_id": "ChIJ_VMU8TgY9DkRQUcWBuHDyeU", "plus_code": {"compound_code": "P4W7+Q9 Bokaro Steel City, Jharkhand, India", "global_code": "7MM8P4W7+Q9"}, "rating": 2.7, "reference": "ChIJ_VMU8TgY9DkRQUcWBuHDyeU", "scope": "GOOGLE", "types": ["secondary_school", "school", "point_of_interest", "establishment"], "user_ratings_total": 3, "vicinity": "DVC Colony Rd, Chandrapura, Bokaro Steel City"}, {"business_status": "OPERATIONAL", "geometry": {"location": {"lat": 23.7414142, "lng": 86.10713369999999}, "viewport": {"northeast": {"lat": 23.7427640302915, "lng": 86.10848088029151}, "southwest": {"lat": 23.7400660697085, "lng": 86.1057829197085}}}, "icon": "https://maps.gstatic.com/mapfiles/place_api/icons/v1/png_71/school-71.png", "icon_background_color": "#7B9EB0", "icon_mask_base_uri": "https://maps.gstatic.com/mapfiles/place_api/icons/v2/school_pinlet", "name": "Chandrapura ITI", "place_id": "ChIJr6V5TTwY9DkR0zdXAH0Bg84", "plus_code": {"compound_code": "P4R4+HV Ghatiari, Jharkhand, India", "global_code": "7MM8P4R4+HV"}, "reference": "ChIJr6V5TTwY9DkR0zdXAH0Bg84", "scope": "GOOGLE", "types": ["school", "point_of_interest", "establishment"], "vicinity": "Unnamed Road, Ghatiari"}, {"business_status": "OPERATIONAL", "geometry": {"location": {"lat": 23.747794, "lng": 86.11533519999999}, "viewport": {"northeast": {"lat": 23.7491468302915, "lng": 86.11666963029151}, "southwest": {"lat": 23.74644886970849, "lng": 86.1139716697085}}}, "icon": "https://maps.gstatic.com/mapfiles/place_api/icons/v1/png_71/school-71.png", "icon_background_color": "#7B9EB0", "icon_mask_base_uri": "https://maps.gstatic.com/mapfiles/place_api/icons/v2/school_pinlet", "name": "Sagar Kumar Tuition Classes", "place_id": "ChIJBc6xmEcY9DkRL1FnoiqNvc8", "plus_code": {"compound_code": "P4X8+44 Ghatiari, Jharkhand, India", "global_code": "7MM8P4X8+44"}, "rating": 4.2, "reference": "ChIJBc6xmEcY9DkRL1FnoiqNvc8", "scope": "GOOGLE", "types": ["school", "point_of_interest", "establishment"], "user_ratings_total": 17, "vicinity": "Ghatiari"}, {"business_status": "OPERATIONAL", "geometry": {"location": {"lat": 23.7416401, "lng": 86.11200629999999}, "viewport": {"northeast": {"lat": 23.7430333802915, "lng": 86.1133915802915}, "southwest": {"lat": 23.7403354197085, "lng": 86.11069361970848}}}, "icon": "https://maps.gstatic.com/mapfiles/place_api/icons/v1/png_71/school-71.png", "icon_background_color": "#7B9EB0", "icon_mask_base_uri": "https://maps.gstatic.com/mapfiles/place_api/icons/v2/school_pinlet", "name": "Anganwadi Kendra, Jharnadih", "place_id": "ChIJpYq8yRUZ9DkRQbKZ9nSuF6g", "plus_code": {"compound_code": "P4R6+MR Chandrapura, Jharkhand, India", "global_code": "7MM8P4R6+MR"}, "reference": "ChIJpYq8yRUZ9DkRQbKZ9nSuF6g", "scope": "GOOGLE", "types": ["school", "point_of_interest", "establishment"], "vicinity": "jharnadih, Chandrapura"}, {"business_status": "OPERATIONAL", "geometry": {"location": {"lat": 23.7420176, "lng": 86.11253230000001}, "viewport": {"northeast": {"lat": 23.7433614802915, "lng": 86.11382648029152}, "southwest": {"lat": 23.7406635197085, "lng": 86.1111285197085}}}, "icon": "https://maps.gstatic.com/mapfiles/place_api/icons/v1/png_71/school-71.png", "icon_background_color": "#7B9EB0", "icon_mask_base_uri": "https://maps.gstatic.com/mapfiles/place_api/icons/v2/school_pinlet", "name": "Shanti Niketan", "place_id": "ChIJT37eDT8Y9DkRwul_DLgVL_U", "plus_code": {"compound_code": "P4R7+R2 Chandrapura, Jharkhand, India", "global_code": "7MM8P4R7+R2"}, "rating": 4.5, "reference": "ChIJT37eDT8Y9DkRwul_DLgVL_U", "scope": "GOOGLE", "types": ["school", "point_of_interest", "establishment"], "user_ratings_total": 2, "vicinity": "Chandrapura"}, {"business_status": "OPERATIONAL", "geometry": {"location": {"lat": 23.7464865, "lng": 86.1156697}, "viewport": {"northeast": {"lat": 23.7480506302915, "lng": 86.1170140302915}, "southwest": {"lat": 23.7453526697085, "lng": 86.1143160697085}}}, "icon": "https://maps.gstatic.com/mapfiles/place_api/icons/v1/png_71/school-71.png", "icon_background_color": "#7B9EB0", "icon_mask_base_uri": "https://maps.gstatic.com/mapfiles/place_api/icons/v2/school_pinlet", "name": "Hari om Refrigeration Workshop", "photos": [{"height": 4160, "html_attributions": ["<a href=\"https://maps.google.com/maps/contrib/101624479107357196534\">VIKASH KUMAR</a>"], "photo_reference": "Aap_uEDpAc5efpIZTFX_Fs1flbC37eARNNJAHeQnEObAFnSFSlM3_zcdpZVZXTzMG-4hb3O9A5VQzv590C6DOUu5zi0H69sUI2nnVNbMCZy_ddMFK-KL9xDqTPKRR90Bz8sYoboJDoqxYvRKR3JKk4sRo8fIPyo5SbGgLYDwVzxKNwxM_B4Y", "width": 3120}], "place_id": "ChIJ74Lnoe4Z9DkRlxb0yAAHayU", "plus_code": {"compound_code": "P4W8+H7 Chandrapura, Jharkhand, India", "global_code": "7MM8P4W8+H7"}, "rating": 5, "reference": "ChIJ74Lnoe4Z9DkRlxb0yAAHayU", "scope": "GOOGLE", "types": ["school", "point_of_interest", "establishment"], "user_ratings_total": 2, "vicinity": "13, DVC Colony Road, Shimla Colony, Chandrapura"}, {"business_status": "OPERATIONAL", "geometry": {"location": {"lat": 23.7577153, "lng": 86.109771}, "viewport": {"northeast": {"lat": 23.7591069802915, "lng": 86.11114763029151}, "southwest": {"lat": 23.7564090197085, "lng": 86.10844966970849}}}, "icon": "https://maps.gstatic.com/mapfiles/place_api/icons/v1/png_71/school-71.png", "icon_background_color": "#7B9EB0", "icon_mask_base_uri": "https://maps.gstatic.com/mapfiles/place_api/icons/v2/school_pinlet", "name": "Modern Public School", "place_id": "ChIJnXxVO4gZ9DkRun3d1F7zhSs", "reference": "ChIJnXxVO4gZ9DkRun3d1F7zhSs", "scope": "GOOGLE", "types": ["school", "point_of_interest", "establishment"], "vicinity": "Q455+3WJ, Ghatiari"}, {"business_status": "OPERATIONAL", "geometry": {"location": {"lat": 23.741334, "lng": 86.11210799999999}, "viewport": {"northeast": {"lat": 23.74268243029151, "lng": 86.1134935302915}, "southwest": {"lat": 23.7399844697085, "lng": 86.1107955697085}}}, "icon": "https://maps.gstatic.com/mapfiles/place_api/icons/v1/png_71/school-71.png", "icon_background_color": "#7B9EB0", "icon_mask_base_uri": "https://maps.gstatic.com/mapfiles/place_api/icons/v2/school_pinlet", "name": "birsa saraswati vidya mandir", "opening_hours": {"open_now": false}, "photos": [{"height": 624, "html_attributions": ["<a href=\"https://maps.google.com/maps/contrib/113917000987391498375\">Prasad Sb</a>"], "photo_reference": "Aap_uEAoMg1IR8jegHcmm_S3BlxI5NKLGyE7coQ2MNiGzbIcJBs9FApH5iYg98TS6YhmdlmdJ2l4KRejilJBxCCACDnE8lWHd0NOsDoiJ_gozWR-XmvvlhT-qKbBFCQtXKQ3SiN6ogHrtQZsNhRXHLn3_vn1VPv6bbUBgzFef8byBeKaVEiD", "width": 855}], "place_id": "ChIJU9XUoD8Y9DkR_csgNP6w-M8", "plus_code": {"compound_code": "P4R6+GR Chandrapura, Jharkhand, India", "global_code": "7MM8P4R6+GR"}, "rating": 4.8, "reference": "ChIJU9XUoD8Y9DkR_csgNP6w-M8", "scope": "GOOGLE", "types": ["school", "point_of_interest", "establishment"], "user_ratings_total": 6, "vicinity": "jharnadih, chandrapura, Chandrapura"}, {"business_status": "OPERATIONAL", "geometry": {"location": {"lat": 23.7416272, "lng": 86.11278709999999}, "viewport": {"northeast": {"lat": 23.7430721302915, "lng": 86.1140879302915}, "southwest": {"lat": 23.7403741697085, "lng": 86.11138996970848}}}, "icon": "https://maps.gstatic.com/mapfiles/place_api/icons/v1/png_71/school-71.png", "icon_background_color": "#7B9EB0", "icon_mask_base_uri": "https://maps.gstatic.com/mapfiles/place_api/icons/v2/school_pinlet", "name": "Saraswati Vidya Mandir", "place_id": "ChIJk4w6Cz8Y9DkREbstYlq4TzA", "rating": 3, "reference": "ChIJk4w6Cz8Y9DkREbstYlq4TzA", "scope": "GOOGLE", "types": ["school", "point_of_interest", "establishment"], "user_ratings_total": 3, "vicinity": "P4R7+M43, Chandrapura"}], "status": "OK"}