{"html_attributions": [], "next_page_token": "Aap_uED6yZDrfmoPDH2gxreaYwXAdQUntlP5-zrfl_9ezfdLHiy8r8vw8FmSVIVJgDIB0C6bqSE4XWAVnXqxFye3nCE5f22mDPgzGjdmyJgpFLspDaDw89r4XdJYblUYbbu83CM9P4JbRyZZ5ti_IHiWXRXgR2M6gxT33KNoZXU2QIC7nZyMYGI9g_AVp9fbcnMg8Xtkw7Hny1mt-gETWd5qIbBCvGXStiViB_7sW2D1GxhV6RVdny5wLa5BxRjqz8jO85nNRuptLdjin-e30Pmv-K6E_Jq_KTDzx3dGMI2YFH24KFc_cUpqgUdQMI1IRtWOMl0fZQR0Qsb2N-Az-qO2V8OJdRz46EBbaqpCgXwpUNUOZ3GuXxUF_uoUiWmDT8IKamwvBUbVPp3tnNCRx72AFQl9pvl_y-klRueNlWoc8aSoSeS5C8I", "results": [{"business_status": "OPERATIONAL", "geometry": {"location": {"lat": 23.6477659, "lng": 86.1187667}, "viewport": {"northeast": {"lat": 23.6491128302915, "lng": 86.1201221802915}, "southwest": {"lat": 23.64641486970849, "lng": 86.11742421970848}}}, "icon": "https://maps.gstatic.com/mapfiles/place_api/icons/v1/png_71/school-71.png", "icon_background_color": "#7B9EB0", "icon_mask_base_uri": "https://maps.gstatic.com/mapfiles/place_api/icons/v2/school_pinlet", "name": "ARS Public School", "opening_hours": {"open_now": false}, "photos": [{"height": 854, "html_attributions": ["<a href=\"https://maps.google.com/maps/contrib/112368988229831322737\">Vaibhav Kumar</a>"], "photo_reference": "Aap_uEBlH_nkKXKdmuAFdH1MB0rCM1_CJZdmUzoaQTIQ5zI-JSUmBNHgdq6UbZNdU8TJfW-phcWKxYc_7KgnYf90En7ySRrMoYGfouhGvwFO9y3XrX6JnenV8OAXAeRYKpT2Z6hhaSz_G5tAWJWhnMGtlM7407hH3e7XkRUhvlNlld3Dsog", "width": 1280}], "place_id": "ChIJ6UgXcxQj9DkRhNSUq-eGLM8", "plus_code": {"compound_code": "J4X9+4G Bokaro Steel City, Jharkhand, India", "global_code": "7MM8J4X9+4G"}, "rating": 4, "reference": "ChIJ6UgXcxQj9DkRhNSUq-eGLM8", "scope": "GOOGLE", "types": ["school", "point_of_interest", "establishment"], "user_ratings_total": 73, "vicinity": "BSL LH, Lakda Khanda, Bokaro Steel City"}, {"business_status": "OPERATIONAL", "geometry": {"location": {"lat": 23.6474723, "lng": 86.13401429999999}, "viewport": {"northeast": {"lat": 23.64836598029151, "lng": 86.1354044802915}, "southwest": {"lat": 23.64566801970851, "lng": 86.13270651970849}}}, "icon": "https://maps.gstatic.com/mapfiles/place_api/icons/v1/png_71/school-71.png", "icon_background_color": "#7B9EB0", "icon_mask_base_uri": "https://maps.gstatic.com/mapfiles/place_api/icons/v2/school_pinlet", "name": "F1 PreSchool", "photos": [{"height": 450, "html_attributions": ["<a href=\"https://maps.google.com/maps/contrib/104123153079754358583\">Manoj Kumar Singh</a>"], "photo_reference": "Aap_uEBttwB9I-lCggxmWCGcErmZgazi8jqtuloaE-zd8RSbE0UYAY5GrP1c_Y7FlbERDwsv5ujC-uwncleoDBHFoaQIvonsRQGQ6GW5K_ejxn5sYLAZXW4_nyvCOSGi609ROgrxAy9v1XC0M9hm-Fmt-ZmfM5Qj9wkrq2LY9aFTT-Bi9ZXB", "width": 600}], "place_id": "ChIJ3UbPgAoj9DkRmByt-KaFTvk", "plus_code": {"compound_code": "J4WM+XJ Bokaro Steel City, Jharkhand, India", "global_code": "7MM8J4WM+XJ"}, "rating": 4.7, "reference": "ChIJ3UbPgAoj9DkRmByt-KaFTvk", "scope": "GOOGLE", "types": ["school", "point_of_interest", "establishment"], "user_ratings_total": 6, "vicinity": "185, Co-operative Colony Road, Cooperative Colony, Bokaro Steel City"}, {"business_status": "OPERATIONAL", "geometry": {"location": {"lat": 23.6405904, "lng": 86.1179423}, "viewport": {"northeast": {"lat": 23.6421118302915, "lng": 86.1191247802915}, "southwest": {"lat": 23.6394138697085, "lng": 86.1164268197085}}}, "icon": "https://maps.gstatic.com/mapfiles/place_api/icons/v1/png_71/school-71.png", "icon_background_color": "#7B9EB0", "icon_mask_base_uri": "https://maps.gstatic.com/mapfiles/place_api/icons/v2/school_pinlet", "name": "Anganwadi Centre", "place_id": "ChIJfeNLdWsj9DkR20OQFW5IlZE", "rating": 1.5, "reference": "ChIJfeNLdWsj9DkR20OQFW5IlZE", "scope": "GOOGLE", "types": ["school", "point_of_interest", "establishment"], "user_ratings_total": 2, "vicinity": "J4R9+65P, Ritudih, Bokaro Steel City"}, {"business_status": "OPERATIONAL", "geometry": {"location": {"lat": 23.6468578, "lng": 86.1229812}, "viewport": {"northeast": {"lat": 23.6481474302915, "lng": 86.1243073802915}, "southwest": {"lat": 23.6454494697085, "lng": 86.12160941970849}}}, "icon": "https://maps.gstatic.com/mapfiles/place_api/icons/v1/png_71/school-71.png", "icon_background_color": "#7B9EB0", "icon_mask_base_uri": "https://maps.gstatic.com/mapfiles/place_api/icons/v2/school_pinlet", "name": "5 street group", "place_id": "ChIJPwf2eooj9DkRmXIpYHQAGbk", "plus_code": {"compound_code": "J4WF+P5 Bokaro Steel City, Jharkhand, India", "global_code": "7MM8J4WF+P5"}, "reference": "ChIJPwf2eooj9DkRmXIpYHQAGbk", "scope": "GOOGLE", "types": ["school", "point_of_interest", "establishment"], "vicinity": "Lakda Khanda, Bokaro Steel City"}, {"business_status": "OPERATIONAL", "geometry": {"location": {"lat": 23.6464136, "lng": 86.12260669999999}, "viewport": {"northeast": {"lat": 23.6478091302915, "lng": 86.12397308029149}, "southwest": {"lat": 23.6451111697085, "lng": 86.12127511970849}}}, "icon": "https://maps.gstatic.com/mapfiles/place_api/icons/v1/png_71/school-71.png", "icon_background_color": "#7B9EB0", "icon_mask_base_uri": "https://maps.gstatic.com/mapfiles/place_api/icons/v2/school_pinlet", "name": "Prathmik Vidyalaya", "place_id": "ChIJvytc9hIj9DkRhVf0jMknhSg", "rating": 5, "reference": "ChIJvytc9hIj9DkRhVf0jMknhSg", "scope": "GOOGLE", "types": ["school", "point_of_interest", "establishment"], "user_ratings_total": 1, "vicinity": "J4WF+H29, Lakda Khanda, Bokaro Steel City"}, {"business_status": "OPERATIONAL", "geometry": {"location": {"lat": 23.6519712, "lng": 86.1215872}, "viewport": {"northeast": {"lat": 23.6530460302915, "lng": 86.12309398029151}, "southwest": {"lat": 23.6503480697085, "lng": 86.1203960197085}}}, "icon": "https://maps.gstatic.com/mapfiles/place_api/icons/v1/png_71/school-71.png", "icon_background_color": "#7B9EB0", "icon_mask_base_uri": "https://maps.gstatic.com/mapfiles/place_api/icons/v2/school_pinlet", "name": "Teaching", "place_id": "ChIJz40CBxEj9DkRAAAA0K1evAo", "reference": "ChIJz40CBxEj9DkRAAAA0K1evAo", "scope": "GOOGLE", "types": ["school", "point_of_interest", "establishment"], "vicinity": "M42C+QJP, Lakda Khanda, Bokaro Steel City"}, {"business_status": "OPERATIONAL", "geometry": {"location": {"lat": 23.6461743, "lng": 86.12147209999999}, "viewport": {"northeast": {"lat": 23.6475125302915, "lng": 86.12281668029152}, "southwest": {"lat": 23.6448145697085, "lng": 86.1201187197085}}}, "icon": "https://maps.gstatic.com/mapfiles/place_api/icons/v1/png_71/school-71.png", "icon_background_color": "#7B9EB0", "icon_mask_base_uri": "https://maps.gstatic.com/mapfiles/place_api/icons/v2/school_pinlet", "name": "MBN Public School", "photos": [{"height": 1238, "html_attributions": ["<a href=\"https://maps.google.com/maps/contrib/114962532999088173361\">mukesh Raj</a>"], "photo_reference": "Aap_uEBfcRH_H9UmMy1zeiD6ae9w5dyyIMBF5FowZhcZQ4WYkqG0R78-yhhQuV7FfXMFfS5mwmuxQy-sXGRZxvJhFrrrNfFGUEOt-_e-zbCBE3llwk_TjfGoAl3fJcoD9kz6sDZyBpYZ1sE_ynR2iPcCnblIKDm9c8KLAQjwtPKyaUVxmZLa", "width": 1258}], "place_id": "ChIJw5oGBBMj9DkRwzMkn-2wX3I", "rating": 3, "reference": "ChIJw5oGBBMj9DkRwzMkn-2wX3I", "scope": "GOOGLE", "types": ["school", "point_of_interest", "establishment"], "user_ratings_total": 6, "vicinity": "J4WC+FH9, Lakda Khanda, Bokaro Steel City"}, {"business_status": "OPERATIONAL", "geometry": {"location": {"lat": 23.64530999999999, "lng": 86.12196829999999}, "viewport": {"northeast": {"lat": 23.6466408802915, "lng": 86.12330953029151}, "southwest": {"lat": 23.6439429197085, "lng": 86.1206115697085}}}, "icon": "https://maps.gstatic.com/mapfiles/place_api/icons/v1/png_71/school-71.png", "icon_background_color": "#7B9EB0", "icon_mask_base_uri": "https://maps.gstatic.com/mapfiles/place_api/icons/v2/school_pinlet", "name": "\u0906\u0917\u0928\u0935\u093e\u0921\u093c\u0940 \u0915\u0947\u0902\u0926\u094d\u0930", "place_id": "ChIJF5rQVEcj9DkRWRVBnh79f2M", "plus_code": {"compound_code": "J4WC+4Q Bokaro Steel City, Jharkhand, India", "global_code": "7MM8J4WC+4Q"}, "reference": "ChIJF5rQVEcj9DkRWRVBnh79f2M", "scope": "GOOGLE", "types": ["school", "point_of_interest", "establishment"], "vicinity": "Road No. 5, Lakda Khanda, Bokaro Steel City"}, {"business_status": "OPERATIONAL", "geometry": {"location": {"lat": 23.65249499999999, "lng": 86.1217424}, "viewport": {"northeast": {"lat": 23.6535650802915, "lng": 86.12348613029151}, "southwest": {"lat": 23.65086711970849, "lng": 86.12078816970849}}}, "icon": "https://maps.gstatic.com/mapfiles/place_api/icons/v1/png_71/school-71.png", "icon_background_color": "#7B9EB0", "icon_mask_base_uri": "https://maps.gstatic.com/mapfiles/place_api/icons/v2/school_pinlet", "name": "ARS D.EL.Ed College", "place_id": "ChIJ_____xAj9DkR2JWOfXyn9XY", "rating": 3, "reference": "ChIJ_____xAj9DkR2JWOfXyn9XY", "scope": "GOOGLE", "types": ["school", "point_of_interest", "establishment"], "user_ratings_total": 1, "vicinity": "M42C+XMX, Lakda Khanda, Bokaro Steel City"}, {"business_status": "OPERATIONAL", "geometry": {"location": {"lat": 23.6513214, "lng": 86.12055749999999}, "viewport": {"northeast": {"lat": 23.6528165302915, "lng": 86.1219948802915}, "southwest": {"lat": 23.6501185697085, "lng": 86.11929691970848}}}, "icon": "https://maps.gstatic.com/mapfiles/place_api/icons/v1/png_71/school-71.png", "icon_background_color": "#7B9EB0", "icon_mask_base_uri": "https://maps.gstatic.com/mapfiles/place_api/icons/v2/school_pinlet", "name": "Primary School", "place_id": "ChIJlbbdFREj9DkRI08O1BKRT78", "reference": "ChIJlbbdFREj9DkRI08O1BKRT78", "scope": "GOOGLE", "types": ["primary_school", "school", "point_of_interest", "establishment"], "vicinity": "M42C+G6F, Lakda Khanda, Bokaro Steel City"}, {"business_status": "OPERATIONAL", "geometry": {"location": {"lat": 23.6481779, "lng": 86.1320221}, "viewport": {"northeast": {"lat": 23.6495557802915, "lng": 86.13331243029151}, "southwest": {"lat": 23.6468578197085, "lng": 86.13061446970849}}}, "icon": "https://maps.gstatic.com/mapfiles/place_api/icons/v1/png_71/school-71.png", "icon_background_color": "#7B9EB0", "icon_mask_base_uri": "https://maps.gstatic.com/mapfiles/place_api/icons/v2/school_pinlet", "name": "Neo Medics Nursing School", "opening_hours": {"open_now": true}, "place_id": "ChIJebPUOegj9DkRKI-c0Xq6wWI", "plus_code": {"compound_code": "J4XJ+7R Bokaro Steel City, Jharkhand, India", "global_code": "7MM8J4XJ+7R"}, "reference": "ChIJebPUOegj9DkRKI-c0Xq6wWI", "scope": "GOOGLE", "types": ["university", "school", "point_of_interest", "establishment"], "vicinity": "Bari Mahan Mohan, Cooperative Colony, Bokaro Steel City"}, {"business_status": "OPERATIONAL", "geometry": {"location": {"lat": 23.6455739, "lng": 86.12117540000001}, "viewport": {"northeast": {"lat": 23.6469233302915, "lng": 86.12252458029151}, "southwest": {"lat": 23.6442253697085, "lng": 86.11982661970849}}}, "icon": "https://maps.gstatic.com/mapfiles/place_api/icons/v1/png_71/school-71.png", "icon_background_color": "#7B9EB0", "icon_mask_base_uri": "https://maps.gstatic.com/mapfiles/place_api/icons/v2/school_pinlet", "name": "BVK Public School", "place_id": "ChIJF9qIEBMj9DkRU0CBoe0gSvE", "plus_code": {"compound_code": "J4WC+6F Bokaro Steel City, Jharkhand, India", "global_code": "7MM8J4WC+6F"}, "rating": 4.8, "reference": "ChIJF9qIEBMj9DkRU0CBoe0gSvE", "scope": "GOOGLE", "types": ["school", "point_of_interest", "establishment"], "user_ratings_total": 4, "vicinity": "Lakda Khanda, Bokaro Steel City"}, {"business_status": "OPERATIONAL", "geometry": {"location": {"lat": 23.649117, "lng": 86.1325293}, "viewport": {"northeast": {"lat": 23.6504799802915, "lng": 86.1338840802915}, "southwest": {"lat": 23.64778201970849, "lng": 86.13118611970849}}}, "icon": "https://maps.gstatic.com/mapfiles/place_api/icons/v1/png_71/school-71.png", "icon_background_color": "#7B9EB0", "icon_mask_base_uri": "https://maps.gstatic.com/mapfiles/place_api/icons/v2/school_pinlet", "name": "Satellite Coaching Center", "place_id": "ChIJm4vxLwoj9DkRgBLNrTCHtkU", "plus_code": {"compound_code": "J4XM+J2 Bokaro Steel City, Jharkhand, India", "global_code": "7MM8J4XM+J2"}, "reference": "ChIJm4vxLwoj9DkRgBLNrTCHtkU", "scope": "GOOGLE", "types": ["school", "point_of_interest", "establishment"], "vicinity": "Plot No. 134, Plot No. 134, Co-Operative Colony, Police Line, Bokaro Steel City"}, {"business_status": "OPERATIONAL", "geometry": {"location": {"lat": 23.6476941, "lng": 86.1192968}, "viewport": {"northeast": {"lat": 23.6490098302915, "lng": 86.12063143029151}, "southwest": {"lat": 23.6463118697085, "lng": 86.11793346970849}}}, "icon": "https://maps.gstatic.com/mapfiles/place_api/icons/v1/png_71/school-71.png", "icon_background_color": "#7B9EB0", "icon_mask_base_uri": "https://maps.gstatic.com/mapfiles/place_api/icons/v2/school_pinlet", "name": "ARS B.Ed. College", "opening_hours": {"open_now": false}, "photos": [{"height": 1080, "html_attributions": ["<a href=\"https://maps.google.com/maps/contrib/109322099151781387268\">Bimal Pingua</a>"], "photo_reference": "Aap_uEA--p65DHOy97z8tr-ZGv1NjxRcXXbLYb5QGpuqXn4xt9zu__I2ii_wcp-xhp77D5mG0l-G-IZg9gqft63fv-TF1BgujzOavzfxn63rtW6tvesoDr8ODjZ8N7mLkoPNL0ju8IYZaP0sihDPPW4N-eJF-gGBYChaDjp06QVeZlp1avRt", "width": 1920}], "place_id": "ChIJucPTlRMj9DkRjcXjvywPzgo", "plus_code": {"compound_code": "J4X9+3P Bokaro Steel City, Jharkhand, India", "global_code": "7MM8J4X9+3P"}, "rating": 3.8, "reference": "ChIJucPTlRMj9DkRjcXjvywPzgo", "scope": "GOOGLE", "types": ["school", "point_of_interest", "establishment"], "user_ratings_total": 9, "vicinity": "LH Street 8, Lakda Khanda, Bokaro Steel City"}, {"business_status": "OPERATIONAL", "geometry": {"location": {"lat": 23.6477512, "lng": 86.11922280000002}, "viewport": {"northeast": {"lat": 23.64909528029151, "lng": 86.1205697302915}, "southwest": {"lat": 23.6463973197085, "lng": 86.1178717697085}}}, "icon": "https://maps.gstatic.com/mapfiles/place_api/icons/v1/png_71/school-71.png", "icon_background_color": "#7B9EB0", "icon_mask_base_uri": "https://maps.gstatic.com/mapfiles/place_api/icons/v2/school_pinlet", "name": "ARS D.EEd College", "place_id": "ChIJ-UN6ihMj9DkRfvnXy9Gq09I", "reference": "ChIJ-UN6ihMj9DkRfvnXy9Gq09I", "scope": "GOOGLE", "types": ["school", "point_of_interest", "establishment"], "vicinity": "J4X9+4M5, Lakda Khanda, Bokaro Steel City"}, {"business_status": "OPERATIONAL", "geometry": {"location": {"lat": 23.6443431, "lng": 86.1314749}, "viewport": {"northeast": {"lat": 23.6457968802915, "lng": 86.13288413029152}, "southwest": {"lat": 23.6430989197085, "lng": 86.13018616970851}}}, "icon": "https://maps.gstatic.com/mapfiles/place_api/icons/v1/png_71/school-71.png", "icon_background_color": "#7B9EB0", "icon_mask_base_uri": "https://maps.gstatic.com/mapfiles/place_api/icons/v2/school_pinlet", "name": "Friendale School", "place_id": "ChIJLd3jGwsj9DkRTRPxBvJJoHQ", "plus_code": {"compound_code": "J4VJ+PH Bokaro Steel City, Jharkhand, India", "global_code": "7MM8J4VJ+PH"}, "rating": 5, "reference": "ChIJLd3jGwsj9DkRTRPxBvJJoHQ", "scope": "GOOGLE", "types": ["school", "point_of_interest", "establishment"], "user_ratings_total": 3, "vicinity": "375, National Highway 23, Cooperative Colony, Bokaro Steel City"}, {"business_status": "OPERATIONAL", "geometry": {"location": {"lat": 23.6493736, "lng": 86.1336828}, "viewport": {"northeast": {"lat": 23.6507500302915, "lng": 86.1349754802915}, "southwest": {"lat": 23.64805206970849, "lng": 86.1322775197085}}}, "icon": "https://maps.gstatic.com/mapfiles/place_api/icons/v1/png_71/school-71.png", "icon_background_color": "#7B9EB0", "icon_mask_base_uri": "https://maps.gstatic.com/mapfiles/place_api/icons/v2/school_pinlet", "name": "Bal Mandir", "place_id": "ChIJjbZ1Gwoj9DkR0G3cSIMa4o4", "plus_code": {"compound_code": "J4XM+PF Bokaro Steel City, Jharkhand, India", "global_code": "7MM8J4XM+PF"}, "rating": 4.7, "reference": "ChIJjbZ1Gwoj9DkR0G3cSIMa4o4", "scope": "GOOGLE", "types": ["school", "point_of_interest", "establishment"], "user_ratings_total": 3, "vicinity": "Cooperative Colony, B.S City, Bokaro Steel City"}, {"business_status": "OPERATIONAL", "geometry": {"location": {"lat": 23.6476097, "lng": 86.1337392}, "viewport": {"northeast": {"lat": 23.6489363302915, "lng": 86.1351332302915}, "southwest": {"lat": 23.6462383697085, "lng": 86.1324352697085}}}, "icon": "https://maps.gstatic.com/mapfiles/place_api/icons/v1/png_71/school-71.png", "icon_background_color": "#7B9EB0", "icon_mask_base_uri": "https://maps.gstatic.com/mapfiles/place_api/icons/v2/school_pinlet", "name": "Sansar Kids", "place_id": "ChIJ8Q9iZQoj9DkR0dxl9bOXyAA", "plus_code": {"compound_code": "J4XM+2F Bokaro Steel City, Jharkhand, India", "global_code": "7MM8J4XM+2F"}, "reference": "ChIJ8Q9iZQoj9DkR0dxl9bOXyAA", "scope": "GOOGLE", "types": ["school", "point_of_interest", "establishment"], "vicinity": "160, Co-operative Colony Road, Police Line, Bokaro Steel City"}, {"business_status": "OPERATIONAL", "geometry": {"location": {"lat": 23.6442198, "lng": 86.1320725}, "viewport": {"northeast": {"lat": 23.6455996302915, "lng": 86.13335093029151}, "southwest": {"lat": 23.6429016697085, "lng": 86.13065296970849}}}, "icon": "https://maps.gstatic.com/mapfiles/place_api/icons/v1/png_71/school-71.png", "icon_background_color": "#7B9EB0", "icon_mask_base_uri": "https://maps.gstatic.com/mapfiles/place_api/icons/v2/school_pinlet", "name": "Spark Activity Centre", "opening_hours": {"open_now": true}, "photos": [{"height": 1280, "html_attributions": ["<a href=\"https://maps.google.com/maps/contrib/104362638098236693379\">Spark Dance Studio</a>"], "photo_reference": "Aap_uEC-kIySAXS7Q7OAOZyzqiSf9E5wzV8xRkNiHj_9I5bTRteSNk2M_YBKi9YLpMXWGn9LGT58q8HjvaBGKo6vFQotBs1EtV0G2wV4eOZAA9UyOe4JEI_uewS1LCXGnw8aCpWANZd9rClMjkJXCAgAdv7j1aw57sNL78R6Rw1ADp5-2dFr", "width": 720}], "place_id": "ChIJAwZ_1goj9DkRnbJ0b0rzOQI", "plus_code": {"compound_code": "J4VJ+MR Bokaro Steel City, Jharkhand, India", "global_code": "7MM8J4VJ+MR"}, "rating": 5, "reference": "ChIJAwZ_1goj9DkRnbJ0b0rzOQI", "scope": "GOOGLE", "types": ["school", "point_of_interest", "establishment"], "user_ratings_total": 5, "vicinity": "Plot No. 371, Cooperative Colony, Bokaro Steel City"}, {"business_status": "OPERATIONAL", "geometry": {"location": {"lat": 23.6416314, "lng": 86.12540179999999}, "viewport": {"northeast": {"lat": 23.6429453802915, "lng": 86.12675118029149}, "southwest": {"lat": 23.6402474197085, "lng": 86.12405321970849}}}, "icon": "https://maps.gstatic.com/mapfiles/place_api/icons/v1/png_71/school-71.png", "icon_background_color": "#7B9EB0", "icon_mask_base_uri": "https://maps.gstatic.com/mapfiles/place_api/icons/v2/school_pinlet", "name": "Ankit Guitar Classes", "opening_hours": {"open_now": false}, "photos": [{"height": 1321, "html_attributions": ["<a href=\"https://maps.google.com/maps/contrib/118424981146165838413\">Ankit Guitar Classes</a>"], "photo_reference": "Aap_uEBoC4GP1xIbhOiUeRsiCHbD0oEIll4H_fP0SbZx-F3vH-obN-RRlX46E0zEr4C5AoBlTIM7bJRiZvW5GlLTUSBrm4ejbVANG1YlXcVJtH5yRJbLUnQ8h5n2aYPdhITu3ZUxrmKQTPZWAcSozkJLXXiNJJATgHSmxWEC62IufW-qhj-n", "width": 1080}], "place_id": "ChIJH4FtxSMj9DkReRi745M5ncM", "plus_code": {"compound_code": "J4RG+M5 Bokaro Steel City, Jharkhand, India", "global_code": "7MM8J4RG+M5"}, "rating": 4, "reference": "ChIJH4FtxSMj9DkReRi745M5ncM", "scope": "GOOGLE", "types": ["school", "point_of_interest", "establishment"], "user_ratings_total": 1, "vicinity": "Bhatatola, New Birsa nagar, Bokaro Steel City"}], "status": "OK"}