{"html_attributions": [], "results": [{"business_status": "OPERATIONAL", "geometry": {"location": {"lat": 23.6734798, "lng": 86.1293793}, "viewport": {"northeast": {"lat": 23.6748394302915, "lng": 86.1300586802915}, "southwest": {"lat": 23.6721414697085, "lng": 86.12736071970849}}}, "icon": "https://maps.gstatic.com/mapfiles/place_api/icons/v1/png_71/school-71.png", "icon_background_color": "#7B9EB0", "icon_mask_base_uri": "https://maps.gstatic.com/mapfiles/place_api/icons/v2/school_pinlet", "name": "De Nobili School", "place_id": "ChIJraqqqv4i9DkRfnxVA83mGDU", "rating": 2, "reference": "ChIJraqqqv4i9DkRfnxVA83mGDU", "scope": "GOOGLE", "types": ["school", "point_of_interest", "establishment"], "user_ratings_total": 2, "vicinity": "M4FH+9QR, Marafari, Bokaro Steel City"}, {"business_status": "OPERATIONAL", "geometry": {"location": {"lat": 23.67348, "lng": 86.129379}, "viewport": {"northeast": {"lat": 23.6748396302915, "lng": 86.1300585302915}, "southwest": {"lat": 23.67214166970849, "lng": 86.12736056970849}}}, "icon": "https://maps.gstatic.com/mapfiles/place_api/icons/v1/png_71/school-71.png", "icon_background_color": "#7B9EB0", "icon_mask_base_uri": "https://maps.gstatic.com/mapfiles/place_api/icons/v2/school_pinlet", "name": "Jolly Kids Pre school Franchiser", "photos": [{"height": 267, "html_attributions": ["<a href=\"https://maps.google.com/maps/contrib/112306130778738748095\">Jolly Kids Pre school Franchiser</a>"], "photo_reference": "Aap_uECRZM-gv0eGN_emgMgKp3sgUk7jLC115olYP04VL8Fpz5_Do80O_z66DHsQeqbM4sEwaZzxCxR01amY8y-bp7YkgvilPAD_pYt616uSPTSPNou5UC4i8YmsjhIFJSbIJpmS93kOzvWzTeaZt0CmHlZaHtWEIhqNrRWxa8WloRX_kW3y", "width": 652}], "place_id": "ChIJ7_____si9DkRoBt65yMBWzE", "plus_code": {"compound_code": "M4FH+9Q Bokaro Steel City, Jharkhand, India", "global_code": "7MM8M4FH+9Q"}, "rating": 5, "reference": "ChIJ7_____si9DkRoBt65yMBWzE", "scope": "GOOGLE", "types": ["school", "point_of_interest", "establishment"], "user_ratings_total": 1, "vicinity": "qurter no.-2182 ,street-3,sec-2D, near durga puja ground sec 2c, Bokaro Steel City"}, {"business_status": "OPERATIONAL", "geometry": {"location": {"lat": 23.6736393, "lng": 86.12871020000001}, "viewport": {"northeast": {"lat": 23.6749935802915, "lng": 86.12972553029151}, "southwest": {"lat": 23.6722956197085, "lng": 86.1270275697085}}}, "icon": "https://maps.gstatic.com/mapfiles/place_api/icons/v1/png_71/school-71.png", "icon_background_color": "#7B9EB0", "icon_mask_base_uri": "https://maps.gstatic.com/mapfiles/place_api/icons/v2/school_pinlet", "name": "S.R.Public School", "place_id": "ChIJDZWK_Xoj9DkRda1nXDUN98c", "plus_code": {"compound_code": "M4FH+FF Bokaro Steel City, Jharkhand, India", "global_code": "7MM8M4FH+FF"}, "reference": "ChIJDZWK_Xoj9DkRda1nXDUN98c", "scope": "GOOGLE", "types": ["school", "point_of_interest", "establishment"], "vicinity": "Qr. no. 1181"}, {"business_status": "OPERATIONAL", "geometry": {"location": {"lat": 23.6734798, "lng": 86.1293792}, "viewport": {"northeast": {"lat": 23.6748394302915, "lng": 86.1300586302915}, "southwest": {"lat": 23.67214146970849, "lng": 86.1273606697085}}}, "icon": "https://maps.gstatic.com/mapfiles/place_api/icons/v1/png_71/school-71.png", "icon_background_color": "#7B9EB0", "icon_mask_base_uri": "https://maps.gstatic.com/mapfiles/place_api/icons/v2/school_pinlet", "name": "Anurag Guitar Classes", "opening_hours": {"open_now": true}, "place_id": "ChIJDWy4hHoj9DkRSyBeygpJ2L8", "plus_code": {"compound_code": "M4FH+9Q Bokaro Steel City, Jharkhand, India", "global_code": "7MM8M4FH+9Q"}, "rating": 5, "reference": "ChIJDWy4hHoj9DkRSyBeygpJ2L8", "scope": "GOOGLE", "types": ["school", "point_of_interest", "establishment"], "user_ratings_total": 4, "vicinity": "Sec 2d Qtr no - 3-032, Bokaro Steel City"}, {"business_status": "CLOSED_TEMPORARILY", "geometry": {"location": {"lat": 23.6734812, "lng": 86.12938090000002}, "viewport": {"northeast": {"lat": 23.6748401302915, "lng": 86.13005948029151}, "southwest": {"lat": 23.67214216970849, "lng": 86.1273615197085}}}, "icon": "https://maps.gstatic.com/mapfiles/place_api/icons/v1/png_71/school-71.png", "icon_background_color": "#7B9EB0", "icon_mask_base_uri": "https://maps.gstatic.com/mapfiles/place_api/icons/v2/school_pinlet", "name": "Oriental Foundation School", "permanently_closed": true, "place_id": "ChIJq6qqqv4i9DkRidw_Uww2nVM", "plus_code": {"compound_code": "M4FH+9Q Bokaro Steel City, Jharkhand, India", "global_code": "7MM8M4FH+9Q"}, "rating": 4, "reference": "ChIJq6qqqv4i9DkRidw_Uww2nVM", "scope": "GOOGLE", "types": ["school", "point_of_interest", "establishment"], "user_ratings_total": 1, "vicinity": "Cooling Pond 2, Marafari, Bokaro Steel City"}, {"business_status": "OPERATIONAL", "geometry": {"location": {"lat": 23.67610699999999, "lng": 86.1259858}, "viewport": {"northeast": {"lat": 23.6775447802915, "lng": 86.1273892302915}, "southwest": {"lat": 23.6748468197085, "lng": 86.12469126970849}}}, "icon": "https://maps.gstatic.com/mapfiles/place_api/icons/v1/png_71/school-71.png", "icon_background_color": "#7B9EB0", "icon_mask_base_uri": "https://maps.gstatic.com/mapfiles/place_api/icons/v2/school_pinlet", "name": "PACE IIT & MEDICAL", "place_id": "ChIJi5BDHPsi9DkR6HFjJijnivc", "plus_code": {"compound_code": "M4GG+C9 Bokaro Steel City, Jharkhand, India", "global_code": "7MM8M4GG+C9"}, "rating": 4.5, "reference": "ChIJi5BDHPsi9DkR6HFjJijnivc", "scope": "GOOGLE", "types": ["school", "point_of_interest", "establishment"], "user_ratings_total": 2, "vicinity": "Unnamed Road, Bokaro Steel City"}, {"business_status": "OPERATIONAL", "geometry": {"location": {"lat": 23.657836, "lng": 86.129164}, "viewport": {"northeast": {"lat": 23.6591431302915, "lng": 86.1306304302915}, "southwest": {"lat": 23.65644516970849, "lng": 86.1279324697085}}}, "icon": "https://maps.gstatic.com/mapfiles/place_api/icons/v1/png_71/school-71.png", "icon_background_color": "#7B9EB0", "icon_mask_base_uri": "https://maps.gstatic.com/mapfiles/place_api/icons/v2/school_pinlet", "name": "Gurukul Kids Camps Nursery School by Renu Singh", "opening_hours": {"open_now": false}, "photos": [{"height": 720, "html_attributions": ["<a href=\"https://maps.google.com/maps/contrib/101690017107584372226\">Gurukul Kids Camps Nursery School by Renu Singh</a>"], "photo_reference": "Aap_uEDfUm94zH9zalHKdrtMXRAM5AGH5vyHUDYqTem-xVcApJpRJ5KfUVenk-ZvjlLh0t4tkdZPMG0IGgUis6akTcJ7zkSK_UQPj-dkql9t7l3OcaeXmpUQQtLFUcNW2YRAznMM00gZlLSWtz_AnJW4vaXuEBQLI6EqwFh8fSvEuxElfMw1", "width": 1280}], "place_id": "ChIJPUTb2QUj9DkRAWAWP771CDc", "plus_code": {"compound_code": "M45H+4M Bokaro Steel City, Jharkhand, India", "global_code": "7MM8M45H+4M"}, "rating": 5, "reference": "ChIJPUTb2QUj9DkRAWAWP771CDc", "scope": "GOOGLE", "types": ["school", "point_of_interest", "establishment"], "user_ratings_total": 5, "vicinity": "Sector 2D, Quarter No.- 3-185, Street No.- 6, Bokaro Steel City"}], "status": "OK"}