{"html_attributions": [], "results": [{"business_status": "OPERATIONAL", "geometry": {"location": {"lat": 23.7085232, "lng": 86.12825989999999}, "viewport": {"northeast": {"lat": 23.7098443302915, "lng": 86.12961053029152}, "southwest": {"lat": 23.70714636970849, "lng": 86.1269125697085}}}, "icon": "https://maps.gstatic.com/mapfiles/place_api/icons/v1/png_71/school-71.png", "icon_background_color": "#7B9EB0", "icon_mask_base_uri": "https://maps.gstatic.com/mapfiles/place_api/icons/v2/school_pinlet", "name": "Kendwadih shashi", "place_id": "ChIJg_eiwFkj9DkRr3V5NDNwF1k", "plus_code": {"compound_code": "P45H+C8 Bokaro Steel City, Jharkhand, India", "global_code": "7MM8P45H+C8"}, "reference": "ChIJg_eiwFkj9DkRr3V5NDNwF1k", "scope": "GOOGLE", "types": ["school", "point_of_interest", "establishment"], "vicinity": "Kanfatta, Kenduadih"}, {"business_status": "OPERATIONAL", "geometry": {"location": {"lat": 23.7042861, "lng": 86.12123679999999}, "viewport": {"northeast": {"lat": 23.7058704802915, "lng": 86.1224644802915}, "southwest": {"lat": 23.7031725197085, "lng": 86.11976651970849}}}, "icon": "https://maps.gstatic.com/mapfiles/place_api/icons/v1/png_71/school-71.png", "icon_background_color": "#7B9EB0", "icon_mask_base_uri": "https://maps.gstatic.com/mapfiles/place_api/icons/v2/school_pinlet", "name": "Government School, Pipratand", "photos": [{"height": 3096, "html_attributions": ["<a href=\"https://maps.google.com/maps/contrib/102570802826322788262\">Seema Kumari</a>"], "photo_reference": "Aap_uEAImJV22r_uz9XKfPadW7iJWsD0RaBux-ka1XXNXwTJ3MwfX-JonYFRQjM0bp6Tp6gVUjp19aACiICV0dsgHptGDz49DDH8EoC_BoZT6zjKnElCGAP0paUgv89bQrZt_loXLBTe5KKHAUVjl4H9a4xsGA3f7FppqC0V078iiqOAFbnW", "width": 4128}], "place_id": "ChIJ9dusZ5oi9DkRc5Ho94LgKhQ", "plus_code": {"compound_code": "P43C+PF Pipratand, Jharkhand, India", "global_code": "7MM8P43C+PF"}, "reference": "ChIJ9dusZ5oi9DkRc5Ho94LgKhQ", "scope": "GOOGLE", "types": ["school", "point_of_interest", "establishment"], "vicinity": "827009, Pipratand, Sondiha"}, {"business_status": "OPERATIONAL", "geometry": {"location": {"lat": 23.7042768, "lng": 86.1212321}, "viewport": {"northeast": {"lat": 23.7058891802915, "lng": 86.12249608029151}, "southwest": {"lat": 23.7031912197085, "lng": 86.11979811970849}}}, "icon": "https://maps.gstatic.com/mapfiles/place_api/icons/v1/png_71/school-71.png", "icon_background_color": "#7B9EB0", "icon_mask_base_uri": "https://maps.gstatic.com/mapfiles/place_api/icons/v2/school_pinlet", "name": "Pipartand Primary School", "photos": [{"height": 1920, "html_attributions": ["<a href=\"https://maps.google.com/maps/contrib/104951099912686403694\">ZIYAUL HAQUE</a>"], "photo_reference": "Aap_uEBbXc_Tje6HpOUulGoPJBFI5Ry3hYTFF3PE69iFL6Y_uYdZ-IJ6NFuQ85SM6Jy_OUrpW1G8Q0WnGDbPs8MiZ1jgetna-TTxVG6zw-tjIc7RDLT0tAjgYCgfEgaWucMbSKI-IF-3bFg6HlUa_escw-Vcir1ZQlLtW_E6y59Jl--7ePA", "width": 2560}], "place_id": "ChIJqcNSZpoi9DkRq7itWWWZ5Hc", "rating": 5, "reference": "ChIJqcNSZpoi9DkRq7itWWWZ5Hc", "scope": "GOOGLE", "types": ["primary_school", "school", "point_of_interest", "establishment"], "user_ratings_total": 1, "vicinity": "P43C+PF9, Bokaro Steel City"}, {"business_status": "OPERATIONAL", "geometry": {"location": {"lat": 23.701719, "lng": 86.1274669}, "viewport": {"northeast": {"lat": 23.7031449302915, "lng": 86.1287786302915}, "southwest": {"lat": 23.7004469697085, "lng": 86.12608066970849}}}, "icon": "https://maps.gstatic.com/mapfiles/place_api/icons/v1/png_71/school-71.png", "icon_background_color": "#7B9EB0", "icon_mask_base_uri": "https://maps.gstatic.com/mapfiles/place_api/icons/v2/school_pinlet", "name": "Ibrahim ansari", "place_id": "ChIJ5_IO9Eoj9DkREJUFj8m02iA", "plus_code": {"compound_code": "P42G+MX Agardih, Jharkhand, India", "global_code": "7MM8P42G+MX"}, "reference": "ChIJ5_IO9Eoj9DkREJUFj8m02iA", "scope": "GOOGLE", "types": ["primary_school", "school", "point_of_interest", "establishment"], "vicinity": "primary school, Near Are, Agardih"}, {"business_status": "OPERATIONAL", "geometry": {"location": {"lat": 23.701719, "lng": 86.1274669}, "viewport": {"northeast": {"lat": 23.7030650802915, "lng": 86.1286039302915}, "southwest": {"lat": 23.7003671197085, "lng": 86.1259059697085}}}, "icon": "https://maps.gstatic.com/mapfiles/place_api/icons/v1/png_71/school-71.png", "icon_background_color": "#7B9EB0", "icon_mask_base_uri": "https://maps.gstatic.com/mapfiles/place_api/icons/v2/school_pinlet", "name": "Agardih Primary School", "photos": [{"height": 2340, "html_attributions": ["<a href=\"https://maps.google.com/maps/contrib/107060033199875597867\">Jageshwar Singh</a>"], "photo_reference": "Aap_uEAu48H_VnP3eseqXYdswxdgboQ40FDxEv_e-5BI3IMNxUCgqH3HHLDH74Y-Q_FNv-Awt9-zhmbjx4dFlzg3GwV7kvDRps9eD5YXLfF_BaDdWfp7FftocACUS6oAAtny5W-VdGDv3x0RlJJXS_Wmc9yQTa9sSWCC7etCN3MAAeshXaxq", "width": 4160}], "place_id": "ChIJhUWnco8i9DkRdqFbqxbOEt8", "rating": 4.3, "reference": "ChIJhUWnco8i9DkRdqFbqxbOEt8", "scope": "GOOGLE", "types": ["primary_school", "school", "point_of_interest", "establishment"], "user_ratings_total": 3, "vicinity": "P42G+MXP, Agardih"}, {"business_status": "OPERATIONAL", "geometry": {"location": {"lat": 23.708509, "lng": 86.1365233}, "viewport": {"northeast": {"lat": 23.7098420302915, "lng": 86.13785733029151}, "southwest": {"lat": 23.7071440697085, "lng": 86.13515936970849}}}, "icon": "https://maps.gstatic.com/mapfiles/place_api/icons/v1/png_71/school-71.png", "icon_background_color": "#7B9EB0", "icon_mask_base_uri": "https://maps.gstatic.com/mapfiles/place_api/icons/v2/school_pinlet", "name": "Dhanghari Prathmik Vidyalaya", "place_id": "ChIJTa-3zDIj9DkRByZr3lmUC7w", "plus_code": {"compound_code": "P45P+CJ Bokaro Steel City, Jharkhand, India", "global_code": "7MM8P45P+CJ"}, "rating": 5, "reference": "ChIJTa-3zDIj9DkRByZr3lmUC7w", "scope": "GOOGLE", "types": ["school", "point_of_interest", "establishment"], "user_ratings_total": 1, "vicinity": "VILLAGE DHANGHARI POST BAIDHMARA PS HARLA SECTOR 09, Bokaro Steel City"}, {"business_status": "OPERATIONAL", "geometry": {"location": {"lat": 23.699488, "lng": 86.1300155}, "viewport": {"northeast": {"lat": 23.7008383802915, "lng": 86.13135653029153}, "southwest": {"lat": 23.6981404197085, "lng": 86.1286585697085}}}, "icon": "https://maps.gstatic.com/mapfiles/place_api/icons/v1/png_71/school-71.png", "icon_background_color": "#7B9EB0", "icon_mask_base_uri": "https://maps.gstatic.com/mapfiles/place_api/icons/v2/school_pinlet", "name": "Agardih High School", "photos": [{"height": 3264, "html_attributions": ["<a href=\"https://maps.google.com/maps/contrib/112869795090518612850\">Ishak Hussain</a>"], "photo_reference": "Aap_uEBSZf4TjVgIq3FM9UJ3dstxnvCkLL34f-alfqyXnEjKaxd_MPE57lg3wnRCJ1fumENH5jAmr2CTY8ujp2juRoMDvJlPO4yRU6kDgb3GGo5BN8DI9MymS2Kk2wnK5hxdNyDr3MgCNZgIyllk27IEhORTVocXSp6MlIbHjFMnGcfuJpnL", "width": 2448}], "place_id": "ChIJAQAAMIki9DkRiYkM85wORpI", "rating": 3, "reference": "ChIJAQAAMIki9DkRiYkM85wORpI", "scope": "GOOGLE", "types": ["school", "point_of_interest", "establishment"], "user_ratings_total": 2, "vicinity": "M4XJ+Q2R, Agardih"}, {"business_status": "OPERATIONAL", "geometry": {"location": {"lat": 23.70655099999999, "lng": 86.1382708}, "viewport": {"northeast": {"lat": 23.7077923802915, "lng": 86.1394771302915}, "southwest": {"lat": 23.70509441970849, "lng": 86.13677916970849}}}, "icon": "https://maps.gstatic.com/mapfiles/place_api/icons/v1/png_71/school-71.png", "icon_background_color": "#7B9EB0", "icon_mask_base_uri": "https://maps.gstatic.com/mapfiles/place_api/icons/v2/school_pinlet", "name": "Dhandhari Prathmik Vidyalaya", "place_id": "ChIJ34nUX3wi9DkRvJyu-YWywPM", "reference": "ChIJ34nUX3wi9DkRvJyu-YWywPM", "scope": "GOOGLE", "types": ["school", "point_of_interest", "establishment"], "vicinity": "P44Q+J8C"}], "status": "OK"}