{"html_attributions": [], "results": [{"business_status": "OPERATIONAL", "geometry": {"location": {"lat": 23.4248372, "lng": 86.1498075}, "viewport": {"northeast": {"lat": 23.4262156802915, "lng": 86.1511405302915}, "southwest": {"lat": 23.4235177197085, "lng": 86.1484425697085}}}, "icon": "https://maps.gstatic.com/mapfiles/place_api/icons/v1/png_71/school-71.png", "icon_background_color": "#7B9EB0", "icon_mask_base_uri": "https://maps.gstatic.com/mapfiles/place_api/icons/v2/school_pinlet", "name": "DAMRU JR. HIGH SCHOOL", "photos": [{"height": 4128, "html_attributions": ["<a href=\"https://maps.google.com/maps/contrib/101539165465181135685\">sandip dutta</a>"], "photo_reference": "Aap_uECUEqVRj6pdvdQlbI0QgWPcnXRJmUWN6bs9c_1haWwzVYC5ao4CRX9AFcqEGg-jXdIL_zoVt4rxyNXPEA_ZYlTgmub23yevvCOEc6F3cme1LN97xnEY640U4qOPYvHkLcI_LhIvzmvKd_MT67Plb-ocKilXAGnZq0siDbKcuLEVhXXc", "width": 2322}], "place_id": "ChIJ2X9BUyEs9DkROVo2BC9n7Fw", "plus_code": {"compound_code": "C4FX+WW Jaipur, West Bengal, India", "global_code": "7MM8C4FX+WW"}, "rating": 4, "reference": "ChIJ2X9BUyEs9DkROVo2BC9n7Fw", "scope": "GOOGLE", "types": ["school", "point_of_interest", "establishment"], "user_ratings_total": 3, "vicinity": "Unnamed Road, Jaipur"}, {"business_status": "OPERATIONAL", "geometry": {"location": {"lat": 23.4237166, "lng": 86.1477755}, "viewport": {"northeast": {"lat": 23.4251184302915, "lng": 86.14908803029151}, "southwest": {"lat": 23.4224204697085, "lng": 86.14639006970849}}}, "icon": "https://maps.gstatic.com/mapfiles/place_api/icons/v1/png_71/school-71.png", "icon_background_color": "#7B9EB0", "icon_mask_base_uri": "https://maps.gstatic.com/mapfiles/place_api/icons/v2/school_pinlet", "name": "Namopara Primary School", "place_id": "ChIJXd2TLyQs9DkRZ4cuftT7qxs", "rating": 4, "reference": "ChIJXd2TLyQs9DkRZ4cuftT7qxs", "scope": "GOOGLE", "types": ["primary_school", "school", "point_of_interest", "establishment"], "user_ratings_total": 1, "vicinity": "C4FX+F4J, Jaypur"}, {"business_status": "OPERATIONAL", "geometry": {"location": {"lat": 23.4243943, "lng": 86.1497383}, "viewport": {"northeast": {"lat": 23.4259341302915, "lng": 86.1509778802915}, "southwest": {"lat": 23.4232361697085, "lng": 86.14827991970849}}}, "icon": "https://maps.gstatic.com/mapfiles/place_api/icons/v1/png_71/school-71.png", "icon_background_color": "#7B9EB0", "icon_mask_base_uri": "https://maps.gstatic.com/mapfiles/place_api/icons/v2/school_pinlet", "name": "R.R.PALLI", "place_id": "ChIJM5sCCY0t9DkRZD5CYP8RtDE", "reference": "ChIJM5sCCY0t9DkRZD5CYP8RtDE", "scope": "GOOGLE", "types": ["school", "point_of_interest", "establishment"], "vicinity": "C4FX+QV5, Jaypur"}, {"business_status": "OPERATIONAL", "geometry": {"location": {"lat": 23.4243943, "lng": 86.1497383}, "viewport": {"northeast": {"lat": 23.4259341302915, "lng": 86.1509778802915}, "southwest": {"lat": 23.4232361697085, "lng": 86.14827991970849}}}, "icon": "https://maps.gstatic.com/mapfiles/place_api/icons/v1/png_71/school-71.png", "icon_background_color": "#7B9EB0", "icon_mask_base_uri": "https://maps.gstatic.com/mapfiles/place_api/icons/v2/school_pinlet", "name": "C.R.N. OXFORD PUBLIC SCHOOL", "opening_hours": {"open_now": false}, "place_id": "ChIJNx422Ast9DkRFrTyMdMM1MA", "plus_code": {"compound_code": "C4FX+QV Jaypur, West Bengal, India", "global_code": "7MM8C4FX+QV"}, "reference": "ChIJNx422Ast9DkRFrTyMdMM1MA", "scope": "GOOGLE", "types": ["school", "point_of_interest", "establishment"], "vicinity": "near tapananda kali mandir, main road, near tapananda kali mandir, Jaypur"}, {"business_status": "OPERATIONAL", "geometry": {"location": {"lat": 23.4243943, "lng": 86.1497383}, "viewport": {"northeast": {"lat": 23.4259341302915, "lng": 86.1509778802915}, "southwest": {"lat": 23.4232361697085, "lng": 86.14827991970849}}}, "icon": "https://maps.gstatic.com/mapfiles/place_api/icons/v1/png_71/school-71.png", "icon_background_color": "#7B9EB0", "icon_mask_base_uri": "https://maps.gstatic.com/mapfiles/place_api/icons/v2/school_pinlet", "name": "\u09b6\u09bf\u09b6\u09c1 \u09b6\u09bf\u0995\u09cd\u09b7\u09be \u09a8\u09bf\u0995\u09c7\u09a4\u09a8 \u09b0\u09be\u0996\u09ac\u09dc", "place_id": "ChIJI2fTokwt9DkR8Upvk-4QX1Y", "reference": "ChIJI2fTokwt9DkR8Upvk-4QX1Y", "scope": "GOOGLE", "types": ["school", "point_of_interest", "establishment"], "vicinity": "C4FX+QV5, \u09b0\u09be\u0996\u09ac\u09dc \u200c\u200d, Jaypur"}, {"business_status": "OPERATIONAL", "geometry": {"location": {"lat": 23.4353855, "lng": 86.1443254}, "viewport": {"northeast": {"lat": 23.4367126302915, "lng": 86.14566778029152}, "southwest": {"lat": 23.4340146697085, "lng": 86.1429698197085}}}, "icon": "https://maps.gstatic.com/mapfiles/place_api/icons/v1/png_71/school-71.png", "icon_background_color": "#7B9EB0", "icon_mask_base_uri": "https://maps.gstatic.com/mapfiles/place_api/icons/v2/school_pinlet", "name": "Shimultard primary school", "photos": [{"height": 1080, "html_attributions": ["<a href=\"https://maps.google.com/maps/contrib/108333476731731175450\">Shubashis Mahato</a>"], "photo_reference": "Aap_uEC7l_Ltu7Za_Qe0aENRLxD7RJWy3GmVwiStU4zQxogDkH5RALdumUqv57qBFJ0Uic3_08ZraVRLJ4mGLB8jucA2lGFCmqtT5XRaoYKXj4-gUNsV2gNDzgjX91fW885KxF-Ge-Sfm3-I0_lJBpETIu07NoZiXrHuHSl8sMa3XnWWLpAX", "width": 1920}], "place_id": "ChIJxcE9pNQv9DkRwF0VkPorNVE", "rating": 4, "reference": "ChIJxcE9pNQv9DkRwF0VkPorNVE", "scope": "GOOGLE", "types": ["school", "point_of_interest", "establishment"], "user_ratings_total": 1, "vicinity": "C4PV+5P4, Jaypur"}, {"business_status": "OPERATIONAL", "geometry": {"location": {"lat": 23.420025, "lng": 86.14111899999999}, "viewport": {"northeast": {"lat": 23.4213796802915, "lng": 86.1425358802915}, "southwest": {"lat": 23.41868171970849, "lng": 86.1398379197085}}}, "icon": "https://maps.gstatic.com/mapfiles/place_api/icons/v1/png_71/school-71.png", "icon_background_color": "#7B9EB0", "icon_mask_base_uri": "https://maps.gstatic.com/mapfiles/place_api/icons/v2/school_pinlet", "name": "MADARSHA AZIZ ULOOM", "opening_hours": {"open_now": true}, "photos": [{"height": 480, "html_attributions": ["<a href=\"https://maps.google.com/maps/contrib/112380036292466686455\">Manir Ansari</a>"], "photo_reference": "Aap_uEA_l91fjVOa7R1dzlAmhXm8qivrdrgJMc3klW0Q6c1rjsqEFShqm-oQhD9gjyA9--zqGPLrszpUbUAmtGG4b5OS-U8mD87vGHM6p06cUSnyLEAJ4dRfkVbYYRUt8AvjUmknodyFuGSMW7n8D21HaXgorLzJPs2Z6iKKBBt6TmrVlD_H", "width": 640}], "place_id": "ChIJ4dNIQS4s9DkRzpIZjexRRu4", "rating": 5, "reference": "ChIJ4dNIQS4s9DkRzpIZjexRRu4", "scope": "GOOGLE", "types": ["school", "point_of_interest", "establishment"], "user_ratings_total": 6, "vicinity": "C4CR+2C5, Jaypur"}, {"business_status": "OPERATIONAL", "geometry": {"location": {"lat": 23.4391419, "lng": 86.1500125}, "viewport": {"northeast": {"lat": 23.4404862802915, "lng": 86.1513109302915}, "southwest": {"lat": 23.4377883197085, "lng": 86.1486129697085}}}, "icon": "https://maps.gstatic.com/mapfiles/place_api/icons/v1/png_71/school-71.png", "icon_background_color": "#7B9EB0", "icon_mask_base_uri": "https://maps.gstatic.com/mapfiles/place_api/icons/v2/school_pinlet", "name": "Goyaladi Primary School", "place_id": "ChIJuRk6f5ku9DkROrUagD8mJu4", "rating": 4, "reference": "ChIJuRk6f5ku9DkROrUagD8mJu4", "scope": "GOOGLE", "types": ["school", "point_of_interest", "establishment"], "user_ratings_total": 1, "vicinity": "C5Q2+M22, Hoangda"}, {"business_status": "OPERATIONAL", "geometry": {"location": {"lat": 23.4181229, "lng": 86.1472153}, "viewport": {"northeast": {"lat": 23.41955018029151, "lng": 86.1485921802915}, "southwest": {"lat": 23.4168522197085, "lng": 86.1458942197085}}}, "icon": "https://maps.gstatic.com/mapfiles/place_api/icons/v1/png_71/school-71.png", "icon_background_color": "#7B9EB0", "icon_mask_base_uri": "https://maps.gstatic.com/mapfiles/place_api/icons/v2/school_pinlet", "name": "Bagti Para Primary school", "photos": [{"height": 2250, "html_attributions": ["<a href=\"https://maps.google.com/maps/contrib/102383152493701552930\">sumit dutta</a>"], "photo_reference": "Aap_uEB8fw0lK9sMDyBLlLTsz7pIR5tcEqPZRc7SFTTntMVfs7oV405fJXqbUbImhWF0CF5r3221ywLYGjKNs-709vTIkriLtsGjFBm-aKR7Rrq-KRVnGw2ey-_Xj_PEqgqh60kNJUDhYD3BuJmM0_rnls47tXDW-T795f6sTMrKfZEpFh2a", "width": 4000}], "place_id": "ChIJC4RzKjss9DkRMhUH7IqxI6U", "rating": 3.3, "reference": "ChIJC4RzKjss9DkRMhUH7IqxI6U", "scope": "GOOGLE", "types": ["school", "point_of_interest", "establishment"], "user_ratings_total": 3, "vicinity": "C49W+6VW, Jaipur"}, {"business_status": "OPERATIONAL", "geometry": {"location": {"lat": 23.41778760000001, "lng": 86.1436262}, "viewport": {"northeast": {"lat": 23.41916023029151, "lng": 86.14493368029152}, "southwest": {"lat": 23.4164622697085, "lng": 86.1422357197085}}}, "icon": "https://maps.gstatic.com/mapfiles/place_api/icons/v1/png_71/school-71.png", "icon_background_color": "#7B9EB0", "icon_mask_base_uri": "https://maps.gstatic.com/mapfiles/place_api/icons/v2/school_pinlet", "name": "Hasimuddin A.M Public School", "photos": [{"height": 720, "html_attributions": ["<a href=\"https://maps.google.com/maps/contrib/103573977229280415441\">Md Sabbir</a>"], "photo_reference": "Aap_uEATSyZSmZ-QiEiDQHCaqB-qSj4ptHJZ-Ne8yEI2LtImmXpdizwP_4LpWjfbHGyfyen0jp324hHKbN5lAqWT3SNuDEsw2_1_lHEqDENjSZz1U2IAbK_a5qLXuXpVdQXVxpf3fD7evSwK6O1GbdWG4caiFeNLZfp6G1OUphaO1lqR8H_v", "width": 1280}], "place_id": "ChIJq6qqqiYs9DkRkDorFH_fHqA", "rating": 4.6, "reference": "ChIJq6qqqiYs9DkRkDorFH_fHqA", "scope": "GOOGLE", "types": ["school", "point_of_interest", "establishment"], "user_ratings_total": 5, "vicinity": "C49V+4F6, Jaipur"}, {"business_status": "OPERATIONAL", "geometry": {"location": {"lat": 23.4186251, "lng": 86.1522354}, "viewport": {"northeast": {"lat": 23.4198522302915, "lng": 86.15352208029151}, "southwest": {"lat": 23.4171542697085, "lng": 86.15082411970849}}}, "icon": "https://maps.gstatic.com/mapfiles/place_api/icons/v1/png_71/school-71.png", "icon_background_color": "#7B9EB0", "icon_mask_base_uri": "https://maps.gstatic.com/mapfiles/place_api/icons/v2/school_pinlet", "name": "G.S private I.T.I", "place_id": "ChIJJ048SW0t9DkRt9cFJ4PGqyE", "plus_code": {"compound_code": "C592+FV Jaypur, West Bengal, India", "global_code": "7MM8C592+FV"}, "rating": 5, "reference": "ChIJJ048SW0t9DkRt9cFJ4PGqyE", "scope": "GOOGLE", "types": ["school", "point_of_interest", "establishment"], "user_ratings_total": 1, "vicinity": "Unnamed Road, Jaypur"}, {"business_status": "OPERATIONAL", "geometry": {"location": {"lat": 23.4187598, "lng": 86.1390074}, "viewport": {"northeast": {"lat": 23.4200037302915, "lng": 86.1403662302915}, "southwest": {"lat": 23.41730576970849, "lng": 86.1376682697085}}}, "icon": "https://maps.gstatic.com/mapfiles/place_api/icons/v1/png_71/school-71.png", "icon_background_color": "#7B9EB0", "icon_mask_base_uri": "https://maps.gstatic.com/mapfiles/place_api/icons/v2/school_pinlet", "name": "Chatipara Primary School", "place_id": "ChIJ1cP0-i0s9DkRwx-J-xZir1g", "rating": 2, "reference": "ChIJ1cP0-i0s9DkRwx-J-xZir1g", "scope": "GOOGLE", "types": ["school", "point_of_interest", "establishment"], "user_ratings_total": 1, "vicinity": "C49Q+GJ2, Jaypur"}, {"business_status": "OPERATIONAL", "geometry": {"location": {"lat": 23.4169178, "lng": 86.1459711}, "viewport": {"northeast": {"lat": 23.4183029302915, "lng": 86.14726393029152}, "southwest": {"lat": 23.4156049697085, "lng": 86.1445659697085}}}, "icon": "https://maps.gstatic.com/mapfiles/place_api/icons/v1/png_71/school-71.png", "icon_background_color": "#7B9EB0", "icon_mask_base_uri": "https://maps.gstatic.com/mapfiles/place_api/icons/v2/school_pinlet", "name": "Barabendya High School", "photos": [{"height": 7904, "html_attributions": ["<a href=\"https://maps.google.com/maps/contrib/103257827093931155175\">Amit kumar</a>"], "photo_reference": "Aap_uEDfyPZivmXUYQaVX9w2H1fLmqwj19wA8OkTxQ7QG-KnSvogjVCwns9q5WwVceCxrml8_tboGwvnpCuKuJe_KUc0xi3dEfoM-gp5U1MlSSwvaPFY5ADPS8kgcqxeC54ugSSMn4EHK1iirafbTQDmvvn3ykHq19qSMocos9yh75ggIen5", "width": 3648}], "place_id": "ChIJexhnH60t9DkR-ESjpjcAoY0", "plus_code": {"compound_code": "C48W+Q9 Jaipur, West Bengal, India", "global_code": "7MM8C48W+Q9"}, "rating": 2.3, "reference": "ChIJexhnH60t9DkR-ESjpjcAoY0", "scope": "GOOGLE", "types": ["school", "point_of_interest", "establishment"], "user_ratings_total": 3, "vicinity": "Barabendya ps-joypur-dist"}], "status": "OK"}