{"html_attributions": [], "results": [{"business_status": "OPERATIONAL", "geometry": {"location": {"lat": 23.5693928, "lng": 86.1387207}, "viewport": {"northeast": {"lat": 23.5708141302915, "lng": 86.14011683029149}, "southwest": {"lat": 23.5681161697085, "lng": 86.13741886970848}}}, "icon": "https://maps.gstatic.com/mapfiles/place_api/icons/v1/png_71/school-71.png", "icon_background_color": "#7B9EB0", "icon_mask_base_uri": "https://maps.gstatic.com/mapfiles/place_api/icons/v2/school_pinlet", "name": "Upgrade Middle School Bhandardih", "place_id": "ChIJGTFr2TMl9DkRwLmpSxDOlXo", "plus_code": {"compound_code": "H49Q+QF Chitami, Jharkhand, India", "global_code": "7MM8H49Q+QF"}, "rating": 5, "reference": "ChIJGTFr2TMl9DkRwLmpSxDOlXo", "scope": "GOOGLE", "types": ["school", "point_of_interest", "establishment"], "user_ratings_total": 1, "vicinity": "Chitami"}, {"business_status": "OPERATIONAL", "geometry": {"location": {"lat": 23.5698285, "lng": 86.13768979999999}, "viewport": {"northeast": {"lat": 23.5712330802915, "lng": 86.1390718802915}, "southwest": {"lat": 23.5685351197085, "lng": 86.13637391970849}}}, "icon": "https://maps.gstatic.com/mapfiles/place_api/icons/v1/png_71/school-71.png", "icon_background_color": "#7B9EB0", "icon_mask_base_uri": "https://maps.gstatic.com/mapfiles/place_api/icons/v2/school_pinlet", "name": "Bhandardih School", "photos": [{"height": 4000, "html_attributions": ["<a href=\"https://maps.google.com/maps/contrib/105062068878684774553\">Vijay Kumar</a>"], "photo_reference": "Aap_uEDNRSwm0nevTJPfL59jel_F-ukPC9553SfiispitR-y2B575fxbqLxqpFFz87Aec7cUeDsZiv_GB8J4zTcv87tRCEK46Ks_lKevB_Emjqd0uOx1BuvpH9Rlxo_tXbF-Ug7unhIWFZYCW2PaqePvZ3E7Mh02FDAStQ40BzCLfxM_W6cU", "width": 2000}], "place_id": "ChIJk9lxCKsl9DkRXXWv6fIq0g0", "rating": 5, "reference": "ChIJk9lxCKsl9DkRXXWv6fIq0g0", "scope": "GOOGLE", "types": ["school", "point_of_interest", "establishment"], "user_ratings_total": 1, "vicinity": "H49Q+W3P, Chitami"}, {"business_status": "OPERATIONAL", "geometry": {"location": {"lat": 23.5699683, "lng": 86.1374376}, "viewport": {"northeast": {"lat": 23.5713720302915, "lng": 86.1388261302915}, "southwest": {"lat": 23.5686740697085, "lng": 86.13612816970848}}}, "icon": "https://maps.gstatic.com/mapfiles/place_api/icons/v1/png_71/school-71.png", "icon_background_color": "#7B9EB0", "icon_mask_base_uri": "https://maps.gstatic.com/mapfiles/place_api/icons/v2/school_pinlet", "name": "UMS bhandardih", "opening_hours": {"open_now": false}, "place_id": "ChIJW1Pp-9Ml9DkRSwUXMqdJWyo", "reference": "ChIJW1Pp-9Ml9DkRSwUXMqdJWyo", "scope": "GOOGLE", "types": ["school", "point_of_interest", "establishment"], "vicinity": "H49P+XXP, bhandardih, Chitami"}, {"business_status": "OPERATIONAL", "geometry": {"location": {"lat": 23.5725417, "lng": 86.15684329999999}, "viewport": {"northeast": {"lat": 23.57404044999999, "lng": 86.1586873302915}, "southwest": {"lat": 23.56804545, "lng": 86.1559893697085}}}, "icon": "https://maps.gstatic.com/mapfiles/place_api/icons/v1/png_71/school-71.png", "icon_background_color": "#7B9EB0", "icon_mask_base_uri": "https://maps.gstatic.com/mapfiles/place_api/icons/v2/school_pinlet", "name": "Gyan Ganga Public School", "place_id": "ChIJofymUbol9DkRoay6VLmHfm8", "plus_code": {"compound_code": "H5F4+2P Sonabad, Jharkhand, India", "global_code": "7MM8H5F4+2P"}, "rating": 5, "reference": "ChIJofymUbol9DkRoay6VLmHfm8", "scope": "GOOGLE", "types": ["school", "point_of_interest", "establishment"], "user_ratings_total": 3, "vicinity": "Sonabad"}, {"business_status": "OPERATIONAL", "geometry": {"location": {"lat": 23.58106189999999, "lng": 86.1424624}, "viewport": {"northeast": {"lat": 23.5823460302915, "lng": 86.1438270802915}, "southwest": {"lat": 23.57964806970849, "lng": 86.1411291197085}}}, "icon": "https://maps.gstatic.com/mapfiles/place_api/icons/v1/png_71/school-71.png", "icon_background_color": "#7B9EB0", "icon_mask_base_uri": "https://maps.gstatic.com/mapfiles/place_api/icons/v2/school_pinlet", "name": "Upgraded High School, Sonabad", "opening_hours": {"open_now": false}, "photos": [{"height": 533, "html_attributions": ["<a href=\"https://maps.google.com/maps/contrib/101967296701654651221\">Sahil Shah</a>"], "photo_reference": "Aap_uECIum6Q2aehThT-UXbhz0hwVSIIGXIPRlWxqzsd7utOSNoxkSp5L1KjhhGt55-J9aYZQ_gptFaa9JTrvHkY6YUMNCjCD6hz1NMXH0naAPJ098ADa4Hk36KlgcP9xlfJqrjInO5xIuSGtL84Cp09wsBKrQ8hPqUNQAvKmBUE7FKCXHZk", "width": 720}], "place_id": "ChIJ3Up5_28l9DkR-WnZ5WU78HA", "rating": 4, "reference": "ChIJ3Up5_28l9DkR-WnZ5WU78HA", "scope": "GOOGLE", "types": ["school", "point_of_interest", "establishment"], "user_ratings_total": 5, "vicinity": "H4JR+CXG, Sonabad"}, {"business_status": "OPERATIONAL", "geometry": {"location": {"lat": 23.5810951, "lng": 86.1423169}, "viewport": {"northeast": {"lat": 23.5823492802915, "lng": 86.14368883029151}, "southwest": {"lat": 23.5796513197085, "lng": 86.1409908697085}}}, "icon": "https://maps.gstatic.com/mapfiles/place_api/icons/v1/png_71/school-71.png", "icon_background_color": "#7B9EB0", "icon_mask_base_uri": "https://maps.gstatic.com/mapfiles/place_api/icons/v2/school_pinlet", "name": "Panchayat Bhawan", "photos": [{"height": 1032, "html_attributions": ["<a href=\"https://maps.google.com/maps/contrib/104234843987409821542\">Uttam Kumar</a>"], "photo_reference": "Aap_uEB6YjG_3XTASt24bmUWOdUtHJCrESN8yuRND0qlqku5-PXFEkqmg9u_8lkKY-ulz_EI5UA6C2bGUoalLcpBhK92kmvvGjydVn6Qf_7vK84qiPbSaMoqhHkikHCW1yVUrP3K_pN_LQphFeWQuaqkRnbsQJf3UYbMarwe_uO15EHfo1Uu", "width": 581}], "place_id": "ChIJE2zvqFEk9DkRe3KwMuum72c", "rating": 4, "reference": "ChIJE2zvqFEk9DkRe3KwMuum72c", "scope": "GOOGLE", "types": ["school", "point_of_interest", "establishment"], "user_ratings_total": 1, "vicinity": "H4JR+CWP, Sonabad"}], "status": "OK"}