{"html_attributions": [], "results": [{"business_status": "OPERATIONAL", "geometry": {"location": {"lat": 23.8233599, "lng": 86.1540358}, "viewport": {"northeast": {"lat": 23.8247279302915, "lng": 86.15531878029151}, "southwest": {"lat": 23.8220299697085, "lng": 86.15262081970849}}}, "icon": "https://maps.gstatic.com/mapfiles/place_api/icons/v1/png_71/school-71.png", "icon_background_color": "#7B9EB0", "icon_mask_base_uri": "https://maps.gstatic.com/mapfiles/place_api/icons/v2/school_pinlet", "name": "UMS BHOLGHARA", "photos": [{"height": 1080, "html_attributions": ["<a href=\"https://maps.google.com/maps/contrib/112523460556078012144\">Pk Technical Help</a>"], "photo_reference": "Aap_uECwHysGkfwZPbxNJGw6y5EGoIXMXPmdmDx3AWblqc3Olu9vi-AGBxcG8WTfn67nAQbeLzMf_ORCSletpxm1vSO5WNNXvIPOl5ilpXIOddx13lYnmJU3wqZWSAFRCUNAmSmEY3PcBxpkvireIY0cTgA-Y-1-j4LVLSKqbmwkREJ5RI7k", "width": 1920}], "place_id": "ChIJ0WVUtbUb9DkRD5D9AN5Truw", "plus_code": {"compound_code": "R5F3+8J Charri, Jharkhand, India", "global_code": "7MM8R5F3+8J"}, "rating": 5, "reference": "ChIJ0WVUtbUb9DkRD5D9AN5Truw", "scope": "GOOGLE", "types": ["school", "point_of_interest", "establishment"], "user_ratings_total": 1, "vicinity": "Est Telo ,Po - Chandrpura"}, {"business_status": "OPERATIONAL", "geometry": {"location": {"lat": 23.8333782, "lng": 86.1570271}, "viewport": {"northeast": {"lat": 23.83472443029151, "lng": 86.1584755302915}, "southwest": {"lat": 23.8320264697085, "lng": 86.15577756970849}}}, "icon": "https://maps.gstatic.com/mapfiles/place_api/icons/v1/png_71/school-71.png", "icon_background_color": "#7B9EB0", "icon_mask_base_uri": "https://maps.gstatic.com/mapfiles/place_api/icons/v2/school_pinlet", "name": "Prathmik Vidyalay, Pipratand", "opening_hours": {"open_now": true}, "photos": [{"height": 720, "html_attributions": ["<a href=\"https://maps.google.com/maps/contrib/114376820253939710835\">MK DARDE DIL</a>"], "photo_reference": "Aap_uECQgG0K1atUdyYYXg_I8h9oeDPMPhhLpjbBjW6kR8WKJzc42TbQPy_r2Qbx83hl5YE7X__ndz_sH7wLGPQxAroZ8gfXU7HfSA8LzGJnMZjbZPzucLBkMPL1TcVui_eRgd5mV9NbJmhV9wWMplU_Crhu41ejpczHFZ02wq7TcftaXLOa", "width": 1280}], "place_id": "ChIJk4wD3Oob9DkRSJToFMhN21M", "rating": 5, "reference": "ChIJk4wD3Oob9DkRSJToFMhN21M", "scope": "GOOGLE", "types": ["school", "point_of_interest", "establishment"], "user_ratings_total": 1, "vicinity": "R5M4+9R2, Kherabera"}, {"business_status": "OPERATIONAL", "geometry": {"location": {"lat": 23.8195917, "lng": 86.1522827}, "viewport": {"northeast": {"lat": 23.82094693029151, "lng": 86.1535679802915}, "southwest": {"lat": 23.8182489697085, "lng": 86.15087001970849}}}, "icon": "https://maps.gstatic.com/mapfiles/place_api/icons/v1/png_71/school-71.png", "icon_background_color": "#7B9EB0", "icon_mask_base_uri": "https://maps.gstatic.com/mapfiles/place_api/icons/v2/school_pinlet", "name": "Hari Mandir Charri Anushka Gope", "place_id": "ChIJAQAAAN0b9DkRvbARRQc-vBo", "plus_code": {"compound_code": "R592+RW Charri, Jharkhand, India", "global_code": "7MM8R592+RW"}, "rating": 4, "reference": "ChIJAQAAAN0b9DkRvbARRQc-vBo", "scope": "GOOGLE", "types": ["school", "point_of_interest", "establishment"], "user_ratings_total": 1, "vicinity": "Charri"}, {"business_status": "OPERATIONAL", "geometry": {"location": {"lat": 23.8316117, "lng": 86.157755}, "viewport": {"northeast": {"lat": 23.8329615302915, "lng": 86.1591028302915}, "southwest": {"lat": 23.8302635697085, "lng": 86.1564048697085}}}, "icon": "https://maps.gstatic.com/mapfiles/place_api/icons/v1/png_71/school-71.png", "icon_background_color": "#7B9EB0", "icon_mask_base_uri": "https://maps.gstatic.com/mapfiles/place_api/icons/v2/school_pinlet", "name": "Tinku mahto official kherabera", "place_id": "ChIJVRZcbPQb9DkRhzUHiqdFMzI", "plus_code": {"compound_code": "R5J5+J4 Chaita, Jharkhand, India", "global_code": "7MM8R5J5+J4"}, "reference": "ChIJVRZcbPQb9DkRhzUHiqdFMzI", "scope": "GOOGLE", "types": ["secondary_school", "school", "point_of_interest", "establishment"], "vicinity": "Kherabera Rd, Chaita"}], "status": "OK"}