{"html_attributions": [], "results": [{"business_status": "OPERATIONAL", "geometry": {"location": {"lat": 23.42584, "lng": 86.1762518}, "viewport": {"northeast": {"lat": 23.4271209802915, "lng": 86.17767243029151}, "southwest": {"lat": 23.4244230197085, "lng": 86.1749744697085}}}, "icon": "https://maps.gstatic.com/mapfiles/place_api/icons/v1/png_71/school-71.png", "icon_background_color": "#7B9EB0", "icon_mask_base_uri": "https://maps.gstatic.com/mapfiles/place_api/icons/v2/school_pinlet", "name": "Bhelaidi Primary School", "place_id": "ChIJZ24wRv8r9DkRAUh_UPu9ZpE", "rating": 3, "reference": "ChIJZ24wRv8r9DkRAUh_UPu9ZpE", "scope": "GOOGLE", "types": ["primary_school", "school", "point_of_interest", "establishment"], "user_ratings_total": 1, "vicinity": "C5GG+8GJ, Bhelaidi"}, {"business_status": "OPERATIONAL", "geometry": {"location": {"lat": 23.4387897, "lng": 86.1643284}, "viewport": {"northeast": {"lat": 23.4400825302915, "lng": 86.16560873029151}, "southwest": {"lat": 23.4373845697085, "lng": 86.1629107697085}}}, "icon": "https://maps.gstatic.com/mapfiles/place_api/icons/v1/png_71/school-71.png", "icon_background_color": "#7B9EB0", "icon_mask_base_uri": "https://maps.gstatic.com/mapfiles/place_api/icons/v2/school_pinlet", "name": "Hargara Junior High School", "place_id": "ChIJ7dAZkKUu9DkRZ7l-dQwY3Q8", "reference": "ChIJ7dAZkKUu9DkRZ7l-dQwY3Q8", "scope": "GOOGLE", "types": ["school", "point_of_interest", "establishment"], "vicinity": "C5Q7+GP8, Hargara"}, {"business_status": "OPERATIONAL", "geometry": {"location": {"lat": 23.4388981, "lng": 86.1643736}, "viewport": {"northeast": {"lat": 23.4401566302915, "lng": 86.16561198029152}, "southwest": {"lat": 23.4374586697085, "lng": 86.16291401970851}}}, "icon": "https://maps.gstatic.com/mapfiles/place_api/icons/v1/png_71/school-71.png", "icon_background_color": "#7B9EB0", "icon_mask_base_uri": "https://maps.gstatic.com/mapfiles/place_api/icons/v2/school_pinlet", "name": "Hargara Primary School", "photos": [{"height": 3000, "html_attributions": ["<a href=\"https://maps.google.com/maps/contrib/115758494092616619456\">Bidhan Halder</a>"], "photo_reference": "Aap_uEBX9slJD8Ts0fFv7MXLpBmbeS-Ng1qggJsJ8L3aEAERP4yRajfPgBULic0t2pe0iVADev-LC-ZyQAAdTahjqnDXR9DPgPwumW0Nwdo750um6PiBrXmXrjxZ3-Rzr2jFcUknC5b8OtkyMnAUoUZJhPCD8b7oDJBACBoSukzuDH7P8DD2", "width": 4000}], "place_id": "ChIJE21ThaUu9DkRpyzExAzKOpc", "rating": 5, "reference": "ChIJE21ThaUu9DkRpyzExAzKOpc", "scope": "GOOGLE", "types": ["school", "point_of_interest", "establishment"], "user_ratings_total": 1, "vicinity": "C5Q7+HP5, Hargara"}, {"business_status": "OPERATIONAL", "geometry": {"location": {"lat": 23.4361586, "lng": 86.17393349999999}, "viewport": {"northeast": {"lat": 23.43747668029151, "lng": 86.1753289802915}, "southwest": {"lat": 23.4347787197085, "lng": 86.17263101970849}}}, "icon": "https://maps.gstatic.com/mapfiles/place_api/icons/v1/png_71/school-71.png", "icon_background_color": "#7B9EB0", "icon_mask_base_uri": "https://maps.gstatic.com/mapfiles/place_api/icons/v2/school_pinlet", "name": "Balibhasa Primary School", "place_id": "ChIJiXZRXasu9DkR41b1YadYaHo", "rating": 4, "reference": "ChIJiXZRXasu9DkR41b1YadYaHo", "scope": "GOOGLE", "types": ["school", "point_of_interest", "establishment"], "user_ratings_total": 1, "vicinity": "C5PF+FH7, Silphor"}, {"business_status": "OPERATIONAL", "geometry": {"location": {"lat": 23.4414031, "lng": 86.1643698}, "viewport": {"northeast": {"lat": 23.4427850802915, "lng": 86.1654489302915}, "southwest": {"lat": 23.44008711970849, "lng": 86.1627509697085}}}, "icon": "https://maps.gstatic.com/mapfiles/place_api/icons/v1/png_71/school-71.png", "icon_background_color": "#7B9EB0", "icon_mask_base_uri": "https://maps.gstatic.com/mapfiles/place_api/icons/v2/school_pinlet", "name": "R.K. Mission Ashramik Jr. High School", "place_id": "ChIJyezpXKUu9DkRKuOrKVpWrJw", "reference": "ChIJyezpXKUu9DkRKuOrKVpWrJw", "scope": "GOOGLE", "types": ["school", "point_of_interest", "establishment"], "vicinity": "C5R7+HP9, Hargara"}, {"business_status": "OPERATIONAL", "geometry": {"location": {"lat": 23.44154869999999, "lng": 86.16421890000001}, "viewport": {"northeast": {"lat": 23.4429203302915, "lng": 86.16538253029151}, "southwest": {"lat": 23.44022236970849, "lng": 86.1626845697085}}}, "icon": "https://maps.gstatic.com/mapfiles/place_api/icons/v1/png_71/school-71.png", "icon_background_color": "#7B9EB0", "icon_mask_base_uri": "https://maps.gstatic.com/mapfiles/place_api/icons/v2/school_pinlet", "name": "Sri Ramkrishna Vivekananda Asharam Jinior High School", "place_id": "ChIJfwiLRKUu9DkRtuVZkUxB58U", "plus_code": {"compound_code": "C5R7+JM Hargara, West Bengal, India", "global_code": "7MM8C5R7+JM"}, "reference": "ChIJfwiLRKUu9DkRtuVZkUxB58U", "scope": "GOOGLE", "types": ["school", "point_of_interest", "establishment"], "vicinity": "Hargara"}], "status": "OK"}