{"html_attributions": [], "results": [{"business_status": "OPERATIONAL", "geometry": {"location": {"lat": 23.5711893, "lng": 86.17128609999999}, "viewport": {"northeast": {"lat": 23.5725959302915, "lng": 86.1727403302915}, "southwest": {"lat": 23.5698979697085, "lng": 86.17004236970848}}}, "icon": "https://maps.gstatic.com/mapfiles/place_api/icons/v1/png_71/school-71.png", "icon_background_color": "#7B9EB0", "icon_mask_base_uri": "https://maps.gstatic.com/mapfiles/place_api/icons/v2/school_pinlet", "name": "Hari Mandir Chakalia", "photos": [{"height": 2448, "html_attributions": ["<a href=\"https://maps.google.com/maps/contrib/118008787258367783368\">Choudhary G</a>"], "photo_reference": "Aap_uEC9sStY9DF3tuMQ_z34gAF0y-aYcNWp3DMWqwy_HLpPa_bswrGJ0Pt8d-hcFy6naPEz2DiKbFOXYNn2JqtnnteVcQ37A-zqQxJRH_fqRJbBl2LYaLdDH5UXbN7--A6VV6w6zQOSEJ16vocQMzYKSR3YxWR7ofges8rT2Ubw1Z4eZ4ih", "width": 3264}], "place_id": "ChIJ2zhAjdQl9DkR72yFP2vx8c0", "rating": 3.7, "reference": "ChIJ2zhAjdQl9DkR72yFP2vx8c0", "scope": "GOOGLE", "types": ["school", "point_of_interest", "establishment"], "user_ratings_total": 3, "vicinity": "H5CC+FGF, Chakalia"}, {"business_status": "OPERATIONAL", "geometry": {"location": {"lat": 23.575555, "lng": 86.1615867}, "viewport": {"northeast": {"lat": 23.5769010302915, "lng": 86.16293283029151}, "southwest": {"lat": 23.5742030697085, "lng": 86.1602348697085}}}, "icon": "https://maps.gstatic.com/mapfiles/place_api/icons/v1/png_71/school-71.png", "icon_background_color": "#7B9EB0", "icon_mask_base_uri": "https://maps.gstatic.com/mapfiles/place_api/icons/v2/school_pinlet", "name": "Hasim", "place_id": "ChIJqQhScf8l9DkRmTqoQWpDJEs", "plus_code": {"compound_code": "H5G6+6J Chakalia, Jharkhand, India", "global_code": "7MM8H5G6+6J"}, "reference": "ChIJqQhScf8l9DkRmTqoQWpDJEs", "scope": "GOOGLE", "types": ["school", "point_of_interest", "establishment"], "vicinity": "Unnamed Road"}, {"business_status": "OPERATIONAL", "geometry": {"location": {"lat": 23.5725417, "lng": 86.15684329999999}, "viewport": {"northeast": {"lat": 23.57404044999999, "lng": 86.1586873302915}, "southwest": {"lat": 23.56804545, "lng": 86.1559893697085}}}, "icon": "https://maps.gstatic.com/mapfiles/place_api/icons/v1/png_71/school-71.png", "icon_background_color": "#7B9EB0", "icon_mask_base_uri": "https://maps.gstatic.com/mapfiles/place_api/icons/v2/school_pinlet", "name": "Gyan Ganga Public School", "place_id": "ChIJofymUbol9DkRoay6VLmHfm8", "plus_code": {"compound_code": "H5F4+2P Sonabad, Jharkhand, India", "global_code": "7MM8H5F4+2P"}, "rating": 5, "reference": "ChIJofymUbol9DkRoay6VLmHfm8", "scope": "GOOGLE", "types": ["school", "point_of_interest", "establishment"], "user_ratings_total": 3, "vicinity": "Sonabad"}, {"business_status": "OPERATIONAL", "geometry": {"location": {"lat": 23.5757213, "lng": 86.17301839999999}, "viewport": {"northeast": {"lat": 23.5770854302915, "lng": 86.17433433029149}, "southwest": {"lat": 23.5743874697085, "lng": 86.17163636970848}}}, "icon": "https://maps.gstatic.com/mapfiles/place_api/icons/v1/png_71/generic_business-71.png", "icon_background_color": "#7B9EB0", "icon_mask_base_uri": "https://maps.gstatic.com/mapfiles/place_api/icons/v2/generic_pinlet", "name": "Ramdih Cricket Ground", "photos": [{"height": 809, "html_attributions": ["<a href=\"https://maps.google.com/maps/contrib/108022907169169446770\">Ramdih Cricket Ground</a>"], "photo_reference": "Aap_uECMBzLDpuVcKf-BEc0kRs2t4XUegFAfdmf4f7Xxm8cr_XmVFtHx2DXGLQdEFpNXcMYsHCb-o1njdcXkDRlH7vcpqnir-HCl5qaonie0sOlmxv9W39dgm6WBfe7kIa8I5G4kBcvW4Eey7F8-mHjwl_VQvNkn6pxNgB5b_6Av_cV-NfWB", "width": 1440}], "place_id": "ChIJMY9kTz4l9DkRVjWlcVRcFCo", "plus_code": {"compound_code": "H5GF+76 Chakalia, Jharkhand, India", "global_code": "7MM8H5GF+76"}, "rating": 5, "reference": "ChIJMY9kTz4l9DkRVjWlcVRcFCo", "scope": "GOOGLE", "types": ["school", "point_of_interest", "establishment"], "user_ratings_total": 6, "vicinity": "Chakulia Ramdih, Chakalia"}, {"business_status": "OPERATIONAL", "geometry": {"location": {"lat": 23.5673744, "lng": 86.177602}, "viewport": {"northeast": {"lat": 23.5691088802915, "lng": 86.1792223802915}, "southwest": {"lat": 23.5664109197085, "lng": 86.1765244197085}}}, "icon": "https://maps.gstatic.com/mapfiles/place_api/icons/v1/png_71/school-71.png", "icon_background_color": "#7B9EB0", "icon_mask_base_uri": "https://maps.gstatic.com/mapfiles/place_api/icons/v2/school_pinlet", "name": "David Rajwar \ud83c\udfe0 House chakulia Murtitad", "place_id": "ChIJtSVl3gUn9DkRDPYf4XAFsNc", "reference": "ChIJtSVl3gUn9DkRDPYf4XAFsNc", "scope": "GOOGLE", "types": ["school", "point_of_interest", "establishment"], "vicinity": "H58H+W2X, Chakalia"}], "status": "OK"}