{"html_attributions": [], "next_page_token": "Aap_uEBhFw7lDyQJbu0behidGcjkLOUFNfYXdggrpRhimunJXT6G_kl5ITs_VYPeAZhhccvNhyby_gFIik4C4MNGLMWZqTj3D6UlCJX1TiN1MLE2HUu0sHovZwizg5HU_xNTHJfEfkFgAxUyHmOhiw43zK2-XC72d7Btf9VOmIOXcomSMOk8VHLQm-TRmnISqSEaZKcIMfTPD-Ew3AvTO41MI5Zy1YERoGhC3y5oJQYNOYRTMCZ1frQQwT0xaIy4YHim_pl8-aTWAYsZ8__JFiF5bZ2N5ktqgAMNCUN_Kkv7-aGxwJDvX03ZmHwtQ2n8ntY6v8jxluhwkh6STCS1lahfraLUrVXzd8ZOFUsxfWccNh6XRMOr4E8osXiCfkw_A8SY9rj9jPKplj7aGPxQmE4sSIqbM_juZ7GaIrbY1JjbYM1WZ5-uVVo", "results": [{"business_status": "OPERATIONAL", "geometry": {"location": {"lat": 23.6104942, "lng": 86.1596734}, "viewport": {"northeast": {"lat": 23.6118957802915, "lng": 86.1611985302915}, "southwest": {"lat": 23.60919781970849, "lng": 86.1585005697085}}}, "icon": "https://maps.gstatic.com/mapfiles/place_api/icons/v1/png_71/school-71.png", "icon_background_color": "#7B9EB0", "icon_mask_base_uri": "https://maps.gstatic.com/mapfiles/place_api/icons/v2/school_pinlet", "name": "Stanford Public School", "photos": [{"height": 2368, "html_attributions": ["<a href=\"https://maps.google.com/maps/contrib/101308497551390772046\">Maheshwar Dayal Gupta</a>"], "photo_reference": "Aap_uEAqY50OvNYdZwarZpwnmlxizQwEM-O85oI9LM7Mg1FWuuWjmC05FE5S23DIy6Ae0D99B0l4OC5dJbaMx0scwamiEPVoANtdd1gl3vGpiVZS7bIgh86exFWqqP8UnKoxZk3bmKIjDoVwjhR-qpr4z5G3kSrpccvs5u9j0tZHsAujclxQ", "width": 4160}], "place_id": "ChIJ35to3g0k9DkRg-50zuG-4pA", "plus_code": {"compound_code": "J565+5V Narayanpur, Jharkhand, India", "global_code": "7MM8J565+5V"}, "rating": 4.3, "reference": "ChIJ35to3g0k9DkRg-50zuG-4pA", "scope": "GOOGLE", "types": ["school", "point_of_interest", "establishment"], "user_ratings_total": 3, "vicinity": "bartand , narayanpur , chas"}, {"business_status": "OPERATIONAL", "geometry": {"location": {"lat": 23.6186318, "lng": 86.1599739}, "viewport": {"northeast": {"lat": 23.6200348802915, "lng": 86.1612423302915}, "southwest": {"lat": 23.6173369197085, "lng": 86.1585443697085}}}, "icon": "https://maps.gstatic.com/mapfiles/place_api/icons/v1/png_71/school-71.png", "icon_background_color": "#7B9EB0", "icon_mask_base_uri": "https://maps.gstatic.com/mapfiles/place_api/icons/v2/school_pinlet", "name": "New Era Public School", "place_id": "ChIJK-I9iAkk9DkRlfjdPiqqwbQ", "rating": 5, "reference": "ChIJK-I9iAkk9DkRlfjdPiqqwbQ", "scope": "GOOGLE", "types": ["school", "point_of_interest", "establishment"], "user_ratings_total": 2, "vicinity": "J595+FX5, Adrash Colony, Bandhgora"}, {"business_status": "OPERATIONAL", "geometry": {"location": {"lat": 23.6085442, "lng": 86.16747099999999}, "viewport": {"northeast": {"lat": 23.6099024802915, "lng": 86.1686711302915}, "southwest": {"lat": 23.6072045197085, "lng": 86.1659731697085}}}, "icon": "https://maps.gstatic.com/mapfiles/place_api/icons/v1/png_71/school-71.png", "icon_background_color": "#7B9EB0", "icon_mask_base_uri": "https://maps.gstatic.com/mapfiles/place_api/icons/v2/school_pinlet", "name": "Choura Kantudih Primary School", "place_id": "ChIJVbwnJWwl9DkRN7Gu8_juSRY", "rating": 5, "reference": "ChIJVbwnJWwl9DkRN7Gu8_juSRY", "scope": "GOOGLE", "types": ["school", "point_of_interest", "establishment"], "user_ratings_total": 1, "vicinity": "J558+CX9, tand"}, {"business_status": "OPERATIONAL", "geometry": {"location": {"lat": 23.6133167, "lng": 86.1668638}, "viewport": {"northeast": {"lat": 23.6146882802915, "lng": 86.1682176302915}, "southwest": {"lat": 23.6119903197085, "lng": 86.16551966970849}}}, "icon": "https://maps.gstatic.com/mapfiles/place_api/icons/v1/png_71/school-71.png", "icon_background_color": "#7B9EB0", "icon_mask_base_uri": "https://maps.gstatic.com/mapfiles/place_api/icons/v2/school_pinlet", "name": "Primary School Choura", "place_id": "ChIJlTDNuQUk9DkRW21R1AlY-hI", "rating": 4, "reference": "ChIJlTDNuQUk9DkRW21R1AlY-hI", "scope": "GOOGLE", "types": ["primary_school", "school", "point_of_interest", "establishment"], "user_ratings_total": 1, "vicinity": "J578+8PH, Narayanpur"}, {"business_status": "OPERATIONAL", "geometry": {"location": {"lat": 23.6148889, "lng": 86.1710796}, "viewport": {"northeast": {"lat": 23.6163118302915, "lng": 86.1725709302915}, "southwest": {"lat": 23.61361386970849, "lng": 86.16987296970849}}}, "icon": "https://maps.gstatic.com/mapfiles/place_api/icons/v1/png_71/school-71.png", "icon_background_color": "#7B9EB0", "icon_mask_base_uri": "https://maps.gstatic.com/mapfiles/place_api/icons/v2/school_pinlet", "name": "Park City Choura", "photos": [{"height": 960, "html_attributions": ["<a href=\"https://maps.google.com/maps/contrib/114115758250877684394\">Ajay Singh</a>"], "photo_reference": "Aap_uEBdft4T1jEngV18mPifJw52PuFmkd6FHeRqcHr_NyYKIus-PKkjaFNVdb2SWkCtpeBuvJf3CnFy2EyLtGoQRYgjM0-VcMngmhKeYBEDB2zlsGLJ4tv2_RrLpXb93r9VJU4X2PpSWeTXGBaWfO65J4kuCMJS7SXQWEQYMmJuHCXwEiV2", "width": 1280}], "place_id": "ChIJZzj3E3ol9DkRXdzL6qgNue4", "rating": 5, "reference": "ChIJZzj3E3ol9DkRXdzL6qgNue4", "scope": "GOOGLE", "types": ["school", "point_of_interest", "establishment"], "user_ratings_total": 1, "vicinity": "J57C+XC4, Choura Basti, Narayanpur"}, {"business_status": "OPERATIONAL", "geometry": {"location": {"lat": 23.6032078, "lng": 86.16052839999999}, "viewport": {"northeast": {"lat": 23.6061946, "lng": 86.16324085000001}, "southwest": {"lat": 23.6022122, "lng": 86.15962425}}}, "icon": "https://maps.gstatic.com/mapfiles/place_api/icons/v1/png_71/school-71.png", "icon_background_color": "#7B9EB0", "icon_mask_base_uri": "https://maps.gstatic.com/mapfiles/place_api/icons/v2/school_pinlet", "name": "Field zone", "place_id": "ChIJ1-RzUhEk9DkRSGMWOg-5HI0", "reference": "ChIJ1-RzUhEk9DkRSGMWOg-5HI0", "scope": "GOOGLE", "types": ["school", "point_of_interest", "establishment"], "vicinity": "J536+76J, Narayanpur"}, {"business_status": "OPERATIONAL", "geometry": {"location": {"lat": 23.6156285, "lng": 86.1702454}, "viewport": {"northeast": {"lat": 23.6169771802915, "lng": 86.17171883029151}, "southwest": {"lat": 23.6142792197085, "lng": 86.1690208697085}}}, "icon": "https://maps.gstatic.com/mapfiles/place_api/icons/v1/png_71/school-71.png", "icon_background_color": "#7B9EB0", "icon_mask_base_uri": "https://maps.gstatic.com/mapfiles/place_api/icons/v2/school_pinlet", "name": "Galaxy public school", "photos": [{"height": 1920, "html_attributions": ["<a href=\"https://maps.google.com/maps/contrib/110457721272609712887\">fact of fact</a>"], "photo_reference": "Aap_uEB7jkDtBJ1ZT7ChrZ9LfSHvG0a1OVj8SvwY2_CZz3zDgk5aSntusvXdEU7ts0aYiEwxplp9vQVkutffBJK_ITRvoCcXJPQpz0mdnzySeCU5WCWQcYG6SocaKT3_ahJFaf1nDuekIDKoGYq3Dt3cZ6QHrdUZ8cZ8Q7TEV8G-DUiSlfg", "width": 2560}], "place_id": "ChIJAxsAUwEk9DkRMBfgB9X3Hsw", "rating": 4.1, "reference": "ChIJAxsAUwEk9DkRMBfgB9X3Hsw", "scope": "GOOGLE", "types": ["school", "point_of_interest", "establishment"], "user_ratings_total": 8, "vicinity": "J58C+735, Narayanpur"}, {"business_status": "OPERATIONAL", "geometry": {"location": {"lat": 23.6029352, "lng": 86.15991489999999}, "viewport": {"northeast": {"lat": 23.6063309, "lng": 86.1635476}, "southwest": {"lat": 23.6018033, "lng": 86.158704}}}, "icon": "https://maps.gstatic.com/mapfiles/place_api/icons/v1/png_71/generic_business-71.png", "icon_background_color": "#7B9EB0", "icon_mask_base_uri": "https://maps.gstatic.com/mapfiles/place_api/icons/v2/generic_pinlet", "name": "Common Service Center & Paynearby Disributors", "opening_hours": {"open_now": false}, "photos": [{"height": 1080, "html_attributions": ["<a href=\"https://maps.google.com/maps/contrib/102437292538304606697\">Rajesh Kumar</a>"], "photo_reference": "Aap_uEBmiU_lrZBDU-5RkTMY8WOLJu07eZ3ncNUIlvdC35PvpIHNEV-H-6aLGpqaLBbCKwE3RypgvB5LRbRgP6CbnPG-5KoIE2UzOPswnrrELYoxdtTsrJHny4YRbTRT27KwpyW270CP8z3q7QtdlHUDYaEL1YBfKkLHSlrbRu8tRVZnXyVD", "width": 1920}], "place_id": "ChIJUYeWJjoT9DkRSIl7ueVEzCo", "plus_code": {"compound_code": "J535+5X Narayanpur, Jharkhand, India", "global_code": "7MM8J535+5X"}, "reference": "ChIJUYeWJjoT9DkRSIl7ueVEzCo", "scope": "GOOGLE", "types": ["school", "point_of_interest", "establishment"], "vicinity": "At +Po-palamu, P. S- Penk, Narayanpur"}, {"business_status": "OPERATIONAL", "geometry": {"location": {"lat": 23.6098044, "lng": 86.1566818}, "viewport": {"northeast": {"lat": 23.6111157802915, "lng": 86.15801268029149}, "southwest": {"lat": 23.6084178197085, "lng": 86.15531471970849}}}, "icon": "https://maps.gstatic.com/mapfiles/place_api/icons/v1/png_71/school-71.png", "icon_background_color": "#7B9EB0", "icon_mask_base_uri": "https://maps.gstatic.com/mapfiles/place_api/icons/v2/school_pinlet", "name": "\ud835\uddad\ud835\uddba\ud835\uddcb\ud835\uddba\ud835\uddd2\ud835\uddba\ud835\uddc7\ud835\uddba\ud835\uddc9\ud835\uddce\ud835\uddcb \ud835\uddcd\ud835\uddc8\ud835\uddc5\ud835\uddba \ud835\uddbb\ud835\uddba\ud835\uddcb\ud835\uddba\ud835\uddcd\ud835\uddba\ud835\uddc7\ud835\uddbd", "photos": [{"height": 1920, "html_attributions": ["<a href=\"https://maps.google.com/maps/contrib/112942645088910500485\">Umesh Kumar</a>"], "photo_reference": "Aap_uEBxkqKWaa8_XAAaVvEnW8BQ6iOAxX0F65GMycZfjhLx60ZVzA2IOGR23Ogc0QaHJO2usrhiWTveaT-d9iaJx3ZgGV5RQnp-2xBqv_X873yh6Y0AYdS8N8WRi9wrwxfez0npBEDJQ2Dxa-O99yBh6_oBWbVJmG16lCtvX9Qi1cnDiGda", "width": 1440}], "place_id": "ChIJCR4fLTYl9DkRc_b93NQ1EiE", "plus_code": {"compound_code": "J554+WM Narayanpur, Jharkhand, India", "global_code": "7MM8J554+WM"}, "reference": "ChIJCR4fLTYl9DkRc_b93NQ1EiE", "scope": "GOOGLE", "types": ["school", "point_of_interest", "establishment"], "vicinity": "Unnamed Road, Narayanpur"}, {"business_status": "OPERATIONAL", "geometry": {"location": {"lat": 23.6148819, "lng": 86.173084}, "viewport": {"northeast": {"lat": 23.6164599802915, "lng": 86.17458603029151}, "southwest": {"lat": 23.6137620197085, "lng": 86.17188806970849}}}, "icon": "https://maps.gstatic.com/mapfiles/place_api/icons/v1/png_71/school-71.png", "icon_background_color": "#7B9EB0", "icon_mask_base_uri": "https://maps.gstatic.com/mapfiles/place_api/icons/v2/school_pinlet", "name": "Galaxy Public School", "place_id": "ChIJEYJucdUl9DkRvg8yVJtO3vk", "rating": 2, "reference": "ChIJEYJucdUl9DkRvg8yVJtO3vk", "scope": "GOOGLE", "types": ["school", "point_of_interest", "establishment"], "user_ratings_total": 2, "vicinity": "J57F+X64, Telidih"}, {"business_status": "OPERATIONAL", "geometry": {"location": {"lat": 23.6039193, "lng": 86.1757366}, "viewport": {"northeast": {"lat": 23.6052877302915, "lng": 86.1771147302915}, "southwest": {"lat": 23.6025897697085, "lng": 86.1744167697085}}}, "icon": "https://maps.gstatic.com/mapfiles/place_api/icons/v1/png_71/school-71.png", "icon_background_color": "#7B9EB0", "icon_mask_base_uri": "https://maps.gstatic.com/mapfiles/place_api/icons/v2/school_pinlet", "name": "anganwadi kendra", "place_id": "ChIJkWNoYwAn9DkRYzbFMfglnc8", "reference": "ChIJkWNoYwAn9DkRYzbFMfglnc8", "scope": "GOOGLE", "types": ["school", "point_of_interest", "establishment"], "vicinity": "J53G+H79, Dhebatand, Bokaro Steel City"}, {"business_status": "OPERATIONAL", "geometry": {"location": {"lat": 23.6094753, "lng": 86.1547827}, "viewport": {"northeast": {"lat": 23.6107979802915, "lng": 86.15615083029151}, "southwest": {"lat": 23.6081000197085, "lng": 86.1534528697085}}}, "icon": "https://maps.gstatic.com/mapfiles/place_api/icons/v1/png_71/school-71.png", "icon_background_color": "#7B9EB0", "icon_mask_base_uri": "https://maps.gstatic.com/mapfiles/place_api/icons/v2/school_pinlet", "name": "Utkarmit Madhya vidyalaya, Narayanpur", "place_id": "ChIJaezNDogl9DkR68vEujXmn-w", "plus_code": {"compound_code": "J553+QW Chas, Jharkhand, India", "global_code": "7MM8J553+QW"}, "reference": "ChIJaezNDogl9DkR68vEujXmn-w", "scope": "GOOGLE", "types": ["secondary_school", "school", "point_of_interest", "establishment"], "vicinity": "Narayanpur, Bartand, Chas"}, {"business_status": "OPERATIONAL", "geometry": {"location": {"lat": 23.616688, "lng": 86.158114}, "viewport": {"northeast": {"lat": 23.6179597802915, "lng": 86.1595232302915}, "southwest": {"lat": 23.6152618197085, "lng": 86.15682526970849}}}, "icon": "https://maps.gstatic.com/mapfiles/place_api/icons/v1/png_71/school-71.png", "icon_background_color": "#7B9EB0", "icon_mask_base_uri": "https://maps.gstatic.com/mapfiles/place_api/icons/v2/school_pinlet", "name": "Bright Future Public School", "place_id": "ChIJZzeivAsk9DkRA-H8I_ym-Tc", "rating": 4.5, "reference": "ChIJZzeivAsk9DkRA-H8I_ym-Tc", "scope": "GOOGLE", "types": ["school", "point_of_interest", "establishment"], "user_ratings_total": 2, "vicinity": "J585+M6H, Officer Colony, Adrash Colony, Bandhgora"}, {"business_status": "OPERATIONAL", "geometry": {"location": {"lat": 23.6194231, "lng": 86.1619091}, "viewport": {"northeast": {"lat": 23.6208085302915, "lng": 86.1632871802915}, "southwest": {"lat": 23.6181105697085, "lng": 86.16058921970848}}}, "icon": "https://maps.gstatic.com/mapfiles/place_api/icons/v1/png_71/school-71.png", "icon_background_color": "#7B9EB0", "icon_mask_base_uri": "https://maps.gstatic.com/mapfiles/place_api/icons/v2/school_pinlet", "name": "M D R Public School", "place_id": "ChIJU2hAyAkk9DkRwVoQdyKNgvk", "rating": 2.3, "reference": "ChIJU2hAyAkk9DkRwVoQdyKNgvk", "scope": "GOOGLE", "types": ["school", "point_of_interest", "establishment"], "user_ratings_total": 3, "vicinity": "J596+QQ7, Adrash Colony, Bandhgora"}, {"business_status": "OPERATIONAL", "geometry": {"location": {"lat": 23.6178255, "lng": 86.1584955}, "viewport": {"northeast": {"lat": 23.61905138029151, "lng": 86.1597446802915}, "southwest": {"lat": 23.6163534197085, "lng": 86.15704671970849}}}, "icon": "https://maps.gstatic.com/mapfiles/place_api/icons/v1/png_71/school-71.png", "icon_background_color": "#7B9EB0", "icon_mask_base_uri": "https://maps.gstatic.com/mapfiles/place_api/icons/v2/school_pinlet", "name": "Middle School Harla", "photos": [{"height": 768, "html_attributions": ["<a href=\"https://maps.google.com/maps/contrib/105338410238273788447\">Amit Mishra</a>"], "photo_reference": "Aap_uEBYRwJ9zduiX1G9jIDwerdW_dbfjCAzD5AFu_VnKlmC1eJkbIlsqyibp91BXegfg3XbeADBYAyNj6rBDV1mmPYj-p9wLwECtm4i7WQCBxpwQR-oZNZr3E2R6tSDN6zn2-ymvXGtYo6MYJQhPEverzWs624hWnZkvqHUCDS05ODkpZ6T", "width": 1024}], "place_id": "ChIJhyvmSgok9DkRWGJx6P8Xu7g", "rating": 5, "reference": "ChIJhyvmSgok9DkRWGJx6P8Xu7g", "scope": "GOOGLE", "types": ["school", "point_of_interest", "establishment"], "user_ratings_total": 1, "vicinity": "J595+49Q, Adrash Colony, Bokaro Steel City"}, {"business_status": "OPERATIONAL", "geometry": {"location": {"lat": 23.6187024, "lng": 86.15976529999999}, "viewport": {"northeast": {"lat": 23.6200633802915, "lng": 86.1610971802915}, "southwest": {"lat": 23.6173654197085, "lng": 86.1583992197085}}}, "icon": "https://maps.gstatic.com/mapfiles/place_api/icons/v1/png_71/school-71.png", "icon_background_color": "#7B9EB0", "icon_mask_base_uri": "https://maps.gstatic.com/mapfiles/place_api/icons/v2/school_pinlet", "name": "Rajwansh clabe", "place_id": "ChIJH93dCZMl9DkR-xzVAL-CDLc", "reference": "ChIJH93dCZMl9DkR-xzVAL-CDLc", "scope": "GOOGLE", "types": ["school", "point_of_interest", "establishment"], "vicinity": "J595+FWJ, Adrash Colony, Chas"}, {"business_status": "OPERATIONAL", "geometry": {"location": {"lat": 23.6181907, "lng": 86.1583689}, "viewport": {"northeast": {"lat": 23.6196813302915, "lng": 86.15978343029151}, "southwest": {"lat": 23.6169833697085, "lng": 86.15708546970849}}}, "icon": "https://maps.gstatic.com/mapfiles/place_api/icons/v1/png_71/school-71.png", "icon_background_color": "#7B9EB0", "icon_mask_base_uri": "https://maps.gstatic.com/mapfiles/place_api/icons/v2/school_pinlet", "name": "Madhya Vidyala Harila", "photos": [{"height": 3024, "html_attributions": ["<a href=\"https://maps.google.com/maps/contrib/103622338293751493864\">Gaurav Sinha</a>"], "photo_reference": "Aap_uEATi1LS7-4PIdD0VDUCVQvbqMzM7kC5gcBj7sdY6pdobp-xeP3GgaD9kbW0_GBJCsP5s6Qo6QeckV3Imr3woWpDISszz2euz0xT_jXn8s8_59jl22oEMWKvvyPed1jbdFQFCDojmO0qccYA7QabasGCuYpfhkwVVkLd4dOh1RLocoIE", "width": 4032}], "place_id": "ChIJN-ZFSQok9DkRaFQI1zpGH9o", "rating": 5, "reference": "ChIJN-ZFSQok9DkRaFQI1zpGH9o", "scope": "GOOGLE", "types": ["school", "point_of_interest", "establishment"], "user_ratings_total": 1, "vicinity": "J595+78H, Adrash Colony, Bokaro Steel City"}, {"business_status": "OPERATIONAL", "geometry": {"location": {"lat": 23.612827, "lng": 86.178007}, "viewport": {"northeast": {"lat": 23.6144467802915, "lng": 86.1794742302915}, "southwest": {"lat": 23.6117488197085, "lng": 86.17677626970848}}}, "icon": "https://maps.gstatic.com/mapfiles/place_api/icons/v1/png_71/school-71.png", "icon_background_color": "#7B9EB0", "icon_mask_base_uri": "https://maps.gstatic.com/mapfiles/place_api/icons/v2/school_pinlet", "name": "Hotal managment college", "photos": [{"height": 1280, "html_attributions": ["<a href=\"https://maps.google.com/maps/contrib/100783015964154844853\">lakshman shukla</a>"], "photo_reference": "Aap_uECfcSZBHJgfGS00wWgT-qLeygHePqC56QqzqVG34DwK8DbDA9SxHuRSF-JBM1tfF-OVBXCyUbd47JBFYGL1yNquaC5aqGVTnINasFO0FIuQIGKqUG10ocDGjUQXqmRcdWEM-fZEzUPBADfrAHgoOLiT0uvu1qg6w4qr7K1T8uvqRvPc", "width": 720}], "place_id": "ChIJWwRGXGgn9DkR73Kv1oppkjw", "plus_code": {"compound_code": "J57H+46 Kamaldi, Jharkhand, India", "global_code": "7MM8J57H+46"}, "reference": "ChIJWwRGXGgn9DkR73Kv1oppkjw", "scope": "GOOGLE", "types": ["school", "point_of_interest", "establishment"], "vicinity": "National Highway 320, Kamaldi"}, {"business_status": "OPERATIONAL", "geometry": {"location": {"lat": 23.61876090000001, "lng": 86.15892509999999}, "viewport": {"northeast": {"lat": 23.6202675302915, "lng": 86.1603966302915}, "southwest": {"lat": 23.6175695697085, "lng": 86.1576986697085}}}, "icon": "https://maps.gstatic.com/mapfiles/place_api/icons/v1/png_71/school-71.png", "icon_background_color": "#7B9EB0", "icon_mask_base_uri": "https://maps.gstatic.com/mapfiles/place_api/icons/v2/school_pinlet", "name": "Visthapit High School", "opening_hours": {"open_now": false}, "place_id": "ChIJG3pAOgok9DkR4W3TFFG6Qqg", "plus_code": {"compound_code": "J595+GH Bandhgora, Jharkhand, India", "global_code": "7MM8J595+GH"}, "rating": 3.7, "reference": "ChIJG3pAOgok9DkR4W3TFFG6Qqg", "scope": "GOOGLE", "types": ["secondary_school", "school", "point_of_interest", "establishment"], "user_ratings_total": 10, "vicinity": "Adrash Colony, Bandhgora"}, {"business_status": "OPERATIONAL", "geometry": {"location": {"lat": 23.6193281, "lng": 86.1594154}, "viewport": {"northeast": {"lat": 23.6206763802915, "lng": 86.16076368029151}, "southwest": {"lat": 23.6179784197085, "lng": 86.1580657197085}}}, "icon": "https://maps.gstatic.com/mapfiles/place_api/icons/v1/png_71/school-71.png", "icon_background_color": "#7B9EB0", "icon_mask_base_uri": "https://maps.gstatic.com/mapfiles/place_api/icons/v2/school_pinlet", "name": "rajvansh club", "place_id": "ChIJT1LsYukl9DkRpRlnAiPKa18", "plus_code": {"compound_code": "J595+PQ Chas, Jharkhand, India", "global_code": "7MM8J595+PQ"}, "reference": "ChIJT1LsYukl9DkRpRlnAiPKa18", "scope": "GOOGLE", "types": ["school", "point_of_interest", "establishment"], "vicinity": "Unnamed Road, Adrash Colony, Chas"}], "status": "OK"}