{"html_attributions": [], "results": [{"business_status": "OPERATIONAL", "geometry": {"location": {"lat": 23.6771017, "lng": 86.1731234}, "viewport": {"northeast": {"lat": 23.6784933802915, "lng": 86.17456383029149}, "southwest": {"lat": 23.6757954197085, "lng": 86.17186586970848}}}, "icon": "https://maps.gstatic.com/mapfiles/place_api/icons/v1/png_71/school-71.png", "icon_background_color": "#7B9EB0", "icon_mask_base_uri": "https://maps.gstatic.com/mapfiles/place_api/icons/v2/school_pinlet", "name": "Blue Fame Academy", "photos": [{"height": 612, "html_attributions": ["<a href=\"https://maps.google.com/maps/contrib/115645003656256992147\">Amit Kumar</a>"], "photo_reference": "Aap_uECt7XtiMw8vwEUQOPpjEyliD6PQMKxgf01hKxz4Iqne0R5bU8iMrxCRYAuExqjnrtQ5YYVu3OJp6uAF9A3VVfKb5ea5WeAntVFJKZphHd-NKsEHvTS8gX8TkdURBTeLUskt5vzMKkaSChhq7gzJqUBnEKH7udPB4R7Zj-b3TvwJghG7", "width": 816}], "place_id": "ChIJ76Njriki9DkR2wYIZVr07SM", "reference": "ChIJ76Njriki9DkR2wYIZVr07SM", "scope": "GOOGLE", "types": ["school", "point_of_interest", "establishment"], "vicinity": "M5GF+R6X, Sector 6A, Sector-6/C, Bokaro Steel City"}, {"business_status": "OPERATIONAL", "geometry": {"location": {"lat": 23.677319, "lng": 86.17392799999999}, "viewport": {"northeast": {"lat": 23.6786990302915, "lng": 86.1752309302915}, "southwest": {"lat": 23.67600106970849, "lng": 86.1725329697085}}}, "icon": "https://maps.gstatic.com/mapfiles/place_api/icons/v1/png_71/school-71.png", "icon_background_color": "#7B9EB0", "icon_mask_base_uri": "https://maps.gstatic.com/mapfiles/place_api/icons/v2/school_pinlet", "name": "Shree Sai Public School", "opening_hours": {"open_now": false}, "place_id": "ChIJW6Fwyiki9DkRolkFlE-wXA0", "plus_code": {"compound_code": "M5GF+WH Bokaro Steel City, Jharkhand, India", "global_code": "7MM8M5GF+WH"}, "rating": 3.7, "reference": "ChIJW6Fwyiki9DkRolkFlE-wXA0", "scope": "GOOGLE", "types": ["school", "point_of_interest", "establishment"], "user_ratings_total": 3, "vicinity": "Plot No. C/4, Centre Market, Shopping Center, Sector - 6, Bokaro Steel City"}, {"business_status": "OPERATIONAL", "geometry": {"location": {"lat": 23.6743734, "lng": 86.15512849999999}, "viewport": {"northeast": {"lat": 23.6757007802915, "lng": 86.1564776302915}, "southwest": {"lat": 23.6730028197085, "lng": 86.1537796697085}}}, "icon": "https://maps.gstatic.com/mapfiles/place_api/icons/v1/png_71/school-71.png", "icon_background_color": "#7B9EB0", "icon_mask_base_uri": "https://maps.gstatic.com/mapfiles/place_api/icons/v2/school_pinlet", "name": "Sumit tution class", "place_id": "ChIJR3tirqUj9DkRwpsPN_mwiZk", "plus_code": {"compound_code": "M5F4+P3 Bokaro Steel City, Jharkhand, India", "global_code": "7MM8M5F4+P3"}, "reference": "ChIJR3tirqUj9DkRwpsPN_mwiZk", "scope": "GOOGLE", "types": ["school", "point_of_interest", "establishment"], "vicinity": "Sec 8 a, Street 4 Road, Sector 4, Bokaro Steel City"}, {"business_status": "OPERATIONAL", "geometry": {"location": {"lat": 23.6603322, "lng": 86.1748623}, "viewport": {"northeast": {"lat": 23.66169518029151, "lng": 86.1761585302915}, "southwest": {"lat": 23.6589972197085, "lng": 86.17346056970848}}}, "icon": "https://maps.gstatic.com/mapfiles/place_api/icons/v1/png_71/school-71.png", "icon_background_color": "#7B9EB0", "icon_mask_base_uri": "https://maps.gstatic.com/mapfiles/place_api/icons/v2/school_pinlet", "name": "Mahila Motor Training Chir Chas Branch", "opening_hours": {"open_now": false}, "place_id": "ChIJZexoDdgj9DkR5L5LenGa89M", "plus_code": {"compound_code": "M56F+4W Bokaro Steel City, Jharkhand, India", "global_code": "7MM8M56F+4W"}, "rating": 4, "reference": "ChIJZexoDdgj9DkR5L5LenGa89M", "scope": "GOOGLE", "types": ["school", "point_of_interest", "establishment"], "user_ratings_total": 4, "vicinity": "Chira Chas, Bokaro Steel City"}, {"business_status": "OPERATIONAL", "geometry": {"location": {"lat": 23.6591566, "lng": 86.17365749999999}, "viewport": {"northeast": {"lat": 23.6605846802915, "lng": 86.1750580802915}, "southwest": {"lat": 23.6578867197085, "lng": 86.1723601197085}}}, "icon": "https://maps.gstatic.com/mapfiles/place_api/icons/v1/png_71/school-71.png", "icon_background_color": "#7B9EB0", "icon_mask_base_uri": "https://maps.gstatic.com/mapfiles/place_api/icons/v2/school_pinlet", "name": "Hello Kids Tinyworld", "photos": [{"height": 1280, "html_attributions": ["<a href=\"https://maps.google.com/maps/contrib/108874000013054421789\">Hello Kids Tinyworld</a>"], "photo_reference": "Aap_uEDeQNeyekuLOvP4h9-ZCpi0V0JZqBW4YN65CPc2pT7uITJgIFWOILg89csaq1gHdwdSHeI1BxLyQtdSdvKsVLbHXKk4Clz-1J0fRgOe1ziji7JVBACkketFJw2-k6vjT-2C4J4KMY-cRIk_1pSiFvZh65XiQIbXEhL7eFiGbawvLlRs", "width": 640}], "place_id": "ChIJ-Tnxfnoj9DkRL1Zr3M_c7BI", "plus_code": {"compound_code": "M55F+MF Bokaro Steel City, Jharkhand, India", "global_code": "7MM8M55F+MF"}, "rating": 5, "reference": "ChIJ-Tnxfnoj9DkRL1Zr3M_c7BI", "scope": "GOOGLE", "types": ["school", "point_of_interest", "establishment"], "user_ratings_total": 2, "vicinity": "Behind State Bank of India,Chanakyapuri, Chira Chas, Bokaro Steel City"}, {"business_status": "OPERATIONAL", "geometry": {"location": {"lat": 23.6570106, "lng": 86.1676829}, "viewport": {"northeast": {"lat": 23.6583433302915, "lng": 86.16902328029151}, "southwest": {"lat": 23.6556453697085, "lng": 86.16632531970849}}}, "icon": "https://maps.gstatic.com/mapfiles/place_api/icons/v1/png_71/school-71.png", "icon_background_color": "#7B9EB0", "icon_mask_base_uri": "https://maps.gstatic.com/mapfiles/place_api/icons/v2/school_pinlet", "name": "URBAN ASSEMBLY SCHOOL", "place_id": "ChIJ7Sgvh9Aj9DkRGc8jMvJAQ5c", "plus_code": {"compound_code": "M549+R3 Bokaro Steel City, Jharkhand, India", "global_code": "7MM8M549+R3"}, "rating": 4.5, "reference": "ChIJ7Sgvh9Aj9DkRGc8jMvJAQ5c", "scope": "GOOGLE", "types": ["school", "point_of_interest", "establishment"], "user_ratings_total": 2, "vicinity": "827013, Nabi Nagar, Bharra Basti, Bokaro Steel City"}, {"business_status": "OPERATIONAL", "geometry": {"location": {"lat": 23.6716791, "lng": 86.1531732}, "viewport": {"northeast": {"lat": 23.6730257802915, "lng": 86.15431343029151}, "southwest": {"lat": 23.6703278197085, "lng": 86.1516154697085}}}, "icon": "https://maps.gstatic.com/mapfiles/place_api/icons/v1/png_71/school-71.png", "icon_background_color": "#7B9EB0", "icon_mask_base_uri": "https://maps.gstatic.com/mapfiles/place_api/icons/v2/school_pinlet", "name": "Rotary Play School", "photos": [{"height": 562, "html_attributions": ["<a href=\"https://maps.google.com/maps/contrib/101306289675803432117\">Vikash Kumar</a>"], "photo_reference": "Aap_uEAxlhMhypWqm39vmYN3SIlLTr8K1WFEh8Q8VESs9sIsHE9kbBD4Mkn7o-hwSvpI5nnxZqPCakp4XB2qBrUu_dQbAoxZjCqDz6jTS9HEaQ95zcDbmU-y1WfnH4UJNVJdJEulxZxwAvqGBk1RHnsrHKf-zJSmeG8XvIw53JjBMJlCzffD", "width": 1024}], "place_id": "ChIJb82DWkoi9DkRUEb7M05ReTY", "plus_code": {"compound_code": "M5C3+M7 Bokaro Steel City, Jharkhand, India", "global_code": "7MM8M5C3+M7"}, "rating": 4, "reference": "ChIJb82DWkoi9DkRUEb7M05ReTY", "scope": "GOOGLE", "types": ["school", "point_of_interest", "establishment"], "user_ratings_total": 13, "vicinity": "Sector 4, Bokaro Steel City"}, {"business_status": "OPERATIONAL", "geometry": {"location": {"lat": 23.6578613, "lng": 86.17132629999999}, "viewport": {"northeast": {"lat": 23.6593507802915, "lng": 86.1726995302915}, "southwest": {"lat": 23.6566528197085, "lng": 86.17000156970849}}}, "icon": "https://maps.gstatic.com/mapfiles/place_api/icons/v1/png_71/school-71.png", "icon_background_color": "#7B9EB0", "icon_mask_base_uri": "https://maps.gstatic.com/mapfiles/place_api/icons/v2/school_pinlet", "name": "Prapti Estate Phase 3", "place_id": "ChIJy2zlQdcj9DkR07Rq8tJqTHo", "reference": "ChIJy2zlQdcj9DkR07Rq8tJqTHo", "scope": "GOOGLE", "types": ["school", "point_of_interest", "establishment"], "vicinity": "M55C+4GW, Bharra, Bokaro Steel City"}, {"business_status": "OPERATIONAL", "geometry": {"location": {"lat": 23.6663615, "lng": 86.1530011}, "viewport": {"northeast": {"lat": 23.6677140302915, "lng": 86.1543392302915}, "southwest": {"lat": 23.6650160697085, "lng": 86.15164126970849}}}, "icon": "https://maps.gstatic.com/mapfiles/place_api/icons/v1/png_71/school-71.png", "icon_background_color": "#7B9EB0", "icon_mask_base_uri": "https://maps.gstatic.com/mapfiles/place_api/icons/v2/school_pinlet", "name": "Power motor Driving Training School (Goswami Ji)", "opening_hours": {"open_now": true}, "photos": [{"height": 343, "html_attributions": ["<a href=\"https://maps.google.com/maps/contrib/117655617186561990197\">Power motor Driving Training School (Goswami Ji)</a>"], "photo_reference": "Aap_uECiZwD9gvhPp3rHTLx3fy22TTUZ-EkmIuphJ89F7_a6OI6STBWBDt7H4RXbe1FdS5UNr4yQDHdrAP1qX660FfFdZj-T48s8j-jmPdnaElcHxQQLcD5DkxKH9V7RBK1_8aROqKgrPim2lCAI7PPrmsfUmDU18d-ZvyMURw52bvni2nom", "width": 612}], "place_id": "ChIJ2yWpMX8j9DkRhseByQatmmY", "plus_code": {"compound_code": "M583+G6 Bokaro Steel City, Jharkhand, India", "global_code": "7MM8M583+G6"}, "rating": 4.9, "reference": "ChIJ2yWpMX8j9DkRhseByQatmmY", "scope": "GOOGLE", "types": ["school", "point_of_interest", "establishment"], "user_ratings_total": 190, "vicinity": "near M Bazar, Plot No.- KF11, near M Bazar, Sector 4, Bokaro Steel City"}, {"business_status": "OPERATIONAL", "geometry": {"location": {"lat": 23.656862, "lng": 86.1676524}, "viewport": {"northeast": {"lat": 23.6582826302915, "lng": 86.1690393802915}, "southwest": {"lat": 23.6555846697085, "lng": 86.16634141970849}}}, "icon": "https://maps.gstatic.com/mapfiles/place_api/icons/v1/png_71/school-71.png", "icon_background_color": "#7B9EB0", "icon_mask_base_uri": "https://maps.gstatic.com/mapfiles/place_api/icons/v2/school_pinlet", "name": "BHARRA URDU HIGH SCHOOL", "opening_hours": {"open_now": false}, "photos": [{"height": 560, "html_attributions": ["<a href=\"https://maps.google.com/maps/contrib/100567337858656650124\">PAYTM MONEY</a>"], "photo_reference": "Aap_uEDRWeqbMX1brhdHKFQFAolJrtlnMDHTGyzk2JHZsNm0Q967dM12btzOJMvmXFjSYdt1fVikbjC9S8FacTpR5ujEfcuX_O1VA1uEpaswOo_4nUseYIyo3cLxUtXJTQKTAR8tPp5TM1ABo5ePh-YYrFZdnXd6uks_LgMZjXGFSkHW5k57", "width": 1152}], "place_id": "ChIJ90PrgNAj9DkRRHK_dNtCxdA", "plus_code": {"compound_code": "M549+P3 Bokaro Steel City, Jharkhand, India", "global_code": "7MM8M549+P3"}, "rating": 5, "reference": "ChIJ90PrgNAj9DkRRHK_dNtCxdA", "scope": "GOOGLE", "types": ["school", "point_of_interest", "establishment"], "user_ratings_total": 3, "vicinity": "827013, Nabi Nagar, Bharra Basti, Bokaro Steel City"}, {"business_status": "OPERATIONAL", "geometry": {"location": {"lat": 23.6565843, "lng": 86.16765099999999}, "viewport": {"northeast": {"lat": 23.6578725302915, "lng": 86.1689963802915}, "southwest": {"lat": 23.6551745697085, "lng": 86.1662984197085}}}, "icon": "https://maps.gstatic.com/mapfiles/place_api/icons/v1/png_71/school-71.png", "icon_background_color": "#7B9EB0", "icon_mask_base_uri": "https://maps.gstatic.com/mapfiles/place_api/icons/v2/school_pinlet", "name": "Minhaj manzil", "photos": [{"height": 4128, "html_attributions": ["<a href=\"https://maps.google.com/maps/contrib/110873627243123742025\">Minhaj Ali</a>"], "photo_reference": "Aap_uEDheNGTbsCp7llisQeKL0ZohO2OoXPFGA9oZQPs99-U0IHgK9Tf_CEfzRr0I-rqdx4SkR1LFI1aCiU8o56W4h9D3l5u5v8i6rM-EhW47lUKnv3fKIW-S8vMBxzKaiFN_0XcBEkR0BxkrfAJG4KrCJYAJSKkgS3oRqt-j5tFgK_SAjU7", "width": 3096}], "place_id": "ChIJF3MtAh0j9DkRgTmvl-3wgSs", "plus_code": {"compound_code": "M549+J3 Bokaro Steel City, Jharkhand, India", "global_code": "7MM8M549+J3"}, "reference": "ChIJF3MtAh0j9DkRgTmvl-3wgSs", "scope": "GOOGLE", "types": ["school", "point_of_interest", "establishment"], "vicinity": "Bich mohalla ward 10, Bharra Basti, Bokaro Steel City"}, {"business_status": "OPERATIONAL", "geometry": {"location": {"lat": 23.6659433, "lng": 86.1527193}, "viewport": {"northeast": {"lat": 23.66727158029151, "lng": 86.1541311802915}, "southwest": {"lat": 23.6645736197085, "lng": 86.1514332197085}}}, "icon": "https://maps.gstatic.com/mapfiles/place_api/icons/v1/png_71/school-71.png", "icon_background_color": "#7B9EB0", "icon_mask_base_uri": "https://maps.gstatic.com/mapfiles/place_api/icons/v2/school_pinlet", "name": "NEW VACANT PLACE", "place_id": "ChIJv1MwG7Uj9DkRqvaX_a6k0dA", "plus_code": {"compound_code": "M583+93 Bokaro Steel City, Jharkhand, India", "global_code": "7MM8M583+93"}, "reference": "ChIJv1MwG7Uj9DkRqvaX_a6k0dA", "scope": "GOOGLE", "types": ["school", "point_of_interest", "establishment"], "vicinity": "4E-9, Sector 4, Bokaro Steel City"}, {"business_status": "OPERATIONAL", "geometry": {"location": {"lat": 23.669825, "lng": 86.152307}, "viewport": {"northeast": {"lat": 23.6712542802915, "lng": 86.1537095802915}, "southwest": {"lat": 23.6685563197085, "lng": 86.1510116197085}}}, "icon": "https://maps.gstatic.com/mapfiles/place_api/icons/v1/png_71/school-71.png", "icon_background_color": "#7B9EB0", "icon_mask_base_uri": "https://maps.gstatic.com/mapfiles/place_api/icons/v2/school_pinlet", "name": "Rupesh sarmaa", "opening_hours": {"open_now": false}, "place_id": "ChIJ-XJ1UP0j9DkRLajFNYJeh0g", "plus_code": {"compound_code": "M592+WW Bokaro Steel City, Jharkhand, India", "global_code": "7MM8M592+WW"}, "reference": "ChIJ-XJ1UP0j9DkRLajFNYJeh0g", "scope": "GOOGLE", "types": ["school", "point_of_interest", "establishment"], "vicinity": "Quarter No. 1086, 4-d, Sector 4D, Sector 4, Bokaro Steel City"}, {"business_status": "OPERATIONAL", "geometry": {"location": {"lat": 23.6664862, "lng": 86.15249519999999}, "viewport": {"northeast": {"lat": 23.6678681302915, "lng": 86.1538571802915}, "southwest": {"lat": 23.6651701697085, "lng": 86.15115921970848}}}, "icon": "https://maps.gstatic.com/mapfiles/place_api/icons/v1/png_71/school-71.png", "icon_background_color": "#7B9EB0", "icon_mask_base_uri": "https://maps.gstatic.com/mapfiles/place_api/icons/v2/school_pinlet", "name": "Smartprep Chemistry Classes", "opening_hours": {"open_now": true}, "place_id": "ChIJI3QaH7Uj9DkRp2e2PpXfNS0", "plus_code": {"compound_code": "M582+HX Bokaro Steel City, Jharkhand, India", "global_code": "7MM8M582+HX"}, "reference": "ChIJI3QaH7Uj9DkRp2e2PpXfNS0", "scope": "GOOGLE", "types": ["school", "point_of_interest", "establishment"], "vicinity": "KE-03, City Center, Sector 4, Bokaro Steel City"}], "status": "OK"}