{"html_attributions": [], "next_page_token": "Aap_uEBY7_r8Ua5vn-QgFpIZ0Hg7623qvXMbv0jUFvYhR3YYF8nABnUhjpa5g_kXWHiXOTGv60Zt6Ej6gpmLrMfWCTk_zCw_zavh_6Wsyd0ZdRAdqi-IINBHuIFXdT4NZYhltq2ZKMwqSoSwR2E14mQP4T7xtf1g_u37VLVVOps-1n6-pPk6kiQFhNJ7FvxfCiYhh8ax7noJAUJgVstwOeZlHQN-h9u6C2W_PCKKa2UD62LHZxAnyCfSU1xnVQpXV5q9qzw-drM8gJI1lEJvepUUiUdKqi8tNO34FdZnQNe5myYicTSoZto3TNlX7cu_mfEnNTeRQOCY8RN0Bd3pAv38JPuu4W6XK2xSUgiPb_hB54z8s5ZMV4K4IICD_bcLgjOYTR40DsE_EydpQArTddJnUM9gz2r19FGYXhzQ8_faDzik3U13cwQ", "results": [{"business_status": "OPERATIONAL", "geometry": {"location": {"lat": 23.692664, "lng": 86.1661311}, "viewport": {"northeast": {"lat": 23.6939560802915, "lng": 86.1674786302915}, "southwest": {"lat": 23.6912581197085, "lng": 86.16478066970849}}}, "icon": "https://maps.gstatic.com/mapfiles/place_api/icons/v1/png_71/school-71.png", "icon_background_color": "#7B9EB0", "icon_mask_base_uri": "https://maps.gstatic.com/mapfiles/place_api/icons/v2/school_pinlet", "name": "S.R.Public School", "place_id": "ChIJzyUUWCQi9DkRqwrCzYHrkeg", "plus_code": {"compound_code": "M5V8+3F Bokaro Steel City, Jharkhand, India", "global_code": "7MM8M5V8+3F"}, "rating": 5, "reference": "ChIJzyUUWCQi9DkRqwrCzYHrkeg", "scope": "GOOGLE", "types": ["school", "point_of_interest", "establishment"], "user_ratings_total": 1, "vicinity": "Sector 8/B, Bokaro Steel City"}, {"business_status": "OPERATIONAL", "geometry": {"location": {"lat": 23.6939603, "lng": 86.1610924}, "viewport": {"northeast": {"lat": 23.6953150302915, "lng": 86.16248758029151}, "southwest": {"lat": 23.6926170697085, "lng": 86.1597896197085}}}, "icon": "https://maps.gstatic.com/mapfiles/place_api/icons/v1/png_71/school-71.png", "icon_background_color": "#7B9EB0", "icon_mask_base_uri": "https://maps.gstatic.com/mapfiles/place_api/icons/v2/school_pinlet", "name": "Bokaro Public School", "place_id": "ChIJH8iLaRYi9DkRnSZ7Rdo2jm4", "plus_code": {"compound_code": "M5V6+HC Bokaro Steel City, Jharkhand, India", "global_code": "7MM8M5V6+HC"}, "rating": 2.4, "reference": "ChIJH8iLaRYi9DkRnSZ7Rdo2jm4", "scope": "GOOGLE", "types": ["school", "point_of_interest", "establishment"], "user_ratings_total": 5, "vicinity": "Street 37, Sector 8, Bokaro Steel City"}, {"business_status": "OPERATIONAL", "geometry": {"location": {"lat": 23.6926107, "lng": 86.15754009999999}, "viewport": {"northeast": {"lat": 23.6940047302915, "lng": 86.1588898302915}, "southwest": {"lat": 23.69130676970849, "lng": 86.1561918697085}}}, "icon": "https://maps.gstatic.com/mapfiles/place_api/icons/v1/png_71/school-71.png", "icon_background_color": "#7B9EB0", "icon_mask_base_uri": "https://maps.gstatic.com/mapfiles/place_api/icons/v2/school_pinlet", "name": "CEMEC COMPUTER", "place_id": "ChIJ3UJ-dhUi9DkRvlhY8v0Hptg", "rating": 4.5, "reference": "ChIJ3UJ-dhUi9DkRvlhY8v0Hptg", "scope": "GOOGLE", "types": ["school", "point_of_interest", "establishment"], "user_ratings_total": 2, "vicinity": "M5V5+22V, Sector 8, Bokaro Steel City"}, {"business_status": "OPERATIONAL", "geometry": {"location": {"lat": 23.6811979, "lng": 86.160478}, "viewport": {"northeast": {"lat": 23.6825507302915, "lng": 86.16190473029151}, "southwest": {"lat": 23.6798527697085, "lng": 86.1592067697085}}}, "icon": "https://maps.gstatic.com/mapfiles/place_api/icons/v1/png_71/school-71.png", "icon_background_color": "#7B9EB0", "icon_mask_base_uri": "https://maps.gstatic.com/mapfiles/place_api/icons/v2/school_pinlet", "name": "M.G.M Higher Secondary School", "opening_hours": {"open_now": false}, "photos": [{"height": 2250, "html_attributions": ["<a href=\"https://maps.google.com/maps/contrib/106545062265170211281\">RAVI KANT KUMAR</a>"], "photo_reference": "Aap_uEDXxodZ4T3_LPteNvIFa6b_9JW7WWKX9oJ2rnt0Bf8luKS5MaFQFdOCP5uGLO0zymqhv5sSo0mCm-k1nrZMtQYW9-WyNlU_T3tT8CrJrcd00StXD54DCo9zC4Ro3VUE51znvcPjxSccYSQvEjJsrhgrEUMiQfpg0QQ9UpsTot1XR7pw", "width": 4000}], "place_id": "ChIJKWa8RDoi9DkRdOK5rVa7ViE", "plus_code": {"compound_code": "M5J6+F5 Bokaro Steel City, Jharkhand, India", "global_code": "7MM8M5J6+F5"}, "rating": 4.1, "reference": "ChIJKWa8RDoi9DkRdOK5rVa7ViE", "scope": "GOOGLE", "types": ["school", "point_of_interest", "establishment"], "user_ratings_total": 331, "vicinity": "near Central Bank of India, Sector 4-F, near Central Bank of India, Bokaro Steel City"}, {"business_status": "OPERATIONAL", "geometry": {"location": {"lat": 23.690379, "lng": 86.1556739}, "viewport": {"northeast": {"lat": 23.6916056802915, "lng": 86.1570220302915}, "southwest": {"lat": 23.6889077197085, "lng": 86.1543240697085}}}, "icon": "https://maps.gstatic.com/mapfiles/place_api/icons/v1/png_71/school-71.png", "icon_background_color": "#7B9EB0", "icon_mask_base_uri": "https://maps.gstatic.com/mapfiles/place_api/icons/v2/school_pinlet", "name": "Dr. Rajendra Prasad Public School.", "photos": [{"height": 1836, "html_attributions": ["<a href=\"https://maps.google.com/maps/contrib/115787246077159092538\">anant prasad</a>"], "photo_reference": "Aap_uED-Mu__4cCiiuiz_lDQ0yw-W2UbentK-dNZbU9cz3puFOkZXimDvdAqWpkBDeInDMkSFmY8IU9cm-1LXwheCi9I1MUwj_RDIfV-jWt-9mYn1grX24PYGkeTqRvpvHI1jSarWr4jZOqo8IKJu_GBKmRe9FvL1hkOThz6-JGtt60umfkB", "width": 3264}], "place_id": "ChIJ44U9kz8i9DkRVkSfgE-UyVk", "plus_code": {"compound_code": "M5R4+57 Bokaro Steel City, Jharkhand, India", "global_code": "7MM8M5R4+57"}, "rating": 3.2, "reference": "ChIJ44U9kz8i9DkRVkSfgE-UyVk", "scope": "GOOGLE", "types": ["school", "point_of_interest", "establishment"], "user_ratings_total": 13, "vicinity": "Street 17, Sector 8/B, Bokaro Steel City"}, {"business_status": "OPERATIONAL", "geometry": {"location": {"lat": 23.6856594, "lng": 86.1655923}, "viewport": {"northeast": {"lat": 23.6868625802915, "lng": 86.1669399802915}, "southwest": {"lat": 23.6841646197085, "lng": 86.16424201970848}}}, "icon": "https://maps.gstatic.com/mapfiles/place_api/icons/v1/png_71/school-71.png", "icon_background_color": "#7B9EB0", "icon_mask_base_uri": "https://maps.gstatic.com/mapfiles/place_api/icons/v2/school_pinlet", "name": "BISSS 8/B school", "opening_hours": {"open_now": false}, "place_id": "ChIJ_-ox1UUj9DkRY6VdtoFpof4", "plus_code": {"compound_code": "M5P8+76 Bokaro Steel City, Jharkhand, India", "global_code": "7MM8M5P8+76"}, "rating": 4, "reference": "ChIJ_-ox1UUj9DkRY6VdtoFpof4", "scope": "GOOGLE", "types": ["secondary_school", "school", "point_of_interest", "establishment"], "user_ratings_total": 3, "vicinity": "PILGHADIYA KHATAL SECTOER, Sector 4-F, Bokaro Steel City"}, {"business_status": "OPERATIONAL", "geometry": {"location": {"lat": 23.6856289, "lng": 86.1656862}, "viewport": {"northeast": {"lat": 23.68684698029151, "lng": 86.1670340302915}, "southwest": {"lat": 23.6841490197085, "lng": 86.16433606970848}}}, "icon": "https://maps.gstatic.com/mapfiles/place_api/icons/v1/png_71/school-71.png", "icon_background_color": "#7B9EB0", "icon_mask_base_uri": "https://maps.gstatic.com/mapfiles/place_api/icons/v2/school_pinlet", "name": "BSL +2 School, Sector 8C", "photos": [{"height": 576, "html_attributions": ["<a href=\"https://maps.google.com/maps/contrib/112692051216127456661\">chandan kumar</a>"], "photo_reference": "Aap_uECccr2q-xwVd-_cVYzV6sMjfJscthjSvjXBK3fvWAJJVPwEnLBcZ7LRe0zl05y7CeDTC1kILiqT_aSjvtWJ77TE99tNMnuZZ7m88n7AhrBFofI6sPOQwuOc6rDLpX129hgrGudURMCKoEcsG8NWph5KD09tZjyM3rq6Rnqtpd1AU_Ap", "width": 1080}], "place_id": "ChIJdedopSQi9DkRZhONiKrzksk", "rating": 5, "reference": "ChIJdedopSQi9DkRZhONiKrzksk", "scope": "GOOGLE", "types": ["school", "point_of_interest", "establishment"], "user_ratings_total": 1, "vicinity": "M5P8+773, Sector-8/D, Sector 8, Bokaro Steel City"}, {"business_status": "OPERATIONAL", "geometry": {"location": {"lat": 23.6937141, "lng": 86.1647546}, "viewport": {"northeast": {"lat": 23.6950483302915, "lng": 86.1661026802915}, "southwest": {"lat": 23.6923503697085, "lng": 86.1634047197085}}}, "icon": "https://maps.gstatic.com/mapfiles/place_api/icons/v1/png_71/school-71.png", "icon_background_color": "#7B9EB0", "icon_mask_base_uri": "https://maps.gstatic.com/mapfiles/place_api/icons/v2/school_pinlet", "name": "Gurukul Coaching Classes", "place_id": "ChIJO4n3hksj9DkRNyvXZgdM1O0", "plus_code": {"compound_code": "M5V7+FW Bokaro Steel City, Jharkhand, India", "global_code": "7MM8M5V7+FW"}, "reference": "ChIJO4n3hksj9DkRNyvXZgdM1O0", "scope": "GOOGLE", "types": ["school", "point_of_interest", "establishment"], "vicinity": "1584, Street 50, Sector 8, Bokaro Steel City"}, {"business_status": "OPERATIONAL", "geometry": {"location": {"lat": 23.6933313, "lng": 86.1686143}, "viewport": {"northeast": {"lat": 23.6946775802915, "lng": 86.1699602302915}, "southwest": {"lat": 23.69197961970849, "lng": 86.16726226970849}}}, "icon": "https://maps.gstatic.com/mapfiles/place_api/icons/v1/png_71/school-71.png", "icon_background_color": "#7B9EB0", "icon_mask_base_uri": "https://maps.gstatic.com/mapfiles/place_api/icons/v2/school_pinlet", "name": "3026 8D Amres", "place_id": "ChIJkSjl2NUj9DkRA8f5udMoOUs", "plus_code": {"compound_code": "M5V9+8C Bokaro Steel City, Jharkhand, India", "global_code": "7MM8M5V9+8C"}, "reference": "ChIJkSjl2NUj9DkRA8f5udMoOUs", "scope": "GOOGLE", "types": ["school", "point_of_interest", "establishment"], "vicinity": "3018, Sector 8, Bokaro Steel City"}, {"business_status": "OPERATIONAL", "geometry": {"location": {"lat": 23.6944347, "lng": 86.1670341}, "viewport": {"northeast": {"lat": 23.69599008029151, "lng": 86.16827748029151}, "southwest": {"lat": 23.6932921197085, "lng": 86.1655795197085}}}, "icon": "https://maps.gstatic.com/mapfiles/place_api/icons/v1/png_71/school-71.png", "icon_background_color": "#7B9EB0", "icon_mask_base_uri": "https://maps.gstatic.com/mapfiles/place_api/icons/v2/school_pinlet", "name": "Bokaro Ispat Vidyalaya 8/d", "photos": [{"height": 386, "html_attributions": ["<a href=\"https://maps.google.com/maps/contrib/117807332828687322687\">Villain Murmu</a>"], "photo_reference": "Aap_uEDY9WwDx_7ORf0mLSkfGzdyhQZmoPLWFyKzEQov0i_K1PUnBn0BQ5mx53NbwPRgUjbvgb4rxAtJkp8Yh9vGCs6zUFzLSKNWOAq9FaRMRqXNaZ232TMsEebAhEtUPd1MV5Zd2znodKMogKcilTBOEocEN1Tu-ub7-mH6u_KM1MX7YxRY", "width": 648}], "place_id": "ChIJPy7oRRgi9DkRCD2uuVR0EDU", "plus_code": {"compound_code": "M5V8+QR Bokaro Steel City, Jharkhand, India", "global_code": "7MM8M5V8+QR"}, "rating": 4.3, "reference": "ChIJPy7oRRgi9DkRCD2uuVR0EDU", "scope": "GOOGLE", "types": ["school", "point_of_interest", "establishment"], "user_ratings_total": 24, "vicinity": "Sector 8 D, Sector 8, Bokaro Steel City"}, {"business_status": "OPERATIONAL", "geometry": {"location": {"lat": 23.6916, "lng": 86.15957829999999}, "viewport": {"northeast": {"lat": 23.6930364802915, "lng": 86.1609333302915}, "southwest": {"lat": 23.6903385197085, "lng": 86.15823536970849}}}, "icon": "https://maps.gstatic.com/mapfiles/place_api/icons/v1/png_71/school-71.png", "icon_background_color": "#7B9EB0", "icon_mask_base_uri": "https://maps.gstatic.com/mapfiles/place_api/icons/v2/school_pinlet", "name": "KD LIONS KHO KHO CLUB", "photos": [{"height": 1920, "html_attributions": ["<a href=\"https://maps.google.com/maps/contrib/109183672386159389199\">ROSHNI&#39;s preety world</a>"], "photo_reference": "Aap_uEDPXLwh_zzxWhy1A8kEdISfkKVeY5nBDL7Mr6drjfg4GS_oL91fyM8YJ4khypF2HU8apOWFZkurpsJZXiERcBp7YnXdtc3VRPWIypHhEuy3QuSCZDT8Afu5ifF8hXoAGbq5m-Psgr8HXkpmguQrQ2ZlXKH-67iWaPIoTXP-feEPtDur", "width": 1080}], "place_id": "ChIJ9doOYlIj9DkRmeT9O2t1dc4", "plus_code": {"compound_code": "M5R5+JR Bokaro Steel City, Jharkhand, India", "global_code": "7MM8M5R5+JR"}, "rating": 5, "reference": "ChIJ9doOYlIj9DkRmeT9O2t1dc4", "scope": "GOOGLE", "types": ["school", "point_of_interest", "establishment"], "user_ratings_total": 1, "vicinity": "Sector 8, Bokaro Steel City"}, {"business_status": "OPERATIONAL", "geometry": {"location": {"lat": 23.6954398, "lng": 86.1660706}, "viewport": {"northeast": {"lat": 23.6967992302915, "lng": 86.16734513029151}, "southwest": {"lat": 23.6941012697085, "lng": 86.1646471697085}}}, "icon": "https://maps.gstatic.com/mapfiles/place_api/icons/v1/png_71/school-71.png", "icon_background_color": "#7B9EB0", "icon_mask_base_uri": "https://maps.gstatic.com/mapfiles/place_api/icons/v2/school_pinlet", "name": "Kids Care Nursery School", "opening_hours": {"open_now": true}, "photos": [{"height": 1920, "html_attributions": ["<a href=\"https://maps.google.com/maps/contrib/118440401316095587149\">pnkj</a>"], "photo_reference": "Aap_uEDF36BA-ZfkyReNrCuoJf5JuzGg-O8s5yVDUbAAGGdwawN5XMf36K_-HAzSb9u9gbT_CA8x3Z3KSscu2O4f7prxFxvLaBob5XiAUBj2RlrDY9QtEI4iLTjK0lfhkDoBGZFAmjeml0salCdH_u-v7zpA608K09z9bxtVtLLuQIGA6d0V", "width": 1080}], "place_id": "ChIJUfO5yxki9DkRACrksgawBYc", "plus_code": {"compound_code": "M5W8+5C Bokaro Steel City, Jharkhand, India", "global_code": "7MM8M5W8+5C"}, "rating": 3.5, "reference": "ChIJUfO5yxki9DkRACrksgawBYc", "scope": "GOOGLE", "types": ["school", "point_of_interest", "establishment"], "user_ratings_total": 4, "vicinity": "new, Sector-8/D, Bokaro Steel City"}, {"business_status": "OPERATIONAL", "geometry": {"location": {"lat": 23.6935972, "lng": 86.17114699999999}, "viewport": {"northeast": {"lat": 23.6949457302915, "lng": 86.17249538029151}, "southwest": {"lat": 23.69224776970849, "lng": 86.1697974197085}}}, "icon": "https://maps.gstatic.com/mapfiles/place_api/icons/v1/png_71/school-71.png", "icon_background_color": "#7B9EB0", "icon_mask_base_uri": "https://maps.gstatic.com/mapfiles/place_api/icons/v2/school_pinlet", "name": "Cheeta Para commandov", "photos": [{"height": 713, "html_attributions": ["<a href=\"https://maps.google.com/maps/contrib/105897812347086366501\">Cheeta Para commando</a>"], "photo_reference": "Aap_uEDfe4gV10MUAiEylVu8EbeHbUrVUI_j1gXmQoM1ksdTQA2G27jnbuwgWAIUxa4d6gGg6fE5yG8QD8yhqsfzNVVEiU-ohSDSjO-_AUyQ8OIq5Fzv98mOz_1DaPSjpAtQAPC3pc2kxOb-MuNCiynVnN6keFXVtoRjtaRmt74LzoyLoHE", "width": 720}], "place_id": "ChIJ0dkEN6Mj9DkRo_WbMlt03Ds", "reference": "ChIJ0dkEN6Mj9DkRo_WbMlt03Ds", "scope": "GOOGLE", "types": ["school", "point_of_interest", "establishment"], "vicinity": "M5VC+CFJ, Sector-11/D, Sector 11, Bokaro Steel City"}, {"business_status": "OPERATIONAL", "geometry": {"location": {"lat": 23.6946701, "lng": 86.1618965}, "viewport": {"northeast": {"lat": 23.6960189802915, "lng": 86.1632110802915}, "southwest": {"lat": 23.6933210197085, "lng": 86.1605131197085}}}, "icon": "https://maps.gstatic.com/mapfiles/place_api/icons/v1/png_71/school-71.png", "icon_background_color": "#7B9EB0", "icon_mask_base_uri": "https://maps.gstatic.com/mapfiles/place_api/icons/v2/school_pinlet", "name": "Vision Tuition For Class - Nus To 7", "opening_hours": {"open_now": true}, "place_id": "ChIJs4FP5Akj9DkRBd1Jz5qquv0", "plus_code": {"compound_code": "M5V6+VQ Bokaro Steel City, Jharkhand, India", "global_code": "7MM8M5V6+VQ"}, "reference": "ChIJs4FP5Akj9DkRBd1Jz5qquv0", "scope": "GOOGLE", "types": ["school", "point_of_interest", "establishment"], "vicinity": "Sector - 9/D, street - 38, Quater no. - 1572, Sector 8, Bokaro Steel City"}, {"business_status": "OPERATIONAL", "geometry": {"location": {"lat": 23.6873781, "lng": 86.1586978}, "viewport": {"northeast": {"lat": 23.6887283802915, "lng": 86.1601049802915}, "southwest": {"lat": 23.6860304197085, "lng": 86.1574070197085}}}, "icon": "https://maps.gstatic.com/mapfiles/place_api/icons/v1/png_71/school-71.png", "icon_background_color": "#7B9EB0", "icon_mask_base_uri": "https://maps.gstatic.com/mapfiles/place_api/icons/v2/school_pinlet", "name": "Nidhi Classes", "place_id": "ChIJj2B2vz4i9DkRpXTPpBNBMJk", "reference": "ChIJj2B2vz4i9DkRpXTPpBNBMJk", "scope": "GOOGLE", "types": ["school", "point_of_interest", "establishment"], "vicinity": "M5P5+XF4, Sector 8, Bokaro Steel City"}, {"business_status": "OPERATIONAL", "geometry": {"location": {"lat": 23.6919657, "lng": 86.15912900000001}, "viewport": {"northeast": {"lat": 23.6932330802915, "lng": 86.16047233029151}, "southwest": {"lat": 23.6905351197085, "lng": 86.1577743697085}}}, "icon": "https://maps.gstatic.com/mapfiles/place_api/icons/v1/png_71/school-71.png", "icon_background_color": "#7B9EB0", "icon_mask_base_uri": "https://maps.gstatic.com/mapfiles/place_api/icons/v2/school_pinlet", "name": "Bsl +2 High School 8/A", "photos": [{"height": 720, "html_attributions": ["<a href=\"https://maps.google.com/maps/contrib/116415302242929754848\">Bsl +2 High School 8/A</a>"], "photo_reference": "Aap_uEB9idsOixQTaamtbphDCV_LBnZmqNxtg9druXTRi1KbP1ZVuW6jzH5dsK5TMjNMxEEbi5C8vYrn15eoHDQ44A6-vojoYwXbXhR39T5IQHmzDHSptH3kHwk4C9a0wk_8PYCkF1dE6MCVOEBL6WAuwOSNST2JM1Tfpb8PYc5iqVoQlZ9y", "width": 1280}], "place_id": "ChIJ5TsjZRMj9DkRUtD4-K9tdgs", "plus_code": {"compound_code": "M5R5+QM Bokaro Steel City, Jharkhand, India", "global_code": "7MM8M5R5+QM"}, "rating": 4, "reference": "ChIJ5TsjZRMj9DkRUtD4-K9tdgs", "scope": "GOOGLE", "types": ["school", "point_of_interest", "establishment"], "user_ratings_total": 1, "vicinity": "Sector 8, Bokaro Steel City"}, {"business_status": "OPERATIONAL", "geometry": {"location": {"lat": 23.691966, "lng": 86.1591062}, "viewport": {"northeast": {"lat": 23.6932338802915, "lng": 86.1604495802915}, "southwest": {"lat": 23.6905359197085, "lng": 86.15775161970848}}}, "icon": "https://maps.gstatic.com/mapfiles/place_api/icons/v1/png_71/school-71.png", "icon_background_color": "#7B9EB0", "icon_mask_base_uri": "https://maps.gstatic.com/mapfiles/place_api/icons/v2/school_pinlet", "name": "SECTOR 8C JAI PRAKASH MAIDAN", "place_id": "ChIJd5SeHT4i9DkR6ncei0Hq8To", "reference": "ChIJd5SeHT4i9DkR6ncei0Hq8To", "scope": "GOOGLE", "types": ["school", "point_of_interest", "establishment"], "vicinity": "M5R5+QJQ, Sector 8, Bokaro Steel City"}, {"business_status": "OPERATIONAL", "geometry": {"location": {"lat": 23.6914557, "lng": 86.158731}, "viewport": {"northeast": {"lat": 23.6928619802915, "lng": 86.16016523029151}, "southwest": {"lat": 23.6901640197085, "lng": 86.1574672697085}}}, "icon": "https://maps.gstatic.com/mapfiles/place_api/icons/v1/png_71/school-71.png", "icon_background_color": "#7B9EB0", "icon_mask_base_uri": "https://maps.gstatic.com/mapfiles/place_api/icons/v2/school_pinlet", "name": "Aisha field", "place_id": "ChIJeSQ56HYj9DkRCkHeel-Y5gA", "plus_code": {"compound_code": "M5R5+HF Bokaro Steel City, Jharkhand, India", "global_code": "7MM8M5R5+HF"}, "rating": 5, "reference": "ChIJeSQ56HYj9DkRCkHeel-Y5gA", "scope": "GOOGLE", "types": ["school", "point_of_interest", "establishment"], "user_ratings_total": 2, "vicinity": "A 10+2 High School, Jharkhand827009, TRIMURTI CRICKET ACADEMY, Sector 8/A 10+2 High School,Jharkhand827009 10+2 High School,Bokaro steel city,Jharkhand827009, Sector 8, Bokaro Steel City"}, {"business_status": "OPERATIONAL", "geometry": {"location": {"lat": 23.6872906, "lng": 86.15843559999999}, "viewport": {"northeast": {"lat": 23.68863948029151, "lng": 86.1596803802915}, "southwest": {"lat": 23.6859415197085, "lng": 86.1569824197085}}}, "icon": "https://maps.gstatic.com/mapfiles/place_api/icons/v1/png_71/school-71.png", "icon_background_color": "#7B9EB0", "icon_mask_base_uri": "https://maps.gstatic.com/mapfiles/place_api/icons/v2/school_pinlet", "name": "SS Tutions", "photos": [{"height": 3264, "html_attributions": ["<a href=\"https://maps.google.com/maps/contrib/117304733714310092967\">Uttam Singh</a>"], "photo_reference": "Aap_uEAOpiN2sriMGqIzY2B7CMb9TbdoqCCSu4FcGgsoQ4l0435Wa3ZYyM7aKNrgjsuXe5ZnyLlPp9acfT6Dw8K2GcryebLuHpLlmE3J9LRcjV4IBaBixuNJ832Pj-zCorkYzAaommrhXA-ziVeWdfwDP9-ygUlWTkwDE1gGx7xJKOzkt2-5", "width": 2448}], "place_id": "ChIJb7jy758j9DkRDYktCGyb6P8", "rating": 3, "reference": "ChIJb7jy758j9DkRDYktCGyb6P8", "scope": "GOOGLE", "types": ["school", "point_of_interest", "establishment"], "user_ratings_total": 2, "vicinity": "M5P5+W97, Sector 8, Bokaro Steel City"}, {"business_status": "OPERATIONAL", "geometry": {"location": {"lat": 23.6946326, "lng": 86.1711988}, "viewport": {"northeast": {"lat": 23.6959330802915, "lng": 86.1724983302915}, "southwest": {"lat": 23.6932351197085, "lng": 86.1698003697085}}}, "icon": "https://maps.gstatic.com/mapfiles/place_api/icons/v1/png_71/school-71.png", "icon_background_color": "#7B9EB0", "icon_mask_base_uri": "https://maps.gstatic.com/mapfiles/place_api/icons/v2/school_pinlet", "name": "Akashdeep Nursery school", "opening_hours": {"open_now": false}, "place_id": "ChIJ_QWp7Owh9DkR6OPIYlaIcY0", "reference": "ChIJ_QWp7Owh9DkR6OPIYlaIcY0", "scope": "GOOGLE", "types": ["school", "point_of_interest", "establishment"], "vicinity": "M5VC+VF4, Sector-11/D, Sector 11, Bokaro Steel City"}], "status": "OK"}