{"html_attributions": [], "results": [{"business_status": "OPERATIONAL", "geometry": {"location": {"lat": 23.6873176, "lng": 86.15466080000002}, "viewport": {"northeast": {"lat": 23.6885388302915, "lng": 86.1560086802915}, "southwest": {"lat": 23.6858408697085, "lng": 86.1533107197085}}}, "icon": "https://maps.gstatic.com/mapfiles/place_api/icons/v1/png_71/school-71.png", "icon_background_color": "#7B9EB0", "icon_mask_base_uri": "https://maps.gstatic.com/mapfiles/place_api/icons/v2/school_pinlet", "name": "Kids Care Academy", "opening_hours": {"open_now": true}, "place_id": "ChIJ65KsoUAi9DkRKP28iv-liXU", "plus_code": {"compound_code": "M5P3+WV Bokaro Steel City, Jharkhand, India", "global_code": "7MM8M5P3+WV"}, "rating": 1, "reference": "ChIJ65KsoUAi9DkRKP28iv-liXU", "scope": "GOOGLE", "types": ["school", "point_of_interest", "establishment"], "user_ratings_total": 2, "vicinity": "1,, Street 3, Sector 8, Bokaro Steel City"}, {"business_status": "OPERATIONAL", "geometry": {"location": {"lat": 23.6993232, "lng": 86.1705216}, "viewport": {"northeast": {"lat": 23.70068103029151, "lng": 86.17181978029151}, "southwest": {"lat": 23.6979830697085, "lng": 86.1691218197085}}}, "icon": "https://maps.gstatic.com/mapfiles/place_api/icons/v1/png_71/school-71.png", "icon_background_color": "#7B9EB0", "icon_mask_base_uri": "https://maps.gstatic.com/mapfiles/place_api/icons/v2/school_pinlet", "name": "StyleS Boy", "place_id": "ChIJnziQDhwi9DkRAAAA0CvxlAo", "plus_code": {"compound_code": "M5XC+P6 Alkusa, Jharkhand, India", "global_code": "7MM8M5XC+P6"}, "reference": "ChIJnziQDhwi9DkRAAAA0CvxlAo", "scope": "GOOGLE", "types": ["school", "point_of_interest", "establishment"], "vicinity": "11, Alkusa"}, {"business_status": "OPERATIONAL", "geometry": {"location": {"lat": 23.6990705, "lng": 86.1717207}, "viewport": {"northeast": {"lat": 23.7002907302915, "lng": 86.1730269302915}, "southwest": {"lat": 23.6975927697085, "lng": 86.17032896970849}}}, "icon": "https://maps.gstatic.com/mapfiles/place_api/icons/v1/png_71/school-71.png", "icon_background_color": "#7B9EB0", "icon_mask_base_uri": "https://maps.gstatic.com/mapfiles/place_api/icons/v2/school_pinlet", "name": "Sudesh Kumar", "place_id": "ChIJk75JdWcj9DkR4yVNbB0QOd8", "plus_code": {"compound_code": "M5XC+JM Bokaro Steel City, Jharkhand, India", "global_code": "7MM8M5XC+JM"}, "reference": "ChIJk75JdWcj9DkR4yVNbB0QOd8", "scope": "GOOGLE", "types": ["school", "point_of_interest", "establishment"], "vicinity": "Bokaro Steel City"}, {"business_status": "OPERATIONAL", "geometry": {"location": {"lat": 23.6964674, "lng": 86.1754425}, "viewport": {"northeast": {"lat": 23.6977587302915, "lng": 86.1769439302915}, "southwest": {"lat": 23.6950607697085, "lng": 86.1742459697085}}}, "icon": "https://maps.gstatic.com/mapfiles/place_api/icons/v1/png_71/school-71.png", "icon_background_color": "#7B9EB0", "icon_mask_base_uri": "https://maps.gstatic.com/mapfiles/place_api/icons/v2/school_pinlet", "name": "+2 High School Sector - 11D", "photos": [{"height": 3120, "html_attributions": ["<a href=\"https://maps.google.com/maps/contrib/101368169122248480695\">Sanjay Kumar</a>"], "photo_reference": "Aap_uEDtcO07W-u7Fo2DXqLEhhTtQPc68nKGiFeWblPckm4SKzubmnqK2OhdTOKwN7gVXNTLSaKCL9tHhoWHvOfYzftD24nUbnrRKuoF_Cr7h_kdnRUsAvmjgqkSyZEhNmntfZQXGHsJwSoxcQ9TV3pfXpBqNg1f3m88nW1M78xhSwDzJHRn", "width": 4160}], "place_id": "ChIJu1FEifUh9DkRYtPNIgGZb-E", "rating": 4.3, "reference": "ChIJu1FEifUh9DkRYtPNIgGZb-E", "scope": "GOOGLE", "types": ["school", "point_of_interest", "establishment"], "user_ratings_total": 3, "vicinity": "M5WG+H5P, Sector-11/D, Sector 11, Bokaro Steel City"}, {"business_status": "OPERATIONAL", "geometry": {"location": {"lat": 23.6997203, "lng": 86.1704267}, "viewport": {"northeast": {"lat": 23.7010563302915, "lng": 86.1718244802915}, "southwest": {"lat": 23.69835836970849, "lng": 86.1691265197085}}}, "icon": "https://maps.gstatic.com/mapfiles/place_api/icons/v1/png_71/school-71.png", "icon_background_color": "#7B9EB0", "icon_mask_base_uri": "https://maps.gstatic.com/mapfiles/place_api/icons/v2/school_pinlet", "name": "NIDAL Drawing Tutorial", "opening_hours": {"open_now": false}, "photos": [{"height": 2003, "html_attributions": ["<a href=\"https://maps.google.com/maps/contrib/107484018461874133189\">Nischay Institute</a>"], "photo_reference": "Aap_uEBCGTtG5Aa5J3du78ae0ZmiWBQkL-poNhgfo3BuO0lQcsXPIFQ4rWLsGl91u5jOY62ui4Kh_lzg5SCdkb6VcnZLramzl35oHiCA6QPaOWC7a4OekT-On3l4jKBV1_nfIE33GYVVQJXv-Zf2JOJwDPLjcueVeaXVUygc1stnnE6suybW", "width": 1836}], "place_id": "ChIJfbquDBwi9DkR1awZZzjYOYI", "plus_code": {"compound_code": "M5XC+V5 Bokaro Steel City, Jharkhand, India", "global_code": "7MM8M5XC+V5"}, "rating": 4.3, "reference": "ChIJfbquDBwi9DkR1awZZzjYOYI", "scope": "GOOGLE", "types": ["school", "point_of_interest", "establishment"], "user_ratings_total": 4, "vicinity": "near SBI ATM, Sector- XI C, Sector 11, Bokaro Steel City"}, {"business_status": "OPERATIONAL", "geometry": {"location": {"lat": 23.6999875, "lng": 86.16956549999999}, "viewport": {"northeast": {"lat": 23.7013864802915, "lng": 86.1709321302915}, "southwest": {"lat": 23.6986885197085, "lng": 86.1682341697085}}}, "icon": "https://maps.gstatic.com/mapfiles/place_api/icons/v1/png_71/school-71.png", "icon_background_color": "#7B9EB0", "icon_mask_base_uri": "https://maps.gstatic.com/mapfiles/place_api/icons/v2/school_pinlet", "name": "Bokaro Ispat Vidyalaya 11/D", "opening_hours": {"open_now": false}, "photos": [{"height": 1844, "html_attributions": ["<a href=\"https://maps.google.com/maps/contrib/106545062265170211281\">RAVI KANT KUMAR</a>"], "photo_reference": "Aap_uECrRiQ7K0T8uS9u9nffOAuH7sMjhOuMWPC4mmCS32Ko2hjq6qtfEO20XMoDSmwENiDCtJxu9xCUBc2N1egg1S5_WV0XXyf9LJ1Frc680wX0onhwi9e4X5pBCEx6BS2Zm3EurM3zy7p4AHbSl6_RlHyAc2IFbLt67OfKc7FNhWYAy6E5", "width": 4000}], "place_id": "ChIJe1zfpR8i9DkRbJFgbtPCt78", "plus_code": {"compound_code": "M5X9+XR Bokaro Steel City, Jharkhand, India", "global_code": "7MM8M5X9+XR"}, "rating": 4.3, "reference": "ChIJe1zfpR8i9DkRbJFgbtPCt78", "scope": "GOOGLE", "types": ["school", "point_of_interest", "establishment"], "user_ratings_total": 7, "vicinity": "827009, Sector-11/D, Sector 11, Bokaro Steel City"}, {"business_status": "OPERATIONAL", "geometry": {"location": {"lat": 23.7000044, "lng": 86.1623939}, "viewport": {"northeast": {"lat": 23.70135443029151, "lng": 86.16373408029152}, "southwest": {"lat": 23.6986564697085, "lng": 86.1610361197085}}}, "icon": "https://maps.gstatic.com/mapfiles/place_api/icons/v1/png_71/school-71.png", "icon_background_color": "#7B9EB0", "icon_mask_base_uri": "https://maps.gstatic.com/mapfiles/place_api/icons/v2/school_pinlet", "name": "R.C.R.Public School", "opening_hours": {"open_now": false}, "photos": [{"height": 1080, "html_attributions": ["<a href=\"https://maps.google.com/maps/contrib/111534778999685362943\">GRAPHO</a>"], "photo_reference": "Aap_uEBWmYWBDpHF3y2m-eEoUHqnDSqN3Q4NF0xjFxOaICFkGqlLXPVtvPZzdLUlfB-eC3hgqX1NHV2-i-WOxERzdePybj5Ep6jlGAvLj08iPy0io1q1ern07R-xFK4qPp8zTUdK_darWRBelmh4VtZiqnX3m7oGg-Fc8L0n7rdAxDNxXXYw", "width": 1920}], "place_id": "ChIJ6Xxcw1oj9DkRFA-wsUdAU7Y", "plus_code": {"compound_code": "P526+2X Bokaro Steel City, Jharkhand, India", "global_code": "7MM8P526+2X"}, "rating": 3.4, "reference": "ChIJ6Xxcw1oj9DkRFA-wsUdAU7Y", "scope": "GOOGLE", "types": ["school", "point_of_interest", "establishment"], "user_ratings_total": 5, "vicinity": "Kanchan Road, Hiradih, Choufand Basti, Bokaro Steel City"}, {"business_status": "OPERATIONAL", "geometry": {"location": {"lat": 23.684133, "lng": 86.1778513}, "viewport": {"northeast": {"lat": 23.6854355302915, "lng": 86.17926113029151}, "southwest": {"lat": 23.6827375697085, "lng": 86.1765631697085}}}, "icon": "https://maps.gstatic.com/mapfiles/place_api/icons/v1/png_71/school-71.png", "icon_background_color": "#7B9EB0", "icon_mask_base_uri": "https://maps.gstatic.com/mapfiles/place_api/icons/v2/school_pinlet", "name": "Charwaha School", "place_id": "ChIJsZfwBokh9DkRh5G0_cZrdkQ", "rating": 5, "reference": "ChIJsZfwBokh9DkRh5G0_cZrdkQ", "scope": "GOOGLE", "types": ["school", "point_of_interest", "establishment"], "user_ratings_total": 1, "vicinity": "M5MH+M45, Khatal, Bokaro Steel City"}, {"business_status": "OPERATIONAL", "geometry": {"location": {"lat": 23.6851779, "lng": 86.1783732}, "viewport": {"northeast": {"lat": 23.6865271302915, "lng": 86.1797099802915}, "southwest": {"lat": 23.6838291697085, "lng": 86.1770120197085}}}, "icon": "https://maps.gstatic.com/mapfiles/place_api/icons/v1/png_71/school-71.png", "icon_background_color": "#7B9EB0", "icon_mask_base_uri": "https://maps.gstatic.com/mapfiles/place_api/icons/v2/school_pinlet", "name": "Pooja", "place_id": "ChIJcRQ8JQUh9DkRYUGgawXfhic", "reference": "ChIJcRQ8JQUh9DkRYUGgawXfhic", "scope": "GOOGLE", "types": ["school", "point_of_interest", "establishment"], "vicinity": "M5PH+38H, Khatal, Bokaro Steel City"}, {"business_status": "OPERATIONAL", "geometry": {"location": {"lat": 23.6848675, "lng": 86.17857}, "viewport": {"northeast": {"lat": 23.6862164802915, "lng": 86.1799220802915}, "southwest": {"lat": 23.6835185197085, "lng": 86.1772241197085}}}, "icon": "https://maps.gstatic.com/mapfiles/place_api/icons/v1/png_71/school-71.png", "icon_background_color": "#7B9EB0", "icon_mask_base_uri": "https://maps.gstatic.com/mapfiles/place_api/icons/v2/school_pinlet", "name": "JAGAT JEEVAN INSTITUTE CLASSES", "opening_hours": {"open_now": false}, "place_id": "ChIJjVGQ1JUh9DkRSDC39MhEYLU", "plus_code": {"compound_code": "M5MH+WC Bokaro Steel City, Jharkhand, India", "global_code": "7MM8M5MH+WC"}, "reference": "ChIJjVGQ1JUh9DkRSDC39MhEYLU", "scope": "GOOGLE", "types": ["school", "point_of_interest", "establishment"], "vicinity": "KAMDHENU, Sector 6B, Khatal, Bokaro Steel City"}, {"business_status": "OPERATIONAL", "geometry": {"location": {"lat": 23.6915917, "lng": 86.15281}, "viewport": {"northeast": {"lat": 23.6929411302915, "lng": 86.1541989802915}, "southwest": {"lat": 23.6902431697085, "lng": 86.15150101970849}}}, "icon": "https://maps.gstatic.com/mapfiles/place_api/icons/v1/png_71/school-71.png", "icon_background_color": "#7B9EB0", "icon_mask_base_uri": "https://maps.gstatic.com/mapfiles/place_api/icons/v2/school_pinlet", "name": "THE MOUNTAIN VIEW COMPETETIVE CLASSES SECTOR - 9", "opening_hours": {"open_now": false}, "photos": [{"height": 1280, "html_attributions": ["<a href=\"https://maps.google.com/maps/contrib/112817798416814242145\">SURENDRA KUMAR</a>"], "photo_reference": "Aap_uEAJmTtc3-tS5LKrbLozc_r5Bc_HE5hM4LcGnNbH6cU6r4kYyV_ebGFf8NTM9SIqvyZabcyk7I1Q6eNVv9VGORV0Os-Ii0wxKDjoB09UoZ52t-1BPfg4rTnYx9HJFb-aShheGZhcFstWNayrqKty86gaZJGFgLo_zUSh4u4JS3_HPadC", "width": 720}], "place_id": "ChIJI0DDA-Uj9DkRAAfCyhgsr-g", "plus_code": {"compound_code": "M5R3+J4 Bokaro Steel City, Jharkhand, India", "global_code": "7MM8M5R3+J4"}, "rating": 5, "reference": "ChIJI0DDA-Uj9DkRAAfCyhgsr-g", "scope": "GOOGLE", "types": ["school", "point_of_interest", "establishment"], "user_ratings_total": 2, "vicinity": "Street Number 29, Sector 9, Bokaro Steel City"}, {"business_status": "OPERATIONAL", "geometry": {"location": {"lat": 23.6926957, "lng": 86.15303809999999}, "viewport": {"northeast": {"lat": 23.6940462802915, "lng": 86.1545307302915}, "southwest": {"lat": 23.6913483197085, "lng": 86.15183276970848}}}, "icon": "https://maps.gstatic.com/mapfiles/place_api/icons/v1/png_71/school-71.png", "icon_background_color": "#7B9EB0", "icon_mask_base_uri": "https://maps.gstatic.com/mapfiles/place_api/icons/v2/school_pinlet", "name": "Bokaro Ispat Shramik High School", "photos": [{"height": 4096, "html_attributions": ["<a href=\"https://maps.google.com/maps/contrib/111739430441447506905\">Mantosh Kumar</a>"], "photo_reference": "Aap_uEB4kmC41Ch5QEz4ZbwsfBBDWUBzOPTkDcpOq2vkkvQ-A5grOCXmAMUBlrZf4_uOUTj_JX6ldRm2B1UTaiDO6fsljomJAnR7kWt9_H975IRaDp5kzZpdh0-CfSAC_FGfuEsxMoPiIJuJnNpGihFpGYZZWT96dx0P9M69PZten1ZTJvA5", "width": 3072}], "place_id": "ChIJtYiP6g8j9DkRqowagBk-X4g", "plus_code": {"compound_code": "M5V3+36 Bokaro Steel City, Jharkhand, India", "global_code": "7MM8M5V3+36"}, "rating": 4.9, "reference": "ChIJtYiP6g8j9DkRqowagBk-X4g", "scope": "GOOGLE", "types": ["school", "point_of_interest", "establishment"], "user_ratings_total": 11, "vicinity": "Sector 9C, Sector 9, Bokaro Steel City"}, {"business_status": "OPERATIONAL", "geometry": {"location": {"lat": 23.6982913, "lng": 86.17523059999999}, "viewport": {"northeast": {"lat": 23.6996559302915, "lng": 86.17653698029149}, "southwest": {"lat": 23.6969579697085, "lng": 86.17383901970848}}}, "icon": "https://maps.gstatic.com/mapfiles/place_api/icons/v1/png_71/school-71.png", "icon_background_color": "#7B9EB0", "icon_mask_base_uri": "https://maps.gstatic.com/mapfiles/place_api/icons/v2/school_pinlet", "name": "Dev Electrical", "place_id": "ChIJ5R5rPNYh9DkROa1se4pXeJQ", "reference": "ChIJ5R5rPNYh9DkROa1se4pXeJQ", "scope": "GOOGLE", "types": ["school", "point_of_interest", "establishment"], "vicinity": "M5XG+839, Sector 11, Bokaro Steel City"}, {"business_status": "OPERATIONAL", "geometry": {"location": {"lat": 23.6926302, "lng": 86.15282309999999}, "viewport": {"northeast": {"lat": 23.6939806302915, "lng": 86.1544242302915}, "southwest": {"lat": 23.6912826697085, "lng": 86.15172626970848}}}, "icon": "https://maps.gstatic.com/mapfiles/place_api/icons/v1/png_71/school-71.png", "icon_background_color": "#7B9EB0", "icon_mask_base_uri": "https://maps.gstatic.com/mapfiles/place_api/icons/v2/school_pinlet", "name": "Prathmik Vidyalaya", "place_id": "ChIJAwqKj2oi9DkRtIoc8vpSiw4", "reference": "ChIJAwqKj2oi9DkRtIoc8vpSiw4", "scope": "GOOGLE", "types": ["school", "point_of_interest", "establishment"], "vicinity": "M5V3+344, Sector 9, Bokaro Steel City"}, {"business_status": "OPERATIONAL", "geometry": {"location": {"lat": 23.6772236, "lng": 86.1711114}, "viewport": {"northeast": {"lat": 23.6786580302915, "lng": 86.17252673029151}, "southwest": {"lat": 23.6759600697085, "lng": 86.1698287697085}}}, "icon": "https://maps.gstatic.com/mapfiles/place_api/icons/v1/png_71/school-71.png", "icon_background_color": "#7B9EB0", "icon_mask_base_uri": "https://maps.gstatic.com/mapfiles/place_api/icons/v2/school_pinlet", "name": "D A V Public School 1", "opening_hours": {"open_now": false}, "place_id": "ChIJq44-ISki9DkRL_KqwTlrUno", "rating": 3, "reference": "ChIJq44-ISki9DkRL_KqwTlrUno", "scope": "GOOGLE", "types": ["school", "point_of_interest", "establishment"], "user_ratings_total": 1, "vicinity": "M5GC+VCQ, Sector 6A, Sector-6/C, Bokaro Steel City"}, {"business_status": "OPERATIONAL", "geometry": {"location": {"lat": 23.6771728, "lng": 86.1710913}, "viewport": {"northeast": {"lat": 23.6786326302915, "lng": 86.17251668029151}, "southwest": {"lat": 23.6759346697085, "lng": 86.1698187197085}}}, "icon": "https://maps.gstatic.com/mapfiles/place_api/icons/v1/png_71/school-71.png", "icon_background_color": "#7B9EB0", "icon_mask_base_uri": "https://maps.gstatic.com/mapfiles/place_api/icons/v2/school_pinlet", "name": "DAV PUBLIC SCHOOL,SECTOR-6,BOKARO", "opening_hours": {"open_now": false}, "photos": [{"height": 3712, "html_attributions": ["<a href=\"https://maps.google.com/maps/contrib/112229997171624687764\">DAV Public School Sector6 Bokaro Steel City</a>"], "photo_reference": "Aap_uEAkyFpo6FwUdSJlv1wbsT_b2Zxgot36xAuygzBDDuFlIKjQjB6e__98JDzFybUt0AJ_pfcZhSRGb23YuyovsAk0ZgKB6ku51BNX6EGyyk0cbsMqjDL_AjAVz8SeyydzNU3px7TSws2GikEnQFkXmTC2OiI4KUAiJZaisPAuUw7TbBA0", "width": 5568}], "place_id": "ChIJZZ3AISki9DkRNJyJLoy4RBE", "plus_code": {"compound_code": "M5GC+VC Bokaro Steel City, Jharkhand, India", "global_code": "7MM8M5GC+VC"}, "rating": 4.5, "reference": "ChIJZZ3AISki9DkRNJyJLoy4RBE", "scope": "GOOGLE", "types": ["school", "point_of_interest", "establishment"], "user_ratings_total": 106, "vicinity": "Sector-6/C, Bokaro Steel City"}, {"geometry": {"location": {"lat": 23.6887735, "lng": 86.1621407}, "viewport": {"northeast": {"lat": 23.68994356921725, "lng": 86.16394104767154}, "southwest": {"lat": 23.68724560863425, "lng": 86.16124308708854}}}, "icon": "https://maps.gstatic.com/mapfiles/place_api/icons/v1/png_71/school-71.png", "icon_background_color": "#7B9EB0", "icon_mask_base_uri": "https://maps.gstatic.com/mapfiles/place_api/icons/v2/school_pinlet", "name": "Bokaro Ispat Vidyalaya Sector - 8 C", "place_id": "ChIJqTij-Dwi9DkRe4zLwcmjPoA", "reference": "ChIJqTij-Dwi9DkRe4zLwcmjPoA", "scope": "GOOGLE", "types": ["school", "premise", "establishment"], "vicinity": "Sector 8"}, {"geometry": {"location": {"lat": 23.688079, "lng": 86.15657589999999}, "viewport": {"northeast": {"lat": 23.68959437289042, "lng": 86.15780783215358}, "southwest": {"lat": 23.68689641230742, "lng": 86.15510987157057}}}, "icon": "https://maps.gstatic.com/mapfiles/place_api/icons/v1/png_71/school-71.png", "icon_background_color": "#7B9EB0", "icon_mask_base_uri": "https://maps.gstatic.com/mapfiles/place_api/icons/v2/school_pinlet", "name": "Bokaro Ispat Vidyalaya Sector - 8 A", "place_id": "ChIJGWEIDj8i9DkRwmcnyz7ilPY", "reference": "ChIJGWEIDj8i9DkRwmcnyz7ilPY", "scope": "GOOGLE", "types": ["school", "premise", "establishment"], "vicinity": "Sector 8"}, {"geometry": {"location": {"lat": 23.6925192, "lng": 86.15593989999999}, "viewport": {"northeast": {"lat": 23.69374723364169, "lng": 86.1572392054971}, "southwest": {"lat": 23.69104927305869, "lng": 86.1545412449141}}}, "icon": "https://maps.gstatic.com/mapfiles/place_api/icons/v1/png_71/school-71.png", "icon_background_color": "#7B9EB0", "icon_mask_base_uri": "https://maps.gstatic.com/mapfiles/place_api/icons/v2/school_pinlet", "name": "Middle School Sector -8 B", "place_id": "ChIJ7dh-QRUi9DkRVSgtQJ1Zrzc", "reference": "ChIJ7dh-QRUi9DkRVSgtQJ1Zrzc", "scope": "GOOGLE", "types": ["school", "premise", "establishment"], "vicinity": "Sector 8"}, {"geometry": {"location": {"lat": 23.6984109, "lng": 86.1689767}, "viewport": {"northeast": {"lat": 23.69977848429701, "lng": 86.17026937071367}, "southwest": {"lat": 23.69708052371401, "lng": 86.16757141013065}}}, "icon": "https://maps.gstatic.com/mapfiles/place_api/icons/v1/png_71/school-71.png", "icon_background_color": "#7B9EB0", "icon_mask_base_uri": "https://maps.gstatic.com/mapfiles/place_api/icons/v2/school_pinlet", "name": "Middle School", "place_id": "ChIJEYSX4Bsi9DkRayH0WNJ1jjc", "reference": "ChIJEYSX4Bsi9DkRayH0WNJ1jjc", "scope": "GOOGLE", "types": ["school", "premise", "establishment"], "vicinity": "Sector 11"}], "status": "OK"}