{"html_attributions": [], "next_page_token": "Aap_uECI0UY-IegWHvVpH_JxIWqB24lawxsAiHxwTzB2GAnAV_ihj500fTb62whUvrw1n7nc-T8x9tiJQlocFJ4ZiRF4SpWHIUKgzh0zmyRQVy47D5NH0JREu3S8uZ22xgjRAz_q_uOAOH8O7eboVVgzVS03FIAtmUG__VzGest1cs7XhUyJctsZ1PKHVb8yG2iDcvA0K0ZwNaXYYKdQjz8TmE4P3WYZ9u66B3G9uIg2bc4chRLCTT_B0fy22xv_8dUB-3H-8EFPNMrfs75ay51sDo0mJ6PzCq9PRgR1rXXxlH1tr6dhgrwOmVwgM_Z-AkoFHcSyB6xTdN9k57tQLZ9z6IHp9sCdI6tZhghK41E4hpSt0p7jUo9nX5MyyVLEPcvO14VYXlvmg_7uG-SGgTRyaPW0BA7R9jP57l9qWGxUC2fzVQAnWWM", "results": [{"business_status": "OPERATIONAL", "geometry": {"location": {"lat": 23.7493668, "lng": 86.1663995}, "viewport": {"northeast": {"lat": 23.7507112302915, "lng": 86.16785328029151}, "southwest": {"lat": 23.7480132697085, "lng": 86.1651553197085}}}, "icon": "https://maps.gstatic.com/mapfiles/place_api/icons/v1/png_71/school-71.png", "icon_background_color": "#7B9EB0", "icon_mask_base_uri": "https://maps.gstatic.com/mapfiles/place_api/icons/v2/school_pinlet", "name": "Kasturba Aawasiya Vidyalay Dugda Basti", "place_id": "ChIJW0vQos8Y9DkRzQb0Onq3T8c", "plus_code": {"compound_code": "P5X8+PH Dugda, Jharkhand, India", "global_code": "7MM8P5X8+PH"}, "rating": 4, "reference": "ChIJW0vQos8Y9DkRzQb0Onq3T8c", "scope": "GOOGLE", "types": ["school", "point_of_interest", "establishment"], "user_ratings_total": 2, "vicinity": "Basti, Dugda"}, {"business_status": "OPERATIONAL", "geometry": {"location": {"lat": 23.7493668, "lng": 86.1663995}, "viewport": {"northeast": {"lat": 23.7507112302915, "lng": 86.16785328029151}, "southwest": {"lat": 23.7480132697085, "lng": 86.1651553197085}}}, "icon": "https://maps.gstatic.com/mapfiles/place_api/icons/v1/png_71/school-71.png", "icon_background_color": "#7B9EB0", "icon_mask_base_uri": "https://maps.gstatic.com/mapfiles/place_api/icons/v2/school_pinlet", "name": "Saraswati Shishu Vidya Mandir Dugda Basti", "photos": [{"height": 532, "html_attributions": ["<a href=\"https://maps.google.com/maps/contrib/100933159587275503553\">Annu Kumari</a>"], "photo_reference": "Aap_uECtSu2uh2V3cN_NKcfTKieuNmACKr2WJSZmfppSSC_MudmL0_j0aWRDVWAt8D_nLka4GCGJ4CYWn2V2Xv3omYs3168x_NxsGD4ctuqJl-57XySPv6SVxI5B9YGh22mZpOnwF1APly6JIWuJBxit6AQqdsKXlLa1-jKXE-9A27n6IXm7", "width": 1152}], "place_id": "ChIJW0vQos8Y9DkRsXItTKUyg48", "plus_code": {"compound_code": "P5X8+PH Bokaro Steel City, Jharkhand, India", "global_code": "7MM8P5X8+PH"}, "rating": 4.3, "reference": "ChIJW0vQos8Y9DkRsXItTKUyg48", "scope": "GOOGLE", "types": ["school", "point_of_interest", "establishment"], "user_ratings_total": 11, "vicinity": "Dugda - Karmatand Road, Bokaro Steel City"}, {"business_status": "OPERATIONAL", "geometry": {"location": {"lat": 23.7478547, "lng": 86.16589619999999}, "viewport": {"northeast": {"lat": 23.7489367802915, "lng": 86.1672613802915}, "southwest": {"lat": 23.7462388197085, "lng": 86.1645634197085}}}, "icon": "https://maps.gstatic.com/mapfiles/place_api/icons/v1/png_71/school-71.png", "icon_background_color": "#7B9EB0", "icon_mask_base_uri": "https://maps.gstatic.com/mapfiles/place_api/icons/v2/school_pinlet", "name": "Kasturba Girls High School", "photos": [{"height": 3120, "html_attributions": ["<a href=\"https://maps.google.com/maps/contrib/100831498514747566537\">umesh yadav</a>"], "photo_reference": "Aap_uECDGfMKDJ1bOLXDDd5RNCmzclVHKpanXDEtZrGGJnpdTE-oruC2t-yT_rhodJGfhEm9NHNj-9v-r-KxiOEMpw6dB366u7DpnPOUmPJAoP0JdJTKnw03VZDcXsJOO1j2o3YFZ8seWnFc5p7yKRifYenFx_mgfMyUvTLB0DTBy-c09LoL", "width": 4160}], "place_id": "ChIJb00Xbs8Y9DkRlDd-qgx0_-8", "plus_code": {"compound_code": "P5X8+49 Dugda, Jharkhand, India", "global_code": "7MM8P5X8+49"}, "rating": 4.5, "reference": "ChIJb00Xbs8Y9DkRlDd-qgx0_-8", "scope": "GOOGLE", "types": ["school", "point_of_interest", "establishment"], "user_ratings_total": 2, "vicinity": "basti, Dugda"}, {"business_status": "OPERATIONAL", "geometry": {"location": {"lat": 23.7487355, "lng": 86.1681285}, "viewport": {"northeast": {"lat": 23.74997368029151, "lng": 86.16948483029151}, "southwest": {"lat": 23.7472757197085, "lng": 86.1667868697085}}}, "icon": "https://maps.gstatic.com/mapfiles/place_api/icons/v1/png_71/school-71.png", "icon_background_color": "#7B9EB0", "icon_mask_base_uri": "https://maps.gstatic.com/mapfiles/place_api/icons/v2/school_pinlet", "name": "\u0930\u093e\u091c\u0915\u0940\u092f \u092e\u0927\u094d\u092f \u0935\u093f\u0926\u094d\u092f\u093e\u0932\u092f, \u0926\u0941\u0917\u094d\u0926\u093e \u092c\u0938\u094d\u0924\u0940", "opening_hours": {"open_now": false}, "place_id": "ChIJpfiroe8Z9DkRTDsN2BULJkc", "rating": 1, "reference": "ChIJpfiroe8Z9DkRTDsN2BULJkc", "scope": "GOOGLE", "types": ["school", "point_of_interest", "establishment"], "user_ratings_total": 1, "vicinity": "P5X9+F7R, Bokaro Steel City"}, {"business_status": "OPERATIONAL", "geometry": {"location": {"lat": 23.7487254, "lng": 86.1681935}, "viewport": {"northeast": {"lat": 23.7499698302915, "lng": 86.1695443302915}, "southwest": {"lat": 23.7472718697085, "lng": 86.1668463697085}}}, "icon": "https://maps.gstatic.com/mapfiles/place_api/icons/v1/png_71/school-71.png", "icon_background_color": "#7B9EB0", "icon_mask_base_uri": "https://maps.gstatic.com/mapfiles/place_api/icons/v2/school_pinlet", "name": "govt middle school dugda", "place_id": "ChIJG9Mc7jAZ9DkRfWsLLwnsNj0", "reference": "ChIJG9Mc7jAZ9DkRfWsLLwnsNj0", "scope": "GOOGLE", "types": ["school", "point_of_interest", "establishment"], "vicinity": "P5X9+F7W, Dugda"}, {"business_status": "OPERATIONAL", "geometry": {"location": {"lat": 23.7536682, "lng": 86.1636585}, "viewport": {"northeast": {"lat": 23.7548569802915, "lng": 86.16497153029151}, "southwest": {"lat": 23.7521590197085, "lng": 86.1622735697085}}}, "icon": "https://maps.gstatic.com/mapfiles/place_api/icons/v1/png_71/school-71.png", "icon_background_color": "#7B9EB0", "icon_mask_base_uri": "https://maps.gstatic.com/mapfiles/place_api/icons/v2/school_pinlet", "name": "Adarsh High School", "opening_hours": {"open_now": false}, "place_id": "ChIJ70g97doY9DkRJIO7BynX5Ls", "rating": 3, "reference": "ChIJ70g97doY9DkRJIO7BynX5Ls", "scope": "GOOGLE", "types": ["school", "point_of_interest", "establishment"], "user_ratings_total": 3, "vicinity": "Q537+FF7, Bokaro Steel City"}, {"business_status": "OPERATIONAL", "geometry": {"location": {"lat": 23.7521235, "lng": 86.1718135}, "viewport": {"northeast": {"lat": 23.75344288029151, "lng": 86.1732255802915}, "southwest": {"lat": 23.7507449197085, "lng": 86.1705276197085}}}, "icon": "https://maps.gstatic.com/mapfiles/place_api/icons/v1/png_71/school-71.png", "icon_background_color": "#7B9EB0", "icon_mask_base_uri": "https://maps.gstatic.com/mapfiles/place_api/icons/v2/school_pinlet", "name": "Anganwari Kendra Fuljharia 1", "place_id": "ChIJGXXTdtIY9DkRUyEb_imri2s", "plus_code": {"compound_code": "Q52C+RP Bokaro Steel City, Jharkhand, India", "global_code": "7MM8Q52C+RP"}, "rating": 5, "reference": "ChIJGXXTdtIY9DkRUyEb_imri2s", "scope": "GOOGLE", "types": ["school", "point_of_interest", "establishment"], "user_ratings_total": 1, "vicinity": "Bokaro Steel City"}, {"business_status": "OPERATIONAL", "geometry": {"location": {"lat": 23.7549495, "lng": 86.162615}, "viewport": {"northeast": {"lat": 23.7562252302915, "lng": 86.16373283029151}, "southwest": {"lat": 23.7535272697085, "lng": 86.16103486970849}}}, "icon": "https://maps.gstatic.com/mapfiles/place_api/icons/v1/png_71/school-71.png", "icon_background_color": "#7B9EB0", "icon_mask_base_uri": "https://maps.gstatic.com/mapfiles/place_api/icons/v2/school_pinlet", "name": "Vireo Public School", "place_id": "ChIJTV-BI6QZ9DkRD_fg6fOeIAk", "rating": 5, "reference": "ChIJTV-BI6QZ9DkRD_fg6fOeIAk", "scope": "GOOGLE", "types": ["school", "point_of_interest", "establishment"], "user_ratings_total": 4, "vicinity": "Q537+X2H, Dugda"}, {"business_status": "OPERATIONAL", "geometry": {"location": {"lat": 23.7511715, "lng": 86.1555436}, "viewport": {"northeast": {"lat": 23.7525710302915, "lng": 86.15690948029152}, "southwest": {"lat": 23.7498730697085, "lng": 86.15421151970851}}}, "icon": "https://maps.gstatic.com/mapfiles/place_api/icons/v1/png_71/school-71.png", "icon_background_color": "#7B9EB0", "icon_mask_base_uri": "https://maps.gstatic.com/mapfiles/place_api/icons/v2/school_pinlet", "name": "Indian Public School", "place_id": "ChIJieNfssIY9DkRyS8snZmczmQ", "rating": 1, "reference": "ChIJieNfssIY9DkRyS8snZmczmQ", "scope": "GOOGLE", "types": ["school", "point_of_interest", "establishment"], "user_ratings_total": 1, "vicinity": "Q524+F67, Dugda"}, {"business_status": "OPERATIONAL", "geometry": {"location": {"lat": 23.7512432, "lng": 86.1549572}, "viewport": {"northeast": {"lat": 23.7525468802915, "lng": 86.15643113029151}, "southwest": {"lat": 23.7498489197085, "lng": 86.15373316970849}}}, "icon": "https://maps.gstatic.com/mapfiles/place_api/icons/v1/png_71/school-71.png", "icon_background_color": "#7B9EB0", "icon_mask_base_uri": "https://maps.gstatic.com/mapfiles/place_api/icons/v2/school_pinlet", "name": "Sunrise Public School", "opening_hours": {"open_now": false}, "place_id": "ChIJL_4aq8IY9DkR79bJXncRNZc", "rating": 3, "reference": "ChIJL_4aq8IY9DkR79bJXncRNZc", "scope": "GOOGLE", "types": ["school", "point_of_interest", "establishment"], "user_ratings_total": 1, "vicinity": "Q523+FXW, BCCL Colony, Dugda"}, {"business_status": "OPERATIONAL", "geometry": {"location": {"lat": 23.7589961, "lng": 86.1624626}, "viewport": {"northeast": {"lat": 23.76035583029151, "lng": 86.1638126802915}, "southwest": {"lat": 23.7576578697085, "lng": 86.1611147197085}}}, "icon": "https://maps.gstatic.com/mapfiles/place_api/icons/v1/png_71/school-71.png", "icon_background_color": "#7B9EB0", "icon_mask_base_uri": "https://maps.gstatic.com/mapfiles/place_api/icons/v2/school_pinlet", "name": "Aaganwadi Kendra, Jharna Basti 2", "place_id": "ChIJO5cHoNkY9DkRYTh8Q0f8_wE", "plus_code": {"compound_code": "Q556+HX Dugda, Jharkhand, India", "global_code": "7MM8Q556+HX"}, "rating": 2, "reference": "ChIJO5cHoNkY9DkRYTh8Q0f8_wE", "scope": "GOOGLE", "types": ["school", "point_of_interest", "establishment"], "user_ratings_total": 1, "vicinity": "Dugda Station Pahari, Dugda"}, {"business_status": "OPERATIONAL", "geometry": {"location": {"lat": 23.7608004, "lng": 86.1661919}, "viewport": {"northeast": {"lat": 23.76219298029151, "lng": 86.1675519302915}, "southwest": {"lat": 23.7594950197085, "lng": 86.16485396970849}}}, "icon": "https://maps.gstatic.com/mapfiles/place_api/icons/v1/png_71/school-71.png", "icon_background_color": "#7B9EB0", "icon_mask_base_uri": "https://maps.gstatic.com/mapfiles/place_api/icons/v2/school_pinlet", "name": "Government Primary School", "place_id": "ChIJPdoUn9cY9DkRargEXl5rGiU", "rating": 3.5, "reference": "ChIJPdoUn9cY9DkRargEXl5rGiU", "scope": "GOOGLE", "types": ["primary_school", "school", "point_of_interest", "establishment"], "user_ratings_total": 2, "vicinity": "Q568+8FG, Bokaro Steel City"}, {"business_status": "OPERATIONAL", "geometry": {"location": {"lat": 23.7467558, "lng": 86.1533116}, "viewport": {"northeast": {"lat": 23.7481127802915, "lng": 86.15453583029151}, "southwest": {"lat": 23.74541481970849, "lng": 86.1518378697085}}}, "icon": "https://maps.gstatic.com/mapfiles/place_api/icons/v1/png_71/school-71.png", "icon_background_color": "#7B9EB0", "icon_mask_base_uri": "https://maps.gstatic.com/mapfiles/place_api/icons/v2/school_pinlet", "name": "Binod bihari chok dugda Cambridge english medium public school", "place_id": "ChIJaYVetRAZ9DkRRP-0Ded7Mgk", "reference": "ChIJaYVetRAZ9DkRRP-0Ded7Mgk", "scope": "GOOGLE", "types": ["school", "point_of_interest", "establishment"], "vicinity": "P5W3+P83, Dugda"}, {"business_status": "OPERATIONAL", "geometry": {"location": {"lat": 23.7608718, "lng": 86.1660971}, "viewport": {"northeast": {"lat": 23.7622268802915, "lng": 86.1674474302915}, "southwest": {"lat": 23.7595289197085, "lng": 86.1647494697085}}}, "icon": "https://maps.gstatic.com/mapfiles/place_api/icons/v1/png_71/school-71.png", "icon_background_color": "#7B9EB0", "icon_mask_base_uri": "https://maps.gstatic.com/mapfiles/place_api/icons/v2/school_pinlet", "name": "Utkarmit madhya vidyalaya", "opening_hours": {"open_now": true}, "place_id": "ChIJt9HWntcY9DkRVhVAMK8cxcI", "plus_code": {"compound_code": "Q568+8C Bokaro Steel City, Jharkhand, India", "global_code": "7MM8Q568+8C"}, "reference": "ChIJt9HWntcY9DkRVhVAMK8cxcI", "scope": "GOOGLE", "types": ["school", "point_of_interest", "establishment"], "vicinity": "Parsatand,, Bokaro Steel City"}, {"business_status": "OPERATIONAL", "geometry": {"location": {"lat": 23.7599793, "lng": 86.15984209999999}, "viewport": {"northeast": {"lat": 23.7611681302915, "lng": 86.16135403029149}, "southwest": {"lat": 23.7584701697085, "lng": 86.15865606970848}}}, "icon": "https://maps.gstatic.com/mapfiles/place_api/icons/v1/png_71/school-71.png", "icon_background_color": "#7B9EB0", "icon_mask_base_uri": "https://maps.gstatic.com/mapfiles/place_api/icons/v2/school_pinlet", "name": "SVTT B.Ed College Karmatand", "place_id": "ChIJLX6JQDoZ9DkRB2QvqZQLqdc", "reference": "ChIJLX6JQDoZ9DkRB2QvqZQLqdc", "scope": "GOOGLE", "types": ["school", "point_of_interest", "establishment"], "vicinity": "Q555+XWW, Karmatanr"}, {"business_status": "OPERATIONAL", "geometry": {"location": {"lat": 23.7482978, "lng": 86.15232560000001}, "viewport": {"northeast": {"lat": 23.7496774302915, "lng": 86.15368198029152}, "southwest": {"lat": 23.7469794697085, "lng": 86.1509840197085}}}, "icon": "https://maps.gstatic.com/mapfiles/place_api/icons/v1/png_71/school-71.png", "icon_background_color": "#7B9EB0", "icon_mask_base_uri": "https://maps.gstatic.com/mapfiles/place_api/icons/v2/school_pinlet", "name": "Silai Centre", "opening_hours": {"open_now": true}, "photos": [{"height": 2256, "html_attributions": ["<a href=\"https://maps.google.com/maps/contrib/111897492715087583846\">P C</a>"], "photo_reference": "Aap_uEAnLz6g6UE12DfYvaoReIMG4dQ3u8TACA1eQ4tToZOeKOfMHFtJn7XhePxXUL_xp_rBheRYbLuARmzIZmeex1EMTmzkME1xcqoGbDaNYPoiqBGqIy6dSgWXZQ07D3Bzm_DhKyFii7Eq0dTQJiW--f1KITWeHjRNszWl4C64mrZHM2Or", "width": 4000}], "place_id": "ChIJo8cJzecZ9DkRQOHddXzpo1Q", "reference": "ChIJo8cJzecZ9DkRQOHddXzpo1Q", "scope": "GOOGLE", "types": ["school", "point_of_interest", "establishment"], "vicinity": "P5X2+8W8, Dugda"}, {"business_status": "OPERATIONAL", "geometry": {"location": {"lat": 23.7482978, "lng": 86.15232560000001}, "viewport": {"northeast": {"lat": 23.7496774302915, "lng": 86.15368198029152}, "southwest": {"lat": 23.7469794697085, "lng": 86.1509840197085}}}, "icon": "https://maps.gstatic.com/mapfiles/place_api/icons/v1/png_71/school-71.png", "icon_background_color": "#7B9EB0", "icon_mask_base_uri": "https://maps.gstatic.com/mapfiles/place_api/icons/v2/school_pinlet", "name": "Daffodils public School", "photos": [{"height": 1440, "html_attributions": ["<a href=\"https://maps.google.com/maps/contrib/107706574960608388859\">SURESH KUMAR</a>"], "photo_reference": "Aap_uED9MPxcevEUsjTXqkgBI6WHABWo-BGVXEDeF_bPy9gpny4zlrsFcybJmxBSJj2l4bU5niSMolI5ydgY5IUJFkcgWvWJlcstY3N7AEHIdCfY5U6q-eln1CS9yyxSlRvXQUklJWv07jXT2Z1B2zh08xRgci5tttRx3LIxpfVessBgCrLX", "width": 1920}], "place_id": "ChIJ-R0CY40Z9DkRKPXW9YGyhCM", "plus_code": {"compound_code": "P5X2+8W Dugda, Jharkhand, India", "global_code": "7MM8P5X2+8W"}, "reference": "ChIJ-R0CY40Z9DkRKPXW9YGyhCM", "scope": "GOOGLE", "types": ["school", "point_of_interest", "establishment"], "vicinity": "Budhdhi, Dugda"}, {"business_status": "OPERATIONAL", "geometry": {"location": {"lat": 23.7482978, "lng": 86.15232560000001}, "viewport": {"northeast": {"lat": 23.7496774302915, "lng": 86.15368198029152}, "southwest": {"lat": 23.7469794697085, "lng": 86.1509840197085}}}, "icon": "https://maps.gstatic.com/mapfiles/place_api/icons/v1/png_71/school-71.png", "icon_background_color": "#7B9EB0", "icon_mask_base_uri": "https://maps.gstatic.com/mapfiles/place_api/icons/v2/school_pinlet", "name": "GOVT.M/S DUGDA", "photos": [{"height": 1080, "html_attributions": ["<a href=\"https://maps.google.com/maps/contrib/104192700674811402795\">BABUCHAND SAW</a>"], "photo_reference": "Aap_uECjGCSISzJVkwm93Ofi08qv-C6DqXEhDj_YuiLRb2R5dKtqoVtWzL_vDJ39Lpo_jdYEYPL45kyRkAymy9-if3LxMynitME3_wTyhMD6NWMQDoYDCGXjZ_1kaLuYqSZSBRF6Qi9yztIXW5E1mQBO4dQkc7uiguOKfuC6cZPdhxqY-SxP", "width": 1920}], "place_id": "ChIJMRI2M1UZ9DkRwJyOwpkZr-4", "plus_code": {"compound_code": "P5X2+8W Dugda, Jharkhand, India", "global_code": "7MM8P5X2+8W"}, "reference": "ChIJMRI2M1UZ9DkRwJyOwpkZr-4", "scope": "GOOGLE", "types": ["school", "point_of_interest", "establishment"], "vicinity": "near panchayat bhawan, Dugda - Karmatand Road, Dugda"}, {"business_status": "OPERATIONAL", "geometry": {"location": {"lat": 23.7482978, "lng": 86.15232560000001}, "viewport": {"northeast": {"lat": 23.7496774302915, "lng": 86.15368198029152}, "southwest": {"lat": 23.7469794697085, "lng": 86.1509840197085}}}, "icon": "https://maps.gstatic.com/mapfiles/place_api/icons/v1/png_71/school-71.png", "icon_background_color": "#7B9EB0", "icon_mask_base_uri": "https://maps.gstatic.com/mapfiles/place_api/icons/v2/school_pinlet", "name": "Jeet Kumar Gupta", "place_id": "ChIJ4044VgEZ9DkRZb97f_3iCNI", "plus_code": {"compound_code": "P5X2+8W Dugda, Jharkhand, India", "global_code": "7MM8P5X2+8W"}, "reference": "ChIJ4044VgEZ9DkRZb97f_3iCNI", "scope": "GOOGLE", "types": ["secondary_school", "school", "point_of_interest", "establishment"], "vicinity": "Pack of e73, Durga Colony, Dugda"}, {"business_status": "OPERATIONAL", "geometry": {"location": {"lat": 23.7482978, "lng": 86.15232560000001}, "viewport": {"northeast": {"lat": 23.7496774302915, "lng": 86.15368198029152}, "southwest": {"lat": 23.7469794697085, "lng": 86.1509840197085}}}, "icon": "https://maps.gstatic.com/mapfiles/place_api/icons/v1/png_71/school-71.png", "icon_background_color": "#7B9EB0", "icon_mask_base_uri": "https://maps.gstatic.com/mapfiles/place_api/icons/v2/school_pinlet", "name": "Parsatand", "place_id": "ChIJq6qqqukY9DkRNzWV36AiaAc", "plus_code": {"compound_code": "P5X2+8W Dugda, Jharkhand, India", "global_code": "7MM8P5X2+8W"}, "rating": 4.5, "reference": "ChIJq6qqqukY9DkRNzWV36AiaAc", "scope": "GOOGLE", "types": ["school", "point_of_interest", "establishment"], "user_ratings_total": 2, "vicinity": "BCCL Colony, Dugda"}], "status": "OK"}