{"html_attributions": [], "next_page_token": "Aap_uEC9fMmsON-SuC1ca-uo_coNFytAPgojT3B8Yyrzz6WC_TawgrJZB7mg-8IONRWNWLQAj324M_eEWgU2V2byVztPzJltZlTB_Syb5DXDiblEwTx8kpPqqkiHj0yb62U1lDZjOqeD3VJ73qgXW3m8q5sLcJdBh1YDmCbUPGbJIWujd7iWj9H8WrE8wkDLMZJBqTrl6VOlkqB1zweOvOF9k--pZlvsq_K8MQJzwDb3CdjpbUw5CJUPPZSl8OeU97l_LqvX_MZF4yaC0CzbppvK9nUgQu4AAyXQxg93aI9cG5wM8iMOouIa8bZE507zYAr-TPIURG1pFsmA0y_dx6NU7QhOQ7NF3P4PbONI3RoqUJbO-pb9FEz0Js4AXDT4STzn9y_YiyZnOkk2hvrV9AegO1lOcZ71lT8DA0bB-gQjQJa6YuE4Myo", "results": [{"business_status": "OPERATIONAL", "geometry": {"location": {"lat": 23.8674369, "lng": 86.1582851}, "viewport": {"northeast": {"lat": 23.8687903302915, "lng": 86.1596191802915}, "southwest": {"lat": 23.8660923697085, "lng": 86.1569212197085}}}, "icon": "https://maps.gstatic.com/mapfiles/place_api/icons/v1/png_71/school-71.png", "icon_background_color": "#7B9EB0", "icon_mask_base_uri": "https://maps.gstatic.com/mapfiles/place_api/icons/v2/school_pinlet", "name": "Dog World", "place_id": "ChIJmQqITHIb9DkRaRfvZciSzbk", "plus_code": {"compound_code": "V585+X8 Gomoh, Jharkhand, India", "global_code": "7MM8V585+X8"}, "rating": 3.8, "reference": "ChIJmQqITHIb9DkRaRfvZciSzbk", "scope": "GOOGLE", "types": ["school", "point_of_interest", "establishment"], "user_ratings_total": 5, "vicinity": "Near Gurudawra, Loco Bazar, Near Gurudawra, Gomoh"}, {"business_status": "OPERATIONAL", "geometry": {"location": {"lat": 23.8685637, "lng": 86.1641997}, "viewport": {"northeast": {"lat": 23.8698704802915, "lng": 86.1655429302915}, "southwest": {"lat": 23.8671725197085, "lng": 86.16284496970849}}}, "icon": "https://maps.gstatic.com/mapfiles/place_api/icons/v1/png_71/school-71.png", "icon_background_color": "#7B9EB0", "icon_mask_base_uri": "https://maps.gstatic.com/mapfiles/place_api/icons/v2/school_pinlet", "name": "Guru Govind Kinder Garten School", "photos": [{"height": 768, "html_attributions": ["<a href=\"https://maps.google.com/maps/contrib/101961910859868831241\">Papindra Singh Gandhi</a>"], "photo_reference": "Aap_uECE1etHUtwDOaPvdYqnH9_27WPyPkFAdAEE3LSYGz2J5yPgtXhJ6GvKrhL92cPTk4vfGkopFE3wbzeh112oD-LdsnofLYzJHxJLzWIu09_agck7GWukhjHm4NKaAKcbCyW9MFYgYUThKm_zIYMVIb9mtROHxaSaFyF1eIsfNva9gMTK", "width": 1024}], "place_id": "ChIJna2qtdQb9DkRFkXZZ9Hjzvs", "rating": 3.5, "reference": "ChIJna2qtdQb9DkRFkXZZ9Hjzvs", "scope": "GOOGLE", "types": ["school", "point_of_interest", "establishment"], "user_ratings_total": 2, "vicinity": "V597+CMG, Gomoh"}, {"business_status": "OPERATIONAL", "geometry": {"location": {"lat": 23.8686532, "lng": 86.16337020000002}, "viewport": {"northeast": {"lat": 23.8700046302915, "lng": 86.16472053029152}, "southwest": {"lat": 23.8673066697085, "lng": 86.1620225697085}}}, "icon": "https://maps.gstatic.com/mapfiles/place_api/icons/v1/png_71/school-71.png", "icon_background_color": "#7B9EB0", "icon_mask_base_uri": "https://maps.gstatic.com/mapfiles/place_api/icons/v2/school_pinlet", "name": "Chemistry Point", "opening_hours": {"open_now": false}, "place_id": "ChIJsxLaRnAb9DkR5T6OatTFVeY", "reference": "ChIJsxLaRnAb9DkR5T6OatTFVeY", "scope": "GOOGLE", "types": ["school", "point_of_interest", "establishment"], "vicinity": "V597+F89, Gomoh"}, {"business_status": "OPERATIONAL", "geometry": {"location": {"lat": 23.8731458, "lng": 86.1658898}, "viewport": {"northeast": {"lat": 23.8745342302915, "lng": 86.16718433029152}, "southwest": {"lat": 23.8718362697085, "lng": 86.1644863697085}}}, "icon": "https://maps.gstatic.com/mapfiles/place_api/icons/v1/png_71/school-71.png", "icon_background_color": "#7B9EB0", "icon_mask_base_uri": "https://maps.gstatic.com/mapfiles/place_api/icons/v2/school_pinlet", "name": "Middle School Khesmi", "photos": [{"height": 1080, "html_attributions": ["<a href=\"https://maps.google.com/maps/contrib/111744797308487273650\">Rajshekhar Mandal</a>"], "photo_reference": "Aap_uEDzC9kVH7vLRNAUZ6BrJr2hGVrBZgskIUXI3p_9CMq2GAXBWHIaZckzsidPcjA3XDORrqu0heeVOYQCZugX-gH4lN08dVtmLo40wCkmTftRDPbMLBSDrd1jnXvoHrXRAwi6OWToesf2zrnAKQv_ZUEGuTgtuOhunSOk1n-9xzCQtvKX", "width": 1920}], "place_id": "ChIJL1S0dmUb9DkRXrSFiJVwhHg", "rating": 4, "reference": "ChIJL1S0dmUb9DkRXrSFiJVwhHg", "scope": "GOOGLE", "types": ["school", "point_of_interest", "establishment"], "user_ratings_total": 8, "vicinity": "V5F8+792, Khesmi, Gomoh"}, {"business_status": "OPERATIONAL", "geometry": {"location": {"lat": 23.87322300000001, "lng": 86.1638591}, "viewport": {"northeast": {"lat": 23.8745650302915, "lng": 86.1652296802915}, "southwest": {"lat": 23.8718670697085, "lng": 86.16253171970848}}}, "icon": "https://maps.gstatic.com/mapfiles/place_api/icons/v1/png_71/school-71.png", "icon_background_color": "#7B9EB0", "icon_mask_base_uri": "https://maps.gstatic.com/mapfiles/place_api/icons/v2/school_pinlet", "name": "Sacred Heart's Mission High School,Kheshmi", "photos": [{"height": 414, "html_attributions": ["<a href=\"https://maps.google.com/maps/contrib/100074976165251225099\">Santosh kumar</a>"], "photo_reference": "Aap_uEC37EPQu452xaYanMSVpB2oCFD7xZqpwRAis4Duy81_QNvQHq5erL-SisH10YX8gYfOCiVnQgbpox_HXAykSnUNT6oynt6dkVcFwNv9BI3FuX0F0lpaXEGZG8HlqCVEuOeOpWtZgl3jbIaP4L_5NwuMkofVftjFOpLTq27-38ZtwRvQ", "width": 552}], "place_id": "ChIJn2Qwnm8b9DkRJ7euCwnYB3Q", "rating": 4.5, "reference": "ChIJn2Qwnm8b9DkRJ7euCwnYB3Q", "scope": "GOOGLE", "types": ["school", "point_of_interest", "establishment"], "user_ratings_total": 4, "vicinity": "V5F7+7GQ, Gomoh"}, {"business_status": "OPERATIONAL", "geometry": {"location": {"lat": 23.8657768, "lng": 86.1622202}, "viewport": {"northeast": {"lat": 23.86713673029151, "lng": 86.1634328802915}, "southwest": {"lat": 23.8644387697085, "lng": 86.16073491970849}}}, "icon": "https://maps.gstatic.com/mapfiles/place_api/icons/v1/png_71/school-71.png", "icon_background_color": "#7B9EB0", "icon_mask_base_uri": "https://maps.gstatic.com/mapfiles/place_api/icons/v2/school_pinlet", "name": "Azad Hind High School", "photos": [{"height": 4160, "html_attributions": ["<a href=\"https://maps.google.com/maps/contrib/114219885644462073062\">GIRDHAR HM AZAD HIND H S GOMOH DHANBAD</a>"], "photo_reference": "Aap_uEC62guBZ67CB_q46Wr40ZmFnWv7DZuH5Gs8ksJNGX8PGtK7hJE4zt6ehzf6CqcJ0rwCxA483eh4r99ueyVKDB9ZD9WBn4OPoif-AwvCZhT2nyT4g59-Oh6caqhgalymSQ568zzWIahcMeXzm_jadlAuTJv5L-O2z8FxK4_tOhB0H--d", "width": 3120}], "place_id": "ChIJH1B4IXEb9DkRVVJW_o8DeGU", "rating": 3.9, "reference": "ChIJH1B4IXEb9DkRVVJW_o8DeGU", "scope": "GOOGLE", "types": ["secondary_school", "school", "point_of_interest", "establishment"], "user_ratings_total": 13, "vicinity": "V586+8V9, Gomoh"}, {"business_status": "OPERATIONAL", "geometry": {"location": {"lat": 23.8632253, "lng": 86.1660283}, "viewport": {"northeast": {"lat": 23.8646235302915, "lng": 86.1674410302915}, "southwest": {"lat": 23.86192556970849, "lng": 86.16474306970849}}}, "icon": "https://maps.gstatic.com/mapfiles/place_api/icons/v1/png_71/school-71.png", "icon_background_color": "#7B9EB0", "icon_mask_base_uri": "https://maps.gstatic.com/mapfiles/place_api/icons/v2/school_pinlet", "name": "Guru Nanak Public School, GOMOH", "photos": [{"height": 407, "html_attributions": ["<a href=\"https://maps.google.com/maps/contrib/110173162224815530932\">Akash Kumar</a>"], "photo_reference": "Aap_uEBU3Wk-8exPlKx2AlsA2YiU4YYdfneyvjNOrujSWOJ-VnGcajYx96fWVAQMxBY3oIhTdF3FHmMniUhIrWwnkjUH0VoUWCjo5_3i2GH2kDbMzVA54Eb82gQg32UfF3jheKGfsNcLeqah8_HjFilbUq1tHVynBlFEACrdBueqGu8XT5m5", "width": 528}], "place_id": "ChIJYXfI63kb9DkR_mVsoQw5OK0", "plus_code": {"compound_code": "V578+7C Gomoh, Jharkhand, India", "global_code": "7MM8V578+7C"}, "rating": 4.6, "reference": "ChIJYXfI63kb9DkR_mVsoQw5OK0", "scope": "GOOGLE", "types": ["school", "point_of_interest", "establishment"], "user_ratings_total": 29, "vicinity": "Ajadnagar,, Gomoh"}, {"business_status": "OPERATIONAL", "geometry": {"location": {"lat": 23.8624427, "lng": 86.1647481}, "viewport": {"northeast": {"lat": 23.8637774302915, "lng": 86.1659949802915}, "southwest": {"lat": 23.8610794697085, "lng": 86.1632970197085}}}, "icon": "https://maps.gstatic.com/mapfiles/place_api/icons/v1/png_71/school-71.png", "icon_background_color": "#7B9EB0", "icon_mask_base_uri": "https://maps.gstatic.com/mapfiles/place_api/icons/v2/school_pinlet", "name": "Shai tech Pvt. ITI", "photos": [{"height": 1840, "html_attributions": ["<a href=\"https://maps.google.com/maps/contrib/109216644379927307416\">viral junction</a>"], "photo_reference": "Aap_uEByTBrLNoHidNZU-WnPCh1YiGzHAwUe9XHmcBlMUbcAdCx_f9XrWSUlW_AZZd3RPMD19Sk6EEykVGFpAEMbdNOp9Cnxw-vZQ9yPYCv1WGMQrt2f9vvDSasHs4Yby9IZ5SuRlbKBIz-8-A89plBjev-q68YgIZ5JFTm_QgYuv5bsUJIW", "width": 3280}], "place_id": "ChIJ9Sb62Hkb9DkRFGPw9R6tIw4", "rating": 3.8, "reference": "ChIJ9Sb62Hkb9DkRFGPw9R6tIw4", "scope": "GOOGLE", "types": ["school", "point_of_interest", "establishment"], "user_ratings_total": 6, "vicinity": "V567+XVH, Gomoh"}, {"business_status": "OPERATIONAL", "geometry": {"location": {"lat": 23.8640976, "lng": 86.158496}, "viewport": {"northeast": {"lat": 23.8654627302915, "lng": 86.15984793029149}, "southwest": {"lat": 23.86276476970849, "lng": 86.15714996970848}}}, "icon": "https://maps.gstatic.com/mapfiles/place_api/icons/v1/png_71/school-71.png", "icon_background_color": "#7B9EB0", "icon_mask_base_uri": "https://maps.gstatic.com/mapfiles/place_api/icons/v2/school_pinlet", "name": "Ideal School", "opening_hours": {"open_now": false}, "place_id": "ChIJQVD-dHQb9DkRwGGuN-E8Eqk", "plus_code": {"compound_code": "V575+J9 Gomoh, Jharkhand, India", "global_code": "7MM8V575+J9"}, "rating": 3.7, "reference": "ChIJQVD-dHQb9DkRwGGuN-E8Eqk", "scope": "GOOGLE", "types": ["school", "point_of_interest", "establishment"], "user_ratings_total": 3, "vicinity": "Hatiya tand, Gomoh"}, {"business_status": "OPERATIONAL", "geometry": {"location": {"lat": 23.8715978, "lng": 86.15690239999999}, "viewport": {"northeast": {"lat": 23.8729874302915, "lng": 86.15814238029151}, "southwest": {"lat": 23.8702894697085, "lng": 86.1554444197085}}}, "icon": "https://maps.gstatic.com/mapfiles/place_api/icons/v1/png_71/school-71.png", "icon_background_color": "#7B9EB0", "icon_mask_base_uri": "https://maps.gstatic.com/mapfiles/place_api/icons/v2/school_pinlet", "name": "Wecare12345bloger. Com", "opening_hours": {"open_now": true}, "place_id": "ChIJ3Yksk20b9DkRSa4c66nCl1A", "plus_code": {"compound_code": "V5C4+JQ Gomoh, Jharkhand, India", "global_code": "7MM8V5C4+JQ"}, "rating": 2.7, "reference": "ChIJ3Yksk20b9DkRSa4c66nCl1A", "scope": "GOOGLE", "types": ["school", "point_of_interest", "establishment"], "user_ratings_total": 7, "vicinity": "Near girls high school gomoh"}, {"business_status": "OPERATIONAL", "geometry": {"location": {"lat": 23.8723078, "lng": 86.1571256}, "viewport": {"northeast": {"lat": 23.8736468802915, "lng": 86.1584714302915}, "southwest": {"lat": 23.8709489197085, "lng": 86.15577346970849}}}, "icon": "https://maps.gstatic.com/mapfiles/place_api/icons/v1/png_71/school-71.png", "icon_background_color": "#7B9EB0", "icon_mask_base_uri": "https://maps.gstatic.com/mapfiles/place_api/icons/v2/school_pinlet", "name": "ROHIT TELECOM", "place_id": "ChIJPVvMNtQb9DkRDuhWPwfVjP8", "plus_code": {"compound_code": "V5C4+WV Gomoh, Jharkhand, India", "global_code": "7MM8V5C4+WV"}, "reference": "ChIJPVvMNtQb9DkRDuhWPwfVjP8", "scope": "GOOGLE", "types": ["school", "point_of_interest", "establishment"], "vicinity": "124, kl, Khesmi, Gomoh"}, {"business_status": "OPERATIONAL", "geometry": {"location": {"lat": 23.8601256, "lng": 86.1663537}, "viewport": {"northeast": {"lat": 23.8613479302915, "lng": 86.1675676302915}, "southwest": {"lat": 23.8586499697085, "lng": 86.16486966970848}}}, "icon": "https://maps.gstatic.com/mapfiles/place_api/icons/v1/png_71/school-71.png", "icon_background_color": "#7B9EB0", "icon_mask_base_uri": "https://maps.gstatic.com/mapfiles/place_api/icons/v2/school_pinlet", "name": "Mother Teresa High School", "place_id": "ChIJpxAfQHgb9DkRMOATXSn8axc", "rating": 4.3, "reference": "ChIJpxAfQHgb9DkRMOATXSn8axc", "scope": "GOOGLE", "types": ["school", "point_of_interest", "establishment"], "user_ratings_total": 4, "vicinity": "V568+3G5, Gomoh"}, {"business_status": "OPERATIONAL", "geometry": {"location": {"lat": 23.8728316, "lng": 86.1562732}, "viewport": {"northeast": {"lat": 23.87418708029151, "lng": 86.1575867302915}, "southwest": {"lat": 23.8714891197085, "lng": 86.15488876970848}}}, "icon": "https://maps.gstatic.com/mapfiles/place_api/icons/v1/png_71/school-71.png", "icon_background_color": "#7B9EB0", "icon_mask_base_uri": "https://maps.gstatic.com/mapfiles/place_api/icons/v2/school_pinlet", "name": "Shiv Mandir Behachiya", "place_id": "ChIJYVeiwG0b9DkRNSfjBNoZkZ0", "plus_code": {"compound_code": "V5F4+4G Gomoh, Jharkhand, India", "global_code": "7MM8V5F4+4G"}, "reference": "ChIJYVeiwG0b9DkRNSfjBNoZkZ0", "scope": "GOOGLE", "types": ["school", "point_of_interest", "establishment"], "vicinity": "Shiv Mandir Behachiya, Jharkhand 8828113"}, {"business_status": "OPERATIONAL", "geometry": {"location": {"lat": 23.8592718, "lng": 86.1680624}, "viewport": {"northeast": {"lat": 23.86052563029151, "lng": 86.1694915302915}, "southwest": {"lat": 23.8578276697085, "lng": 86.16679356970849}}}, "icon": "https://maps.gstatic.com/mapfiles/place_api/icons/v1/png_71/school-71.png", "icon_background_color": "#7B9EB0", "icon_mask_base_uri": "https://maps.gstatic.com/mapfiles/place_api/icons/v2/school_pinlet", "name": "gunghasa study clube", "place_id": "ChIJHdhxhXgb9DkR_3g_kAR3YY4", "rating": 3, "reference": "ChIJHdhxhXgb9DkR_3g_kAR3YY4", "scope": "GOOGLE", "types": ["school", "point_of_interest", "establishment"], "user_ratings_total": 1, "vicinity": "V559+P63, Gomoh"}, {"business_status": "OPERATIONAL", "geometry": {"location": {"lat": 23.8592424, "lng": 86.1681086}, "viewport": {"northeast": {"lat": 23.8605156802915, "lng": 86.1695213302915}, "southwest": {"lat": 23.8578177197085, "lng": 86.1668233697085}}}, "icon": "https://maps.gstatic.com/mapfiles/place_api/icons/v1/png_71/school-71.png", "icon_background_color": "#7B9EB0", "icon_mask_base_uri": "https://maps.gstatic.com/mapfiles/place_api/icons/v2/school_pinlet", "name": "ideal Club", "place_id": "ChIJqXZAhXgb9DkRvut4zOucuJU", "reference": "ChIJqXZAhXgb9DkRvut4zOucuJU", "scope": "GOOGLE", "types": ["school", "point_of_interest", "establishment"], "vicinity": "V559+M6X, Gunghasa"}, {"business_status": "OPERATIONAL", "geometry": {"location": {"lat": 23.8608132, "lng": 86.1597693}, "viewport": {"northeast": {"lat": 23.8623260302915, "lng": 86.16109618029151}, "southwest": {"lat": 23.8596280697085, "lng": 86.15839821970849}}}, "icon": "https://maps.gstatic.com/mapfiles/place_api/icons/v1/png_71/school-71.png", "icon_background_color": "#7B9EB0", "icon_mask_base_uri": "https://maps.gstatic.com/mapfiles/place_api/icons/v2/school_pinlet", "name": "Xx", "place_id": "ChIJnZTOY1Ab9DkRSs_O-iSSrr8", "plus_code": {"compound_code": "V565+8W Gomoh, Jharkhand, India", "global_code": "7MM8V565+8W"}, "reference": "ChIJnZTOY1Ab9DkRSs_O-iSSrr8", "scope": "GOOGLE", "types": ["school", "point_of_interest", "establishment"], "vicinity": "New sike line, Gomoh"}, {"business_status": "OPERATIONAL", "geometry": {"location": {"lat": 23.8608132, "lng": 86.1597693}, "viewport": {"northeast": {"lat": 23.8623260302915, "lng": 86.16109618029151}, "southwest": {"lat": 23.8596280697085, "lng": 86.15839821970849}}}, "icon": "https://maps.gstatic.com/mapfiles/place_api/icons/v1/png_71/school-71.png", "icon_background_color": "#7B9EB0", "icon_mask_base_uri": "https://maps.gstatic.com/mapfiles/place_api/icons/v2/school_pinlet", "name": "Vihaan", "place_id": "ChIJGxQoyEcb9DkRZLZBfkumGOw", "reference": "ChIJGxQoyEcb9DkRZLZBfkumGOw", "scope": "GOOGLE", "types": ["school", "point_of_interest", "establishment"], "vicinity": "V565+8WC, Gomoh"}, {"business_status": "OPERATIONAL", "geometry": {"location": {"lat": 23.8608132, "lng": 86.1597693}, "viewport": {"northeast": {"lat": 23.8623260302915, "lng": 86.16109618029151}, "southwest": {"lat": 23.8596280697085, "lng": 86.15839821970849}}}, "icon": "https://maps.gstatic.com/mapfiles/place_api/icons/v1/png_71/school-71.png", "icon_background_color": "#7B9EB0", "icon_mask_base_uri": "https://maps.gstatic.com/mapfiles/place_api/icons/v2/school_pinlet", "name": "Sickline", "photos": [{"height": 3456, "html_attributions": ["<a href=\"https://maps.google.com/maps/contrib/104526931666430735990\">Vibha Bharti</a>"], "photo_reference": "Aap_uEDs5HN4QWxCX2dAPKdmupaSJMmd0FmB7oBzKQwuDwEWTfVygBAb-mtEpIhxVqo2w7fO7PvwGPbgHTpQfd76oO8PKZ0HqjSPmUc8kqXEywNMXZtSMIXOM3AiwxwPGp3Wt4_XxjoCvHqWb-mzPCo2-kYDKkRLS2IoU8NDQmOZyIF9yFuc", "width": 4608}], "place_id": "ChIJF0RU1nUb9DkRB-yEIlvl-6k", "rating": 3.6, "reference": "ChIJF0RU1nUb9DkRB-yEIlvl-6k", "scope": "GOOGLE", "types": ["school", "point_of_interest", "establishment"], "user_ratings_total": 5, "vicinity": "V565+8WC, Gomoh"}, {"business_status": "OPERATIONAL", "geometry": {"location": {"lat": 23.8608132, "lng": 86.1597693}, "viewport": {"northeast": {"lat": 23.8623260302915, "lng": 86.16109618029151}, "southwest": {"lat": 23.8596280697085, "lng": 86.15839821970849}}}, "icon": "https://maps.gstatic.com/mapfiles/place_api/icons/v1/png_71/school-71.png", "icon_background_color": "#7B9EB0", "icon_mask_base_uri": "https://maps.gstatic.com/mapfiles/place_api/icons/v2/school_pinlet", "name": "Sundri Villa", "place_id": "ChIJF0RU1nUb9DkRbPvBk1iukBA", "reference": "ChIJF0RU1nUb9DkRbPvBk1iukBA", "scope": "GOOGLE", "types": ["school", "point_of_interest", "establishment"], "vicinity": "V565+8WC, Gomoh"}, {"business_status": "OPERATIONAL", "geometry": {"location": {"lat": 23.8608132, "lng": 86.1597692}, "viewport": {"northeast": {"lat": 23.8623260302915, "lng": 86.16109608029149}, "southwest": {"lat": 23.85962806970849, "lng": 86.15839811970848}}}, "icon": "https://maps.gstatic.com/mapfiles/place_api/icons/v1/png_71/school-71.png", "icon_background_color": "#7B9EB0", "icon_mask_base_uri": "https://maps.gstatic.com/mapfiles/place_api/icons/v2/school_pinlet", "name": "Guru Gobind Kindergarten", "opening_hours": {"open_now": false}, "photos": [{"height": 1016, "html_attributions": ["<a href=\"https://maps.google.com/maps/contrib/112193943035707287509\">Papindra Gandhi</a>"], "photo_reference": "Aap_uEBBATm84zIZXA57Bu2OdkFeqEv98GxGbZingw2LqpYAHJd-mouzM7jzsqQT6K08mpDkxDDMzIH8Wtxt4ZZWcVZ9TlZf_HvgwnZPT7p9799VaHHN7q-bShGY7ozttJh0NFH6Y6_6U26c8MBkFIjnGG5cm-A76wlY1GfQviZi2EnaFNgK", "width": 830}], "place_id": "ChIJD7yjb3Eb9DkROnuutZ9DbxM", "plus_code": {"compound_code": "V565+8W Gomoh, Jharkhand, India", "global_code": "7MM8V565+8W"}, "reference": "ChIJD7yjb3Eb9DkROnuutZ9DbxM", "scope": "GOOGLE", "types": ["school", "point_of_interest", "establishment"], "vicinity": "Near MonaStudio, Khesmi, Gomoh"}], "status": "OK"}