{"html_attributions": [], "results": [{"business_status": "OPERATIONAL", "geometry": {"location": {"lat": 23.5043024, "lng": 86.1970977}, "viewport": {"northeast": {"lat": 23.5057503802915, "lng": 86.19844073029151}, "southwest": {"lat": 23.5030524197085, "lng": 86.1957427697085}}}, "icon": "https://maps.gstatic.com/mapfiles/place_api/icons/v1/png_71/school-71.png", "icon_background_color": "#7B9EB0", "icon_mask_base_uri": "https://maps.gstatic.com/mapfiles/place_api/icons/v2/school_pinlet", "name": "Sarvodaya High School Pindrajora", "photos": [{"height": 2322, "html_attributions": ["<a href=\"https://maps.google.com/maps/contrib/117553578827490238273\">Deeksha Kumari</a>"], "photo_reference": "Aap_uECChVRT-zHg0Rd3e9cfu8TrDKgrx7QdieIBdgFIKkd8gAIMqqh8oxZTFRiIKuCXAdxo-PQpvo0uP15KdekV6eimSS9XIk4q2sMFWv7owoRR5zqcGC9A9rdII5MGGtalgoHMGXNriiXn2qFIlGdvvzUPqOJFn7BdnBr3qDYu0BzF6rQm", "width": 4128}], "place_id": "ChIJJS8APpUo9DkRFuR-EUeoel4", "rating": 4.5, "reference": "ChIJJS8APpUo9DkRFuR-EUeoel4", "scope": "GOOGLE", "types": ["school", "point_of_interest", "establishment"], "user_ratings_total": 4, "vicinity": "G53W+PRH, Abra"}, {"business_status": "OPERATIONAL", "geometry": {"location": {"lat": 23.504994, "lng": 86.19825589999999}, "viewport": {"northeast": {"lat": 23.5063528302915, "lng": 86.1995076802915}, "southwest": {"lat": 23.50365486970849, "lng": 86.1968097197085}}}, "icon": "https://maps.gstatic.com/mapfiles/place_api/icons/v1/png_71/school-71.png", "icon_background_color": "#7B9EB0", "icon_mask_base_uri": "https://maps.gstatic.com/mapfiles/place_api/icons/v2/school_pinlet", "name": "Rani Studio Pindrajora", "place_id": "ChIJXaT6VrMp9DkRnEGVXq4t-Fs", "plus_code": {"compound_code": "G53X+X8 Abra, Jharkhand, India", "global_code": "7MM8G53X+X8"}, "reference": "ChIJXaT6VrMp9DkRnEGVXq4t-Fs", "scope": "GOOGLE", "types": ["school", "point_of_interest", "establishment"], "vicinity": "National Highway 18, Abra"}, {"business_status": "OPERATIONAL", "geometry": {"location": {"lat": 23.5026929, "lng": 86.1974219}, "viewport": {"northeast": {"lat": 23.5039063802915, "lng": 86.19875748029149}, "southwest": {"lat": 23.5012084197085, "lng": 86.19605951970848}}}, "icon": "https://maps.gstatic.com/mapfiles/place_api/icons/v1/png_71/school-71.png", "icon_background_color": "#7B9EB0", "icon_mask_base_uri": "https://maps.gstatic.com/mapfiles/place_api/icons/v2/school_pinlet", "name": "Sarboday Ucha Vidyalaya", "photos": [{"height": 3072, "html_attributions": ["<a href=\"https://maps.google.com/maps/contrib/109436868368975993514\">Shawon Roy</a>"], "photo_reference": "Aap_uEAEPWJv5eNL7CZvYuXYvERBuewxEkGjyrT7BekDulZ_iSOvwcslpIJXDU-6UF2sJ_OZYjwCw7jBUBOPSiUXXGTBUrlDhAF2LF6BtNx3aqFGFZSxI9v28UNx4M1XAMS-LVqI8cesCCsgkMkdgyUtCMobhmg2B8P9b85wf0vvInGoq9PV", "width": 4096}], "place_id": "ChIJv5hizeoo9DkR0N8Lygci7Vo", "reference": "ChIJv5hizeoo9DkR0N8Lygci7Vo", "scope": "GOOGLE", "types": ["school", "point_of_interest", "establishment"], "vicinity": "G53W+3XF, Abra"}, {"business_status": "OPERATIONAL", "geometry": {"location": {"lat": 23.5046566, "lng": 86.1989239}, "viewport": {"northeast": {"lat": 23.5059765802915, "lng": 86.20021648029152}, "southwest": {"lat": 23.5032786197085, "lng": 86.1975185197085}}}, "icon": "https://maps.gstatic.com/mapfiles/place_api/icons/v1/png_71/school-71.png", "icon_background_color": "#7B9EB0", "icon_mask_base_uri": "https://maps.gstatic.com/mapfiles/place_api/icons/v2/school_pinlet", "name": "aadarsh sikhsha niketan", "place_id": "ChIJ_9SnlFwp9DkRtefORXkUOJE", "reference": "ChIJ_9SnlFwp9DkRtefORXkUOJE", "scope": "GOOGLE", "types": ["school", "point_of_interest", "establishment"], "vicinity": "G53X+VH7, Pindrajora"}], "status": "OK"}