{"html_attributions": [], "results": [{"business_status": "OPERATIONAL", "geometry": {"location": {"lat": 23.6054957, "lng": 86.1861818}, "viewport": {"northeast": {"lat": 23.6068196802915, "lng": 86.18735353029152}, "southwest": {"lat": 23.6041217197085, "lng": 86.18465556970851}}}, "icon": "https://maps.gstatic.com/mapfiles/place_api/icons/v1/png_71/school-71.png", "icon_background_color": "#7B9EB0", "icon_mask_base_uri": "https://maps.gstatic.com/mapfiles/place_api/icons/v2/school_pinlet", "name": "Priyadarshini School", "place_id": "ChIJh4DFO7sm9DkRXm8IZybknlg", "plus_code": {"compound_code": "J54P+5F Kanrra, Jharkhand, India", "global_code": "7MM8J54P+5F"}, "reference": "ChIJh4DFO7sm9DkRXm8IZybknlg", "scope": "GOOGLE", "types": ["school", "point_of_interest", "establishment"], "vicinity": "National Highway 32, Kanrra"}, {"business_status": "OPERATIONAL", "geometry": {"location": {"lat": 23.6037068, "lng": 86.1879135}, "viewport": {"northeast": {"lat": 23.6048551802915, "lng": 86.18935098029151}, "southwest": {"lat": 23.6021572197085, "lng": 86.18665301970849}}}, "icon": "https://maps.gstatic.com/mapfiles/place_api/icons/v1/png_71/school-71.png", "icon_background_color": "#7B9EB0", "icon_mask_base_uri": "https://maps.gstatic.com/mapfiles/place_api/icons/v2/school_pinlet", "name": "Siddhu Kanhu Pvt ITI", "photos": [{"height": 3264, "html_attributions": ["<a href=\"https://maps.google.com/maps/contrib/117278471383007043899\">Raaz Kr Mahto</a>"], "photo_reference": "Aap_uEA4F6zuerWiyGjnczSNGbYaYFhZ9YXa_OgZwvLhR-kU0b_qH3jPbhp3cjEiFWvjexAi6oRAqULFYbYMcStZldVSCQUqGH6-ipU5xLE23YUQD4Rd3OJlXBDrlIaNY5ZMBpb3wR7QAozUDf0VTjsrIUfOdx_LNkWm4uGunianbTdRNh1W", "width": 2448}], "place_id": "ChIJ0bbiElcn9DkRd4zaFhlfyiI", "rating": 5, "reference": "ChIJ0bbiElcn9DkRd4zaFhlfyiI", "scope": "GOOGLE", "types": ["school", "point_of_interest", "establishment"], "user_ratings_total": 1, "vicinity": "J53Q+F5M, Kanrra"}, {"business_status": "OPERATIONAL", "geometry": {"location": {"lat": 23.6030053, "lng": 86.1885562}, "viewport": {"northeast": {"lat": 23.6045252302915, "lng": 86.1898969302915}, "southwest": {"lat": 23.6018272697085, "lng": 86.18719896970849}}}, "icon": "https://maps.gstatic.com/mapfiles/place_api/icons/v1/png_71/school-71.png", "icon_background_color": "#7B9EB0", "icon_mask_base_uri": "https://maps.gstatic.com/mapfiles/place_api/icons/v2/school_pinlet", "name": "Grooping Class", "photos": [{"height": 900, "html_attributions": ["<a href=\"https://maps.google.com/maps/contrib/111324719790152704214\">Amit Mahatha</a>"], "photo_reference": "Aap_uEBFig58tAYswrfb4hywmvueqqlDGjQCQy0_wsRMYjLd2BMmjYR-_VAYf2zw2ODQpqrHgBHyR_-9qbMcjPBqnpDCxOcpfacCrLCQuffcrg_Yj5cHwC2ZNeNmlLGmOwc1vDvqOxMZQWYjyL9WZQJEIuG4d0gq218FD7Y4hMvVEpCxnaor", "width": 1600}], "place_id": "ChIJNdyzRI4n9DkRw2nFu7HYkG4", "reference": "ChIJNdyzRI4n9DkRw2nFu7HYkG4", "scope": "GOOGLE", "types": ["school", "point_of_interest", "establishment"], "vicinity": "J53Q+6C3, Kanrra"}, {"business_status": "OPERATIONAL", "geometry": {"location": {"lat": 23.6150763, "lng": 86.181561}, "viewport": {"northeast": {"lat": 23.6164655802915, "lng": 86.18292538029151}, "southwest": {"lat": 23.6137676197085, "lng": 86.18022741970849}}}, "icon": "https://maps.gstatic.com/mapfiles/place_api/icons/v1/png_71/school-71.png", "icon_background_color": "#7B9EB0", "icon_mask_base_uri": "https://maps.gstatic.com/mapfiles/place_api/icons/v2/school_pinlet", "name": "CSC Digital Seva", "photos": [{"height": 3120, "html_attributions": ["<a href=\"https://maps.google.com/maps/contrib/106196717770906165070\">Awani Kumar Mahto</a>"], "photo_reference": "Aap_uEBxdkMueb0-f9v3cwzBvzjq20ykJO3bD4z71xsbxHUsLNUBIBnu_9ZGLlT52Hlk_KxtdLi53h7r8oMYYLAo5zi7A_TAGaVB7yZJ6gG9hqLYEIIP5AgEbK4bxIxJpSWtRbxnmFhmc-HeCyByNgrItJSzB8qDG7sNTvRvbGHkpsnKX3hv", "width": 4160}], "place_id": "ChIJtXFnn64m9DkR7SBbThmrt4k", "plus_code": {"compound_code": "J58J+2J Dhanbad, Jharkhand, India", "global_code": "7MM8J58J+2J"}, "reference": "ChIJtXFnn64m9DkR7SBbThmrt4k", "scope": "GOOGLE", "types": ["school", "point_of_interest", "establishment"], "vicinity": "Pragya Kendra, Forest Colony, Dhanbad"}, {"business_status": "OPERATIONAL", "geometry": {"location": {"lat": 23.6158835, "lng": 86.1815601}, "viewport": {"northeast": {"lat": 23.6172622802915, "lng": 86.1829959802915}, "southwest": {"lat": 23.6145643197085, "lng": 86.18029801970849}}}, "icon": "https://maps.gstatic.com/mapfiles/place_api/icons/v1/png_71/school-71.png", "icon_background_color": "#7B9EB0", "icon_mask_base_uri": "https://maps.gstatic.com/mapfiles/place_api/icons/v2/school_pinlet", "name": "Bokaro Cotton Shop", "place_id": "ChIJcURToEgn9DkRTtNhvD1-8_M", "plus_code": {"compound_code": "J58J+9J Chas, Jharkhand, India", "global_code": "7MM8J58J+9J"}, "reference": "ChIJcURToEgn9DkRTtNhvD1-8_M", "scope": "GOOGLE", "types": ["school", "point_of_interest", "establishment"], "vicinity": "Unnamed Road, Shivpuri Colony, Chas"}, {"business_status": "OPERATIONAL", "geometry": {"location": {"lat": 23.612827, "lng": 86.178007}, "viewport": {"northeast": {"lat": 23.6144467802915, "lng": 86.1794742302915}, "southwest": {"lat": 23.6117488197085, "lng": 86.17677626970848}}}, "icon": "https://maps.gstatic.com/mapfiles/place_api/icons/v1/png_71/school-71.png", "icon_background_color": "#7B9EB0", "icon_mask_base_uri": "https://maps.gstatic.com/mapfiles/place_api/icons/v2/school_pinlet", "name": "Hotal managment college", "photos": [{"height": 1280, "html_attributions": ["<a href=\"https://maps.google.com/maps/contrib/100783015964154844853\">lakshman shukla</a>"], "photo_reference": "Aap_uEDUCMdIY2mu8nlhfBjiyPEGnoepyafxJLTd-Pe2CgF-vT3dUoQPppucnEAaGrw0KQ7ltj3hmfOFLz9iJxbZXFRDFvvpDD4pdOVzU2nkK776LwQHRYwFdLlYoKSB7Ym5ShtH6FtWRPUVQiHDkMNpo_vUVQmeFE9TzAvCbrvYwrlFPwH7", "width": 720}], "place_id": "ChIJWwRGXGgn9DkR73Kv1oppkjw", "plus_code": {"compound_code": "J57H+46 Kamaldi, Jharkhand, India", "global_code": "7MM8J57H+46"}, "reference": "ChIJWwRGXGgn9DkR73Kv1oppkjw", "scope": "GOOGLE", "types": ["school", "point_of_interest", "establishment"], "vicinity": "National Highway 320, Kamaldi"}, {"business_status": "OPERATIONAL", "geometry": {"location": {"lat": 23.6038655, "lng": 86.19314609999999}, "viewport": {"northeast": {"lat": 23.6051433802915, "lng": 86.19457813029149}, "southwest": {"lat": 23.60244541970849, "lng": 86.19188016970848}}}, "icon": "https://maps.gstatic.com/mapfiles/place_api/icons/v1/png_71/school-71.png", "icon_background_color": "#7B9EB0", "icon_mask_base_uri": "https://maps.gstatic.com/mapfiles/place_api/icons/v2/school_pinlet", "name": "Primary School Labudih", "place_id": "ChIJAQzSl4wn9DkR3SkqKjLJCV4", "rating": 5, "reference": "ChIJAQzSl4wn9DkR3SkqKjLJCV4", "scope": "GOOGLE", "types": ["school", "point_of_interest", "establishment"], "user_ratings_total": 1, "vicinity": "J53V+G7R, Labudih, Chas"}, {"business_status": "OPERATIONAL", "geometry": {"location": {"lat": 23.6160715, "lng": 86.18095129999999}, "viewport": {"northeast": {"lat": 23.6174747802915, "lng": 86.1823138802915}, "southwest": {"lat": 23.6147768197085, "lng": 86.1796159197085}}}, "icon": "https://maps.gstatic.com/mapfiles/place_api/icons/v1/png_71/school-71.png", "icon_background_color": "#7B9EB0", "icon_mask_base_uri": "https://maps.gstatic.com/mapfiles/place_api/icons/v2/school_pinlet", "name": "RESIDENTIAL SATYA PRAKASH VIDYA NIKETAN", "opening_hours": {"open_now": false}, "photos": [{"height": 2160, "html_attributions": ["<a href=\"https://maps.google.com/maps/contrib/113815768758217607072\">RESIDENTIAL SATYA PRAKASH VIDYA NIKETAN</a>"], "photo_reference": "Aap_uEBrsLdF2rp0IFESW8YpTiZ9lBev4W4y8gKw2mWe2qj5EIx5eAthhyrXs7iiMDPugPJexminuOIf76WEXO9Gqw3ljccfG6MV6BZ9dyuj8hOIVnnF77a8FLxdmHf_4ArEgHEqnHEPkVdCP6ATtON2ViM_Lb71LeGoYSedDm4dbasZFKU", "width": 3840}], "place_id": "ChIJ0UVwx-In9DkRWjRhDLwkylM", "plus_code": {"compound_code": "J58J+C9 Kamaldi, Jharkhand, India", "global_code": "7MM8J58J+C9"}, "rating": 5, "reference": "ChIJ0UVwx-In9DkRWjRhDLwkylM", "scope": "GOOGLE", "types": ["school", "point_of_interest", "establishment"], "user_ratings_total": 3, "vicinity": "opposite PANI TANKI, ITI MORE, CHAS, opposite PANI TANKI, Kamaldi"}, {"business_status": "OPERATIONAL", "geometry": {"location": {"lat": 23.6027223, "lng": 86.179605}, "viewport": {"northeast": {"lat": 23.6041000302915, "lng": 86.18092893029151}, "southwest": {"lat": 23.6014020697085, "lng": 86.1782309697085}}}, "icon": "https://maps.gstatic.com/mapfiles/place_api/icons/v1/png_71/school-71.png", "icon_background_color": "#7B9EB0", "icon_mask_base_uri": "https://maps.gstatic.com/mapfiles/place_api/icons/v2/school_pinlet", "name": "\u092e\u093e\u0927\u094d\u092f\u092e\u093f\u0915 \u0909\u091a\u094d\u091a \u0935\u093f\u0926\u094d\u092f\u093e\u0932\u092f", "place_id": "ChIJo7mjIKEn9DkRxzmCcVWkERY", "reference": "ChIJo7mjIKEn9DkRxzmCcVWkERY", "scope": "GOOGLE", "types": ["school", "point_of_interest", "establishment"], "vicinity": "J53H+3RQ, Kamaldi"}, {"business_status": "OPERATIONAL", "geometry": {"location": {"lat": 23.6159005, "lng": 86.17960459999999}, "viewport": {"northeast": {"lat": 23.6172462302915, "lng": 86.1809923802915}, "southwest": {"lat": 23.6145482697085, "lng": 86.1782944197085}}}, "icon": "https://maps.gstatic.com/mapfiles/place_api/icons/v1/png_71/school-71.png", "icon_background_color": "#7B9EB0", "icon_mask_base_uri": "https://maps.gstatic.com/mapfiles/place_api/icons/v2/school_pinlet", "name": "NPS ITI MORE", "opening_hours": {"open_now": false}, "place_id": "ChIJYw_nFxon9DkRXg2QQGATVV4", "reference": "ChIJYw_nFxon9DkRXg2QQGATVV4", "scope": "GOOGLE", "types": ["school", "point_of_interest", "establishment"], "vicinity": "J58H+9R9, Kamaldi"}, {"business_status": "OPERATIONAL", "geometry": {"location": {"lat": 23.6195739, "lng": 86.1853429}, "viewport": {"northeast": {"lat": 23.6209323302915, "lng": 86.18661108029148}, "southwest": {"lat": 23.6182343697085, "lng": 86.18391311970848}}}, "icon": "https://maps.gstatic.com/mapfiles/place_api/icons/v1/png_71/school-71.png", "icon_background_color": "#7B9EB0", "icon_mask_base_uri": "https://maps.gstatic.com/mapfiles/place_api/icons/v2/school_pinlet", "name": "Sarkari School", "place_id": "ChIJeSR0dE8n9DkR1YwlHhemjfc", "rating": 5, "reference": "ChIJeSR0dE8n9DkR1YwlHhemjfc", "scope": "GOOGLE", "types": ["primary_school", "school", "point_of_interest", "establishment"], "user_ratings_total": 1, "vicinity": "J59P+R4G, Bhawani Pur Site, Bokaro Steel City"}, {"business_status": "OPERATIONAL", "geometry": {"location": {"lat": 23.6039193, "lng": 86.1757366}, "viewport": {"northeast": {"lat": 23.6052877302915, "lng": 86.1771147302915}, "southwest": {"lat": 23.6025897697085, "lng": 86.1744167697085}}}, "icon": "https://maps.gstatic.com/mapfiles/place_api/icons/v1/png_71/school-71.png", "icon_background_color": "#7B9EB0", "icon_mask_base_uri": "https://maps.gstatic.com/mapfiles/place_api/icons/v2/school_pinlet", "name": "anganwadi kendra", "place_id": "ChIJkWNoYwAn9DkRYzbFMfglnc8", "reference": "ChIJkWNoYwAn9DkRYzbFMfglnc8", "scope": "GOOGLE", "types": ["school", "point_of_interest", "establishment"], "vicinity": "J53G+H79, Dhebatand, Bokaro Steel City"}, {"business_status": "OPERATIONAL", "geometry": {"location": {"lat": 23.6198844, "lng": 86.18585600000002}, "viewport": {"northeast": {"lat": 23.62116818029151, "lng": 86.18712563029152}, "southwest": {"lat": 23.6184702197085, "lng": 86.1844276697085}}}, "icon": "https://maps.gstatic.com/mapfiles/place_api/icons/v1/png_71/school-71.png", "icon_background_color": "#7B9EB0", "icon_mask_base_uri": "https://maps.gstatic.com/mapfiles/place_api/icons/v2/school_pinlet", "name": "KIDS LAND PUBLIC SCHOOL", "photos": [{"height": 1932, "html_attributions": ["<a href=\"https://maps.google.com/maps/contrib/116616632097185036378\">Alok Kumar</a>"], "photo_reference": "Aap_uEAiW_qCWvLg8BZtMfJH3f3XYM5fDEcPkXrBEzihaZGC8KNjd3WJU7Kh9pYJgQr2ebk-liGs7MW33ir164ghnqdyCmlN0EXSGMtAyiyu2g1Axk5tGa6uqKeJzFuaE9bzlbmCyMtTN7G-7l6MRQJ6gu6k-F39l-6L88lROtLQeSM7NSu_", "width": 2576}], "place_id": "ChIJmSF0mLIm9DkRGXq8NtDEQV0", "rating": 4.3, "reference": "ChIJmSF0mLIm9DkRGXq8NtDEQV0", "scope": "GOOGLE", "types": ["school", "point_of_interest", "establishment"], "user_ratings_total": 6, "vicinity": "J59P+X85, Bhawani Pur Site, Bokaro Steel City"}, {"business_status": "OPERATIONAL", "geometry": {"location": {"lat": 23.6200115, "lng": 86.18810479999999}, "viewport": {"northeast": {"lat": 23.6212801802915, "lng": 86.1898999802915}, "southwest": {"lat": 23.6185822197085, "lng": 86.18720201970848}}}, "icon": "https://maps.gstatic.com/mapfiles/place_api/icons/v1/png_71/school-71.png", "icon_background_color": "#7B9EB0", "icon_mask_base_uri": "https://maps.gstatic.com/mapfiles/place_api/icons/v2/school_pinlet", "name": "Akash karmkar", "photos": [{"height": 1936, "html_attributions": ["<a href=\"https://maps.google.com/maps/contrib/111185714909462458553\">Cra Zy</a>"], "photo_reference": "Aap_uECM6xi21d-TmFL8hmC34m9fhD6Ask50EOnRewo2XneTEwx0J4xIBya8mDoszdzTPdDDkmCSPqNDptLSV5x7TRe6wlDdkI-gQpRRYvGu6qZOZhZ2VM-xMwPdjac44UcnZdD-mNJxnog4p83jgo2WVwP4yhWxMvx_7R6huDZwU1O8WwlP", "width": 1936}], "place_id": "ChIJG35iyMon9DkRQDf7DQJj-TM", "plus_code": {"compound_code": "J5CQ+26 Chas, Jharkhand, India", "global_code": "7MM8J5CQ+26"}, "reference": "ChIJG35iyMon9DkRQDf7DQJj-TM", "scope": "GOOGLE", "types": ["school", "point_of_interest", "establishment"], "vicinity": "sangjori, CK Road, Bhawani Pur Site, Chas"}, {"business_status": "CLOSED_TEMPORARILY", "geometry": {"location": {"lat": 23.6210131, "lng": 86.18578339999999}, "viewport": {"northeast": {"lat": 23.6224529302915, "lng": 86.18715678029149}, "southwest": {"lat": 23.6197549697085, "lng": 86.18445881970848}}}, "icon": "https://maps.gstatic.com/mapfiles/place_api/icons/v1/png_71/school-71.png", "icon_background_color": "#7B9EB0", "icon_mask_base_uri": "https://maps.gstatic.com/mapfiles/place_api/icons/v2/school_pinlet", "name": "NM Memorial Academy", "permanently_closed": true, "photos": [{"height": 576, "html_attributions": ["<a href=\"https://maps.google.com/maps/contrib/114130461471236240046\">Dinesh dey</a>"], "photo_reference": "Aap_uEAaNiR7AT1q5sUCLOxivHpQJ5qEmWH6MYsggBfLIfcgazRskhAOc7O0KHgXZXCYl7UF_Np3zq5Bmw_G5pagKvtO2yozSSbjDM5P1YKOkcBtLNc6C14Tt47gzxvc3T69TmhIyClCfPNpWKnF-rU7GOUSlBTbieLFTVNXtKxwzA2sPTrA", "width": 1280}], "place_id": "ChIJydWcrrIm9DkRlu8UfqBsdEc", "rating": 4.2, "reference": "ChIJydWcrrIm9DkRlu8UfqBsdEc", "scope": "GOOGLE", "types": ["school", "point_of_interest", "establishment"], "user_ratings_total": 6, "vicinity": "J5CP+C83, Bhawani Pur Site, Chas"}, {"business_status": "OPERATIONAL", "geometry": {"location": {"lat": 23.6209597, "lng": 86.1821353}, "viewport": {"northeast": {"lat": 23.6223584802915, "lng": 86.1833487802915}, "southwest": {"lat": 23.6196605197085, "lng": 86.18065081970849}}}, "icon": "https://maps.gstatic.com/mapfiles/place_api/icons/v1/png_71/school-71.png", "icon_background_color": "#7B9EB0", "icon_mask_base_uri": "https://maps.gstatic.com/mapfiles/place_api/icons/v2/school_pinlet", "name": "G.G.P.S Ground", "photos": [{"height": 3998, "html_attributions": ["<a href=\"https://maps.google.com/maps/contrib/102816926263016132889\">Gurdeep Mehra</a>"], "photo_reference": "Aap_uEAWzTc1ZmHGD7oKdFUkD9uILjNh2rfaA5lA-no2t9uLoIHeHnhi_QdJq1-iAA4T_q8vJY2KiuVQuFsplYq8i0j2QQNL8Ij033t1yowwJDFlkiPZsKHSwSI174Wgea9fPjFTR1ZqiC1PSGSVkyzikrQ_hZxANEAlKpXApoCGWg4Uok9d", "width": 2998}], "place_id": "ChIJkWH7zawm9DkRpwIAyOoEWcA", "rating": 5, "reference": "ChIJkWH7zawm9DkRpwIAyOoEWcA", "scope": "GOOGLE", "types": ["school", "point_of_interest", "establishment"], "user_ratings_total": 2, "vicinity": "J5CJ+9VJ, D S P Colony, Shivpuri Colony, Bokaro Steel City"}, {"geometry": {"location": {"lat": 23.6144182, "lng": 86.1813744}, "viewport": {"northeast": {"lat": 23.61575622659387, "lng": 86.18269001052809}, "southwest": {"lat": 23.61305826601086, "lng": 86.17999204994508}}}, "icon": "https://maps.gstatic.com/mapfiles/place_api/icons/v1/png_71/school-71.png", "icon_background_color": "#7B9EB0", "icon_mask_base_uri": "https://maps.gstatic.com/mapfiles/place_api/icons/v2/school_pinlet", "name": "Kasturba Gandhi Balika Awasiya Vidyalaya", "place_id": "ChIJ73PBvK4m9DkR7Oj2zFcsD6M", "reference": "ChIJ73PBvK4m9DkR7Oj2zFcsD6M", "scope": "GOOGLE", "types": ["premise", "school", "establishment"], "vicinity": "Bansidih Colony"}, {"geometry": {"location": {"lat": 23.6160303, "lng": 86.18085789999999}, "viewport": {"northeast": {"lat": 23.61739114961065, "lng": 86.18223363404202}, "southwest": {"lat": 23.61469318902765, "lng": 86.17953567345901}}}, "icon": "https://maps.gstatic.com/mapfiles/place_api/icons/v1/png_71/school-71.png", "icon_background_color": "#7B9EB0", "icon_mask_base_uri": "https://maps.gstatic.com/mapfiles/place_api/icons/v2/school_pinlet", "name": "Divya Prakash Vidya Niketan", "place_id": "ChIJz1ytGqwm9DkRY1qZg6W_8FU", "reference": "ChIJz1ytGqwm9DkRY1qZg6W_8FU", "scope": "GOOGLE", "types": ["premise", "school", "establishment"], "vicinity": "Bansidih Colony"}], "status": "OK"}