{"html_attributions": [], "next_page_token": "Aap_uEDjhGlM8lDTXAcrMxtwGMYtnL46oz129ENNfN7WiA8MLqocGqW4dFdL767ftnrOrmQb_PuBrt1JdTeXS7v3vK53IxXw96P0wGUmGOxqNbtdzH5T7VmmJUSXGvvLGwt9EWB-DXmQfewrLS_G9Cjy9MFV7WM2_qs9rEyYvqFKdhFo5iWrzwhQBLXS-tuCybZolyO9kxN1RZRaxjAFKC1-R__FFKXFcpShRGMOlIGWLEvLczo5LvDanF90CtIKBXmFDF0eaEQrzD6ny0p-MHRuINpw0VadjXbWdApZ_djipkVmX4JFmmHZIBOg9Wm2yCaCblsdKg-YUfH6E85oQB8PwPtVWpWTnoXFrxj7SmRIKR-RwfyG0PQX919IUYJURGWHa1ma0l6EOB3qQKBrkwP4vwAWah4kVDd1TZENmd3bNFnnX7PA0LIH3YB8v8_EiA4cpEWw_IROAdUS8Zfkue8Rzj5SX9jORKKFdQ3n4-_dXm9e6kWD2VCVsjbwOaYwbmfrEuWIlH8kbifOe67SX0sWq6X-wLnAOPnQf7cCSIqpanMYGL5H9AkbCRXl4xHS23nZsVD4QLeqxicutgV9Yu7i693AO19tbBgQ16uvxM4gyBhVisBGvWDP7XAeJkuDoyTlPVoYojYP", "results": [{"business_status": "OPERATIONAL", "geometry": {"location": {"lat": 23.6583723, "lng": 86.1900872}, "viewport": {"northeast": {"lat": 23.6597173802915, "lng": 86.19144328029151}, "southwest": {"lat": 23.6570194197085, "lng": 86.1887453197085}}}, "icon": "https://maps.gstatic.com/mapfiles/place_api/icons/v1/png_71/school-71.png", "icon_background_color": "#7B9EB0", "icon_mask_base_uri": "https://maps.gstatic.com/mapfiles/place_api/icons/v2/school_pinlet", "name": "Rama sparsh pre school&Creche", "place_id": "ChIJO641858h9DkRSIk1Y5JMwYI", "plus_code": {"compound_code": "M55R+82 Bokaro Steel City, Jharkhand, India", "global_code": "7MM8M55R+82"}, "reference": "ChIJO641858h9DkRSIk1Y5JMwYI", "scope": "GOOGLE", "types": ["school", "point_of_interest", "establishment"], "vicinity": "K K Singh Colony, Chas, Bokaro Steel City"}, {"business_status": "OPERATIONAL", "geometry": {"location": {"lat": 23.6449848, "lng": 86.17544869999999}, "viewport": {"northeast": {"lat": 23.64632913029151, "lng": 86.1767966302915}, "southwest": {"lat": 23.6436311697085, "lng": 86.17409866970848}}}, "icon": "https://maps.gstatic.com/mapfiles/place_api/icons/v1/png_71/school-71.png", "icon_background_color": "#7B9EB0", "icon_mask_base_uri": "https://maps.gstatic.com/mapfiles/place_api/icons/v2/school_pinlet", "name": "Holy Saint Public School", "photos": [{"height": 3120, "html_attributions": ["<a href=\"https://maps.google.com/maps/contrib/107230595297337460462\">enam hussain</a>"], "photo_reference": "Aap_uEAzDh471Au1K9rXuki7bdgK-thnY8QNJnv6QwwtxgyMIJEb8J0Vd-ex6X8-N2-GpM_L92UKZm07L_5yqGhIkxWf7dJkRC0FlerZ8u0QmNlgFpQFLf5G86Xmbdf3Tpz_tlqcx3V8X8CGvqKI0lkTHkwRKoX8pdlLO-74vxlSdp7kRuXU", "width": 4160}], "place_id": "ChIJb5O5AGAh9DkR5Cgagvz_gLg", "rating": 3.7, "reference": "ChIJb5O5AGAh9DkR5Cgagvz_gLg", "scope": "GOOGLE", "types": ["school", "point_of_interest", "establishment"], "user_ratings_total": 6, "vicinity": "J5VG+X5W, Ansari Colony, Bokaro Steel City"}, {"business_status": "OPERATIONAL", "geometry": {"location": {"lat": 23.6523742, "lng": 86.1750948}, "viewport": {"northeast": {"lat": 23.6538333302915, "lng": 86.1764129302915}, "southwest": {"lat": 23.6511353697085, "lng": 86.17371496970848}}}, "icon": "https://maps.gstatic.com/mapfiles/place_api/icons/v1/png_71/school-71.png", "icon_background_color": "#7B9EB0", "icon_mask_base_uri": "https://maps.gstatic.com/mapfiles/place_api/icons/v2/school_pinlet", "name": "Happy Children School", "photos": [{"height": 3096, "html_attributions": ["<a href=\"https://maps.google.com/maps/contrib/103083351456691663421\">Neelabh Sharma</a>"], "photo_reference": "Aap_uEChLKQdBucjznvmg72hG-7lkriKa3VX0-PdZdCYzGDwBZhCO_UqabwgI-jkfwKqvBSI-OGdP64cBIgobTCUKhGYo2iAO7FYzQS7G7t7Slsxvb9qzp-woNwIhi9wu5lzUkqmOIJL1IFNEMXb7G2nmkSSnMP2_pGpbHwatJUcaobSrcej", "width": 4128}], "place_id": "ChIJPVGNn9gj9DkRyvPt7LROS00", "reference": "ChIJPVGNn9gj9DkRyvPt7LROS00", "scope": "GOOGLE", "types": ["primary_school", "school", "point_of_interest", "establishment"], "vicinity": "M52G+W2X, Ghous Nagar Colony, Bokaro Steel City"}, {"business_status": "OPERATIONAL", "geometry": {"location": {"lat": 23.6444275, "lng": 86.1755451}, "viewport": {"northeast": {"lat": 23.6456358302915, "lng": 86.1768721302915}, "southwest": {"lat": 23.6429378697085, "lng": 86.1741741697085}}}, "icon": "https://maps.gstatic.com/mapfiles/place_api/icons/v1/png_71/school-71.png", "icon_background_color": "#7B9EB0", "icon_mask_base_uri": "https://maps.gstatic.com/mapfiles/place_api/icons/v2/school_pinlet", "name": "Allama iqbal high school", "opening_hours": {"open_now": false}, "photos": [{"height": 4160, "html_attributions": ["<a href=\"https://maps.google.com/maps/contrib/110897263356785937919\">Md Perwez Qaisar</a>"], "photo_reference": "Aap_uEAUuN8Vw-9c24TXYBMh-16XAb9vkwVBphbyYJ6l02Dwc6Ub9qUBMCdF6LKmIRgyRokgRqI2xlP6u8X_ImFXa89HXukuBNA4sR57ZKbHzp19_ZOYdYF7G751HfaITkU4HXFUCuy2T4QmawvLfiw8nmPzx7G6LfisN1X8UwtcnN3pdJxX", "width": 3120}], "place_id": "ChIJqTHX-18h9DkRDY_4IpxVvKw", "plus_code": {"compound_code": "J5VG+Q6 Chas, Jharkhand, India", "global_code": "7MM8J5VG+Q6"}, "rating": 4.6, "reference": "ChIJqTHX-18h9DkRDY_4IpxVvKw", "scope": "GOOGLE", "types": ["school", "point_of_interest", "establishment"], "user_ratings_total": 20, "vicinity": "Karbala Road, Sultan Nagar, Chas"}, {"business_status": "CLOSED_TEMPORARILY", "geometry": {"location": {"lat": 23.6415614, "lng": 86.1944809}, "viewport": {"northeast": {"lat": 23.64250898029151, "lng": 86.1957905802915}, "southwest": {"lat": 23.6398110197085, "lng": 86.1930926197085}}}, "icon": "https://maps.gstatic.com/mapfiles/place_api/icons/v1/png_71/school-71.png", "icon_background_color": "#7B9EB0", "icon_mask_base_uri": "https://maps.gstatic.com/mapfiles/place_api/icons/v2/school_pinlet", "name": "Bachpan Play School, Chas", "permanently_closed": true, "place_id": "ChIJPYzCsl8h9DkRUlcqbkBFCsQ", "plus_code": {"compound_code": "J5RV+JQ Bokaro Steel City, Jharkhand, India", "global_code": "7MM8J5RV+JQ"}, "rating": 1, "reference": "ChIJPYzCsl8h9DkRUlcqbkBFCsQ", "scope": "GOOGLE", "types": ["school", "point_of_interest", "establishment"], "user_ratings_total": 1, "vicinity": "Bhardwaj Complex, Telgoria More, Chira Chas Road, Opp, Reliance Tower Road, Bokaro Steel City"}, {"business_status": "OPERATIONAL", "geometry": {"location": {"lat": 23.6446212, "lng": 86.1971904}, "viewport": {"northeast": {"lat": 23.6460169302915, "lng": 86.1983416802915}, "southwest": {"lat": 23.6433189697085, "lng": 86.19564371970849}}}, "icon": "https://maps.gstatic.com/mapfiles/place_api/icons/v1/png_71/school-71.png", "icon_background_color": "#7B9EB0", "icon_mask_base_uri": "https://maps.gstatic.com/mapfiles/place_api/icons/v2/school_pinlet", "name": "Education Center Praveen sharma", "place_id": "ChIJ6_xcN_Yh9DkRJS-l6p5Buf8", "plus_code": {"compound_code": "J5VW+RV Bokaro Steel City, Jharkhand, India", "global_code": "7MM8J5VW+RV"}, "reference": "ChIJ6_xcN_Yh9DkRJS-l6p5Buf8", "scope": "GOOGLE", "types": ["school", "point_of_interest", "establishment"], "vicinity": "bokaro steel city BOKARP, STEEL CITY, Bokaro Steel City"}, {"business_status": "OPERATIONAL", "geometry": {"location": {"lat": 23.6527298, "lng": 86.17439}, "viewport": {"northeast": {"lat": 23.6545721802915, "lng": 86.1758205302915}, "southwest": {"lat": 23.6518742197085, "lng": 86.1731225697085}}}, "icon": "https://maps.gstatic.com/mapfiles/place_api/icons/v1/png_71/school-71.png", "icon_background_color": "#7B9EB0", "icon_mask_base_uri": "https://maps.gstatic.com/mapfiles/place_api/icons/v2/school_pinlet", "name": "Rock Wood Play School", "place_id": "ChIJgx2kh9gj9DkROSNaCFN-44Y", "plus_code": {"compound_code": "M53F+3Q Bokaro Steel City, Jharkhand, India", "global_code": "7MM8M53F+3Q"}, "reference": "ChIJgx2kh9gj9DkROSNaCFN-44Y", "scope": "GOOGLE", "types": ["school", "point_of_interest", "establishment"], "vicinity": "Chira Chas, Bokaro Steel City"}, {"business_status": "OPERATIONAL", "geometry": {"location": {"lat": 23.6536057, "lng": 86.1746174}, "viewport": {"northeast": {"lat": 23.6549664802915, "lng": 86.17591588029151}, "southwest": {"lat": 23.6522685197085, "lng": 86.17321791970849}}}, "icon": "https://maps.gstatic.com/mapfiles/place_api/icons/v1/png_71/school-71.png", "icon_background_color": "#7B9EB0", "icon_mask_base_uri": "https://maps.gstatic.com/mapfiles/place_api/icons/v2/school_pinlet", "name": "Body Era Gym", "opening_hours": {"open_now": true}, "photos": [{"height": 4160, "html_attributions": ["<a href=\"https://maps.google.com/maps/contrib/112471456592911459585\">Amar Ranjan</a>"], "photo_reference": "Aap_uECCJY2knBWwgouGujQQ9O9DTHb9Vq0coiIluWOJpp249oY3inBRPH-NkfmZfqECViIwcWrtnL21gnP3xHfeOfqlWArZxcYK42zXarRD7qr1p7CZwL7jKeCFcjHcsuktqHxfe7AvI37csNLrWh-QHjGRtufnC-lM_9LyI9aHjpgLYmJy", "width": 2340}], "place_id": "ChIJf0Pjz2Uj9DkRHud6wV_O-dI", "rating": 5, "reference": "ChIJf0Pjz2Uj9DkRHud6wV_O-dI", "scope": "GOOGLE", "types": ["school", "point_of_interest", "establishment"], "user_ratings_total": 87, "vicinity": "M53F+CRX, Chira Chas, Bokaro Steel City"}, {"business_status": "OPERATIONAL", "geometry": {"location": {"lat": 23.6425328, "lng": 86.19645729999999}, "viewport": {"northeast": {"lat": 23.6438397302915, "lng": 86.1977951302915}, "southwest": {"lat": 23.64114176970849, "lng": 86.19509716970849}}}, "icon": "https://maps.gstatic.com/mapfiles/place_api/icons/v1/png_71/school-71.png", "icon_background_color": "#7B9EB0", "icon_mask_base_uri": "https://maps.gstatic.com/mapfiles/place_api/icons/v2/school_pinlet", "name": "Man Matha Natha Academy", "place_id": "ChIJbxDhnT8h9DkRvLpEX3IbJJ0", "reference": "ChIJbxDhnT8h9DkRvLpEX3IbJJ0", "scope": "GOOGLE", "types": ["school", "point_of_interest", "establishment"], "vicinity": "J5VW+2H8, Bokaro Steel City"}, {"business_status": "OPERATIONAL", "geometry": {"location": {"lat": 23.6412385, "lng": 86.1763622}, "viewport": {"northeast": {"lat": 23.6426676302915, "lng": 86.17770958029149}, "southwest": {"lat": 23.6399696697085, "lng": 86.17501161970849}}}, "icon": "https://maps.gstatic.com/mapfiles/place_api/icons/v1/png_71/school-71.png", "icon_background_color": "#7B9EB0", "icon_mask_base_uri": "https://maps.gstatic.com/mapfiles/place_api/icons/v2/school_pinlet", "name": "\u0939\u0947\u092a\u094d\u092a\u0940 \u0915\u094d\u0930\u093f\u0936 \u092a\u092c\u094d\u0932\u093f\u0915 \u0938\u094d\u0915\u0942\u0932", "place_id": "ChIJ5apfP84h9DkRpP4xCgG0P34", "plus_code": {"compound_code": "J5RG+FG Bokaro Steel City, Jharkhand, India", "global_code": "7MM8J5RG+FG"}, "reference": "ChIJ5apfP84h9DkRpP4xCgG0P34", "scope": "GOOGLE", "types": ["school", "point_of_interest", "establishment"], "vicinity": "Haji Nagar, Ansari Colony, Bokaro Steel City"}, {"business_status": "OPERATIONAL", "geometry": {"location": {"lat": 23.6454624, "lng": 86.17372019999999}, "viewport": {"northeast": {"lat": 23.6467807302915, "lng": 86.1750616302915}, "southwest": {"lat": 23.6440827697085, "lng": 86.17236366970849}}}, "icon": "https://maps.gstatic.com/mapfiles/place_api/icons/v1/png_71/school-71.png", "icon_background_color": "#7B9EB0", "icon_mask_base_uri": "https://maps.gstatic.com/mapfiles/place_api/icons/v2/school_pinlet", "name": "BLUE BIRD ENGLISH", "place_id": "ChIJ6Qz73N8j9DkRrYq2vQ6Btpk", "plus_code": {"compound_code": "J5WF+5F Chas, Jharkhand, India", "global_code": "7MM8J5WF+5F"}, "reference": "ChIJ6Qz73N8j9DkRrYq2vQ6Btpk", "scope": "GOOGLE", "types": ["school", "point_of_interest", "establishment"], "vicinity": "Sultan Nagar Chas Road, Ansari Colony, Chas"}, {"business_status": "OPERATIONAL", "geometry": {"location": {"lat": 23.6454624, "lng": 86.1737201}, "viewport": {"northeast": {"lat": 23.6467805302915, "lng": 86.1750620302915}, "southwest": {"lat": 23.6440825697085, "lng": 86.1723640697085}}}, "icon": "https://maps.gstatic.com/mapfiles/place_api/icons/v1/png_71/school-71.png", "icon_background_color": "#7B9EB0", "icon_mask_base_uri": "https://maps.gstatic.com/mapfiles/place_api/icons/v2/school_pinlet", "name": "Bokaro Mansoor Home", "opening_hours": {"open_now": true}, "photos": [{"height": 640, "html_attributions": ["<a href=\"https://maps.google.com/maps/contrib/109508682388613872836\">Mdayan Hussain</a>"], "photo_reference": "Aap_uECszOuddKy-ziRumKPRXAeu0ncjowdNRQKJBaGfVZcOuK2J8DAjRXm7jd4c3zt--hqEKhmC8_3Zoo1nNODQc5Jgjk3Ch2GnH_M8QgHxpCzgnM8RxhrVxKvDxiUxZ4jg2zST00LvUVjCc3ets46RD4e0OJkuD6ii6iRfEq5oMQRC6OBu", "width": 640}], "place_id": "ChIJJ9aX3Pgj9DkRBx3MFxQTNQQ", "rating": 3, "reference": "ChIJJ9aX3Pgj9DkRBx3MFxQTNQQ", "scope": "GOOGLE", "types": ["school", "point_of_interest", "establishment"], "user_ratings_total": 1, "vicinity": "J5WF+5FQ, Sultan Nagar, Ansari Colony, Chas"}, {"business_status": "OPERATIONAL", "geometry": {"location": {"lat": 23.638443, "lng": 86.19186239999999}, "viewport": {"northeast": {"lat": 23.6395329302915, "lng": 86.1932221802915}, "southwest": {"lat": 23.6368349697085, "lng": 86.1905242197085}}}, "icon": "https://maps.gstatic.com/mapfiles/place_api/icons/v1/png_71/school-71.png", "icon_background_color": "#7B9EB0", "icon_mask_base_uri": "https://maps.gstatic.com/mapfiles/place_api/icons/v2/school_pinlet", "name": "DPS JUNIOR School", "opening_hours": {"open_now": false}, "photos": [{"height": 2268, "html_attributions": ["<a href=\"https://maps.google.com/maps/contrib/100785923888450773780\">dps junior</a>"], "photo_reference": "Aap_uECjYcxUIiN86hXKMyYVKUFMaKEwedfNAxBKMdXtHHLdZHHkkpgvIgMAK14otbiS2w96YJWWahz6D1k5s-oXAuqFCnDzPEumcGJ1OkP0Ffu4rmriUvCReJ7Z_0wCWDFzMxAPPN5v4ruCr7YrG_VBnRkKAtMqcNqU-O9lcrTz0TqbTQrw", "width": 4032}], "place_id": "ChIJzezEtbsh9DkRcR5BHVxv884", "plus_code": {"compound_code": "J5QR+9P Bokaro Steel City, Jharkhand, India", "global_code": "7MM8J5QR+9P"}, "rating": 3.7, "reference": "ChIJzezEtbsh9DkRcR5BHVxv884", "scope": "GOOGLE", "types": ["school", "point_of_interest", "establishment"], "user_ratings_total": 3, "vicinity": "near pani tanki, Dps junior school Near Solagidih pond Talgaria, near pani tanki, more, Chas, Bokaro Steel City"}, {"business_status": "OPERATIONAL", "geometry": {"location": {"lat": 23.6439655, "lng": 86.19777429999999}, "viewport": {"northeast": {"lat": 23.64527493029151, "lng": 86.19914993029151}, "southwest": {"lat": 23.6425769697085, "lng": 86.19645196970849}}}, "icon": "https://maps.gstatic.com/mapfiles/place_api/icons/v1/png_71/school-71.png", "icon_background_color": "#7B9EB0", "icon_mask_base_uri": "https://maps.gstatic.com/mapfiles/place_api/icons/v2/school_pinlet", "name": "Bright Couching", "place_id": "ChIJMT8miN8h9DkRKgAzmzUJnKg", "reference": "ChIJMT8miN8h9DkRKgAzmzUJnKg", "scope": "GOOGLE", "types": ["school", "point_of_interest", "establishment"], "vicinity": "J5VX+H4J, Bokaro Steel City"}, {"business_status": "OPERATIONAL", "geometry": {"location": {"lat": 23.6594103, "lng": 86.19233779999999}, "viewport": {"northeast": {"lat": 23.6608154802915, "lng": 86.1934096302915}, "southwest": {"lat": 23.65811751970849, "lng": 86.19071166970849}}}, "icon": "https://maps.gstatic.com/mapfiles/place_api/icons/v1/png_71/school-71.png", "icon_background_color": "#7B9EB0", "icon_mask_base_uri": "https://maps.gstatic.com/mapfiles/place_api/icons/v2/school_pinlet", "name": "PS Demudih", "place_id": "ChIJOaYlwIUh9DkRcIEe0V0VuhU", "reference": "ChIJOaYlwIUh9DkRcIEe0V0VuhU", "scope": "GOOGLE", "types": ["school", "point_of_interest", "establishment"], "vicinity": "M55R+QW8, Gandhajore, Bokaro Steel City"}, {"business_status": "OPERATIONAL", "geometry": {"location": {"lat": 23.6499099, "lng": 86.17292359999999}, "viewport": {"northeast": {"lat": 23.6512833802915, "lng": 86.1742718302915}, "southwest": {"lat": 23.64858541970849, "lng": 86.17157386970848}}}, "icon": "https://maps.gstatic.com/mapfiles/place_api/icons/v1/png_71/school-71.png", "icon_background_color": "#7B9EB0", "icon_mask_base_uri": "https://maps.gstatic.com/mapfiles/place_api/icons/v2/school_pinlet", "name": "Daffodil Public School", "place_id": "ChIJv5xwJt8j9DkRG_oGPY7WZ6s", "rating": 3.7, "reference": "ChIJv5xwJt8j9DkRG_oGPY7WZ6s", "scope": "GOOGLE", "types": ["school", "point_of_interest", "establishment"], "user_ratings_total": 6, "vicinity": "J5XF+X57, Ghous Nagar Colony, Bokaro Steel City"}, {"business_status": "OPERATIONAL", "geometry": {"location": {"lat": 23.6570299, "lng": 86.17609259999999}, "viewport": {"northeast": {"lat": 23.6582971302915, "lng": 86.1773854802915}, "southwest": {"lat": 23.6555991697085, "lng": 86.1746875197085}}}, "icon": "https://maps.gstatic.com/mapfiles/place_api/icons/v1/png_71/school-71.png", "icon_background_color": "#7B9EB0", "icon_mask_base_uri": "https://maps.gstatic.com/mapfiles/place_api/icons/v2/school_pinlet", "name": "Government Middle School", "opening_hours": {"open_now": false}, "photos": [{"height": 2322, "html_attributions": ["<a href=\"https://maps.google.com/maps/contrib/104474668582590180149\">Alok Sinha</a>"], "photo_reference": "Aap_uEBx5UoOUluAwyHkR3IaX31pDQLiLwNBmq6_wGQ3isYpGeLyntiUiera4WGq9RdVZcUH6OimGqz5AqptrSc37lCNIADYEd-hdhG1ujaW7oROrk3q6wSkBlOaPcfm71rtgjitSyD9rLBVQwI8gmRJH1BZkYeRAjbxT20ku3XVOKrOKtRh", "width": 4128}], "place_id": "ChIJOSZ7TH0h9DkRoesNqMze3dU", "rating": 5, "reference": "ChIJOSZ7TH0h9DkRoesNqMze3dU", "scope": "GOOGLE", "types": ["secondary_school", "school", "point_of_interest", "establishment"], "user_ratings_total": 2, "vicinity": "M54G+RC8, Chira Chas, Bokaro Steel City"}, {"business_status": "OPERATIONAL", "geometry": {"location": {"lat": 23.650044, "lng": 86.172814}, "viewport": {"northeast": {"lat": 23.6513448802915, "lng": 86.1741643302915}, "southwest": {"lat": 23.6486469197085, "lng": 86.1714663697085}}}, "icon": "https://maps.gstatic.com/mapfiles/place_api/icons/v1/png_71/school-71.png", "icon_background_color": "#7B9EB0", "icon_mask_base_uri": "https://maps.gstatic.com/mapfiles/place_api/icons/v2/school_pinlet", "name": "Rosewood Public School", "photos": [{"height": 3024, "html_attributions": ["<a href=\"https://maps.google.com/maps/contrib/109602183711848592871\">Ariana Nailha</a>"], "photo_reference": "Aap_uEBehaNtmcO2CwZhBx0Y2A9s4D_SBCH4nnourhw6QmfPc08Aa_I_4Y4p_3xHZEKF4twPtJBPyqkc8HtQTDEjFlS5Tp3Ve_aTSX6yHUyIKN2ycmR9u1rqCTkMMvBdUvot3xNJU7FPhlVJgxEcEQFWZX-rBALOwVkJ4sYVEoXI9jWr4x0G", "width": 4032}], "place_id": "ChIJN4_S8Vwj9DkRAGmRCIEk99w", "rating": 5, "reference": "ChIJN4_S8Vwj9DkRAGmRCIEk99w", "scope": "GOOGLE", "types": ["school", "point_of_interest", "establishment"], "user_ratings_total": 9, "vicinity": "M52F+248, Ghous Nagar Colony, Bokaro Steel City"}, {"business_status": "OPERATIONAL", "geometry": {"location": {"lat": 23.6427596, "lng": 86.1744713}, "viewport": {"northeast": {"lat": 23.6441297802915, "lng": 86.1758169802915}, "southwest": {"lat": 23.64143181970849, "lng": 86.17311901970848}}}, "icon": "https://maps.gstatic.com/mapfiles/place_api/icons/v1/png_71/school-71.png", "icon_background_color": "#7B9EB0", "icon_mask_base_uri": "https://maps.gstatic.com/mapfiles/place_api/icons/v2/school_pinlet", "name": "Md rashid alam", "place_id": "ChIJIUCOjTcj9DkRrnewNIO6GbY", "plus_code": {"compound_code": "J5VF+4Q Chas, Jharkhand, India", "global_code": "7MM8J5VF+4Q"}, "reference": "ChIJIUCOjTcj9DkRrnewNIO6GbY", "scope": "GOOGLE", "types": ["school", "point_of_interest", "establishment"], "vicinity": "Ansar Nagar, Ansari Colony, Chas"}, {"business_status": "OPERATIONAL", "geometry": {"location": {"lat": 23.646112, "lng": 86.1729659}, "viewport": {"northeast": {"lat": 23.6474643802915, "lng": 86.1742930802915}, "southwest": {"lat": 23.6447664197085, "lng": 86.1715951197085}}}, "icon": "https://maps.gstatic.com/mapfiles/place_api/icons/v1/png_71/school-71.png", "icon_background_color": "#7B9EB0", "icon_mask_base_uri": "https://maps.gstatic.com/mapfiles/place_api/icons/v2/school_pinlet", "name": "Foundation Acadamy", "opening_hours": {"open_now": false}, "place_id": "ChIJl4N9yd8j9DkRz-rH5t2L1RQ", "plus_code": {"compound_code": "J5WF+C5 Bokaro Steel City, Jharkhand, India", "global_code": "7MM8J5WF+C5"}, "reference": "ChIJl4N9yd8j9DkRz-rH5t2L1RQ", "scope": "GOOGLE", "types": ["school", "point_of_interest", "establishment"], "vicinity": "Unnamed Road, Chas, Ansari Colony, Bokaro Steel City"}], "status": "OK"}