{"html_attributions": [], "results": [{"business_status": "OPERATIONAL", "geometry": {"location": {"lat": 23.7878817, "lng": 86.1843629}, "viewport": {"northeast": {"lat": 23.7892410302915, "lng": 86.1857468302915}, "southwest": {"lat": 23.7865430697085, "lng": 86.18304886970849}}}, "icon": "https://maps.gstatic.com/mapfiles/place_api/icons/v1/png_71/school-71.png", "icon_background_color": "#7B9EB0", "icon_mask_base_uri": "https://maps.gstatic.com/mapfiles/place_api/icons/v2/school_pinlet", "name": "kuldip Raj", "opening_hours": {"open_now": false}, "place_id": "ChIJrXaD4bce9DkRfpDqngHnAtk", "plus_code": {"compound_code": "Q5QM+5P Damchalkaro, Jharkhand, India", "global_code": "7MM8Q5QM+5P"}, "reference": "ChIJrXaD4bce9DkRfpDqngHnAtk", "scope": "GOOGLE", "types": ["school", "point_of_interest", "establishment"], "vicinity": "Kali mandir, Lal Bangla Colony Road, Damchalkaro"}, {"business_status": "OPERATIONAL", "geometry": {"location": {"lat": 23.7888959, "lng": 86.1836766}, "viewport": {"northeast": {"lat": 23.7901394802915, "lng": 86.1850594802915}, "southwest": {"lat": 23.7874415197085, "lng": 86.1823615197085}}}, "icon": "https://maps.gstatic.com/mapfiles/place_api/icons/v1/png_71/school-71.png", "icon_background_color": "#7B9EB0", "icon_mask_base_uri": "https://maps.gstatic.com/mapfiles/place_api/icons/v2/school_pinlet", "name": "Shishu Shanti Niketan School,", "place_id": "ChIJuXqVxrce9DkR7XbHIkYerPA", "plus_code": {"compound_code": "Q5QM+HF Damchalkaro, Jharkhand, India", "global_code": "7MM8Q5QM+HF"}, "reference": "ChIJuXqVxrce9DkR7XbHIkYerPA", "scope": "GOOGLE", "types": ["school", "point_of_interest", "establishment"], "vicinity": "Lal Bangla Colony Road, Damchalkaro"}, {"business_status": "OPERATIONAL", "geometry": {"location": {"lat": 23.7837138, "lng": 86.1866404}, "viewport": {"northeast": {"lat": 23.78506868029151, "lng": 86.1879555802915}, "southwest": {"lat": 23.7823707197085, "lng": 86.1852576197085}}}, "icon": "https://maps.gstatic.com/mapfiles/place_api/icons/v1/png_71/school-71.png", "icon_background_color": "#7B9EB0", "icon_mask_base_uri": "https://maps.gstatic.com/mapfiles/place_api/icons/v2/school_pinlet", "name": "High School Matigarh", "photos": [{"height": 2250, "html_attributions": ["<a href=\"https://maps.google.com/maps/contrib/106203791868190772560\">arjun prasad</a>"], "photo_reference": "Aap_uEC0dcN6cUtICTrmpRkG2VQQUEychdW-ZDouri5AmcOFTjOfJ1dadk5uWQmgYiffV_9xf7ywz6PhaAkjz1xBLbiAGW2iyYE3wLqOEibNC12aWTRUKSZj-ZPMDgns9DC-S92hKoN_wyF0KaXEhtqnp5EOtNsPThUtiFlAoJKrQ4pZKAsk", "width": 4000}], "place_id": "ChIJ03tsFAYf9DkRvuQk-wTVcUU", "plus_code": {"compound_code": "Q5MP+FM Matigara, Jharkhand, India", "global_code": "7MM8Q5MP+FM"}, "rating": 1, "reference": "ChIJ03tsFAYf9DkRvuQk-wTVcUU", "scope": "GOOGLE", "types": ["school", "point_of_interest", "establishment"], "user_ratings_total": 1, "vicinity": "Unnamed Road, Matigara"}, {"business_status": "OPERATIONAL", "geometry": {"location": {"lat": 23.7833715, "lng": 86.18627190000001}, "viewport": {"northeast": {"lat": 23.7846726302915, "lng": 86.18769338029152}, "southwest": {"lat": 23.78197466970849, "lng": 86.1849954197085}}}, "icon": "https://maps.gstatic.com/mapfiles/place_api/icons/v1/png_71/school-71.png", "icon_background_color": "#7B9EB0", "icon_mask_base_uri": "https://maps.gstatic.com/mapfiles/place_api/icons/v2/school_pinlet", "name": "Middle School", "place_id": "ChIJecmCSkMf9DkRAS346uSz8g4", "reference": "ChIJecmCSkMf9DkRAS346uSz8g4", "scope": "GOOGLE", "types": ["school", "point_of_interest", "establishment"], "vicinity": "Q5MP+8GR, Matigara"}, {"business_status": "OPERATIONAL", "geometry": {"location": {"lat": 23.7944015, "lng": 86.191673}, "viewport": {"northeast": {"lat": 23.7958511802915, "lng": 86.1930052802915}, "southwest": {"lat": 23.7931532197085, "lng": 86.1903073197085}}}, "icon": "https://maps.gstatic.com/mapfiles/place_api/icons/v1/png_71/school-71.png", "icon_background_color": "#7B9EB0", "icon_mask_base_uri": "https://maps.gstatic.com/mapfiles/place_api/icons/v2/school_pinlet", "name": "GYAN JYOTI PUBLIC SCHOOL", "place_id": "ChIJ-QZ9GLwe9DkRNT7fnZqg_NA", "reference": "ChIJ-QZ9GLwe9DkRNT7fnZqg_NA", "scope": "GOOGLE", "types": ["school", "point_of_interest", "establishment"], "vicinity": "Q5VR+QM7, Bhimkanari"}, {"business_status": "OPERATIONAL", "geometry": {"location": {"lat": 23.7826164, "lng": 86.1788918}, "viewport": {"northeast": {"lat": 23.7839134302915, "lng": 86.18024238029152}, "southwest": {"lat": 23.7812154697085, "lng": 86.17754441970851}}}, "icon": "https://maps.gstatic.com/mapfiles/place_api/icons/v1/png_71/school-71.png", "icon_background_color": "#7B9EB0", "icon_mask_base_uri": "https://maps.gstatic.com/mapfiles/place_api/icons/v2/school_pinlet", "name": "Aanand Marga Aasram", "place_id": "ChIJn1MXk8se9DkRJSx3UkmetLY", "reference": "ChIJn1MXk8se9DkRJSx3UkmetLY", "scope": "GOOGLE", "types": ["school", "point_of_interest", "establishment"], "vicinity": "Q5MH+2HR, Matigara"}, {"business_status": "OPERATIONAL", "geometry": {"location": {"lat": 23.7812464, "lng": 86.1795128}, "viewport": {"northeast": {"lat": 23.7827164302915, "lng": 86.1807672802915}, "southwest": {"lat": 23.7800184697085, "lng": 86.1780693197085}}}, "icon": "https://maps.gstatic.com/mapfiles/place_api/icons/v1/png_71/school-71.png", "icon_background_color": "#7B9EB0", "icon_mask_base_uri": "https://maps.gstatic.com/mapfiles/place_api/icons/v2/school_pinlet", "name": "Nehru Academy Girls School", "photos": [{"height": 2160, "html_attributions": ["<a href=\"https://maps.google.com/maps/contrib/102619004819703045296\">Md Junaid Akhter</a>"], "photo_reference": "Aap_uEAxXbaj3rD6sBneCKCIqVh4o_YaDzA4ZKEyvP7B1Zh3hESncmhv7LCgouHycm1bZha_4bOJXoLDeA5LAKxU9sl8mOs1SdhtDVLBmWmHrH4hPLNytWo-UtmzTWJDlsWvECpJXc9MSz5P5xZo-2ulR9tLxbtuC6MCdTdvi-qoCAlb4tKc", "width": 3840}], "place_id": "ChIJ4WQwD8we9DkRV1OMl3_NzZE", "plus_code": {"compound_code": "Q5JH+FR Matigara, Jharkhand, India", "global_code": "7MM8Q5JH+FR"}, "rating": 3.3, "reference": "ChIJ4WQwD8we9DkRV1OMl3_NzZE", "scope": "GOOGLE", "types": ["school", "point_of_interest", "establishment"], "user_ratings_total": 3, "vicinity": "matigarh dam colony, main road, Matigara"}, {"business_status": "OPERATIONAL", "geometry": {"location": {"lat": 23.7812781, "lng": 86.1792234}, "viewport": {"northeast": {"lat": 23.7826792802915, "lng": 86.1805360802915}, "southwest": {"lat": 23.7799813197085, "lng": 86.1778381197085}}}, "icon": "https://maps.gstatic.com/mapfiles/place_api/icons/v1/png_71/school-71.png", "icon_background_color": "#7B9EB0", "icon_mask_base_uri": "https://maps.gstatic.com/mapfiles/place_api/icons/v2/school_pinlet", "name": "GURUKULAM SCHOOL", "opening_hours": {"open_now": false}, "photos": [{"height": 3120, "html_attributions": ["<a href=\"https://maps.google.com/maps/contrib/112256154432474650850\">Lalan Pandey Roll. 93</a>"], "photo_reference": "Aap_uEDhulklQTH9ZdO71glmct7L-MA0cAkuH3jfypT_krM9yvUVWxRzk-gsC_K3cU9juq3bIQJU_I4wgup6VrMB4QnYsohO79VtYIgdrkkxiEd8HXMS63Duw70xNqYsLMMReh8gF1Vf0zm0DEY_FixW5uwHSGu5yvq8LY3RNYsuYFgg3axa", "width": 4160}], "place_id": "ChIJI5-KC8we9DkRyVSdQucc0ig", "rating": 4.7, "reference": "ChIJI5-KC8we9DkRyVSdQucc0ig", "scope": "GOOGLE", "types": ["school", "point_of_interest", "establishment"], "user_ratings_total": 3, "vicinity": "Q5JH+GM9, Dam Colony, MATIGARH, Baghmara"}, {"business_status": "OPERATIONAL", "geometry": {"location": {"lat": 23.7823403, "lng": 86.17707159999999}, "viewport": {"northeast": {"lat": 23.7837336302915, "lng": 86.17841138029151}, "southwest": {"lat": 23.78103566970849, "lng": 86.17571341970849}}}, "icon": "https://maps.gstatic.com/mapfiles/place_api/icons/v1/png_71/school-71.png", "icon_background_color": "#7B9EB0", "icon_mask_base_uri": "https://maps.gstatic.com/mapfiles/place_api/icons/v2/school_pinlet", "name": "Shramik Middle School", "photos": [{"height": 2592, "html_attributions": ["<a href=\"https://maps.google.com/maps/contrib/107177665860996120050\">Rabinder Chouhan</a>"], "photo_reference": "Aap_uEDsWtWfcSkszL95BhMGXgXw5z2RUESdT82BRns09S5RNqL-Xzn6iIdQmGypheLQ7wtKRyr0fa3bnynHZK28c4vWbqBXYTVQbgAGVCGIX8t01y4ICu7MxrIZnp8dC-XKG46szMlmfHkUrnRHnNxJXb-icKNg0_fKphKAP0-089n_IflX", "width": 1944}], "place_id": "ChIJp-WgZsse9DkRMfMp-R4hsMM", "rating": 2.7, "reference": "ChIJp-WgZsse9DkRMfMp-R4hsMM", "scope": "GOOGLE", "types": ["school", "point_of_interest", "establishment"], "user_ratings_total": 3, "vicinity": "Q5JG+WRP, Matigara"}, {"business_status": "OPERATIONAL", "geometry": {"location": {"lat": 23.7787712, "lng": 86.1828032}, "viewport": {"northeast": {"lat": 23.7801040802915, "lng": 86.1841245302915}, "southwest": {"lat": 23.77740611970849, "lng": 86.18142656970848}}}, "icon": "https://maps.gstatic.com/mapfiles/place_api/icons/v1/png_71/school-71.png", "icon_background_color": "#7B9EB0", "icon_mask_base_uri": "https://maps.gstatic.com/mapfiles/place_api/icons/v2/school_pinlet", "name": "Pari Computer Center", "place_id": "ChIJ3-b__84e9DkRAAAA0NHoAXc", "reference": "ChIJ3-b__84e9DkRAAAA0NHoAXc", "scope": "GOOGLE", "types": ["school", "point_of_interest", "establishment"], "vicinity": "Q5HM+G43, Matigara"}, {"business_status": "OPERATIONAL", "geometry": {"location": {"lat": 23.7964617, "lng": 86.177719}, "viewport": {"northeast": {"lat": 23.7978126302915, "lng": 86.17907658029151}, "southwest": {"lat": 23.7951146697085, "lng": 86.1763786197085}}}, "icon": "https://maps.gstatic.com/mapfiles/place_api/icons/v1/png_71/school-71.png", "icon_background_color": "#7B9EB0", "icon_mask_base_uri": "https://maps.gstatic.com/mapfiles/place_api/icons/v2/school_pinlet", "name": "Baghmara High School", "place_id": "ChIJVVVVVbIe9DkRJ3BTNK2pTC4", "plus_code": {"compound_code": "Q5WH+H3 Khanudih, Jharkhand, India", "global_code": "7MM8Q5WH+H3"}, "reference": "ChIJVVVVVbIe9DkRJ3BTNK2pTC4", "scope": "GOOGLE", "types": ["school", "point_of_interest", "establishment"], "vicinity": "Dhanbad"}, {"business_status": "OPERATIONAL", "geometry": {"location": {"lat": 23.7803135, "lng": 86.1781195}, "viewport": {"northeast": {"lat": 23.7816880302915, "lng": 86.1795264302915}, "southwest": {"lat": 23.7789900697085, "lng": 86.17682846970848}}}, "icon": "https://maps.gstatic.com/mapfiles/place_api/icons/v1/png_71/school-71.png", "icon_background_color": "#7B9EB0", "icon_mask_base_uri": "https://maps.gstatic.com/mapfiles/place_api/icons/v2/school_pinlet", "name": "ADARSH SHISHU MANDIR DAM", "photos": [{"height": 3096, "html_attributions": ["<a href=\"https://maps.google.com/maps/contrib/107473013842396043209\">mahendra CHauhan</a>"], "photo_reference": "Aap_uEAO7u4S_lZMXI8M_AJDpFY6DsC3CAw96UhNit2m_qS6VtWvxKn2F62ePGJn3IoVB2ygn3tifL1ORjDeQJ9alE9fpS-FtBzT-_3VlXu12NB4n8_lADgu8m4UmB4Od18q4gd7XJNOepcfLMMmgZ-UIFNZ8FGOGMPcwsmpy-8v0YgzNgs5", "width": 4128}], "place_id": "ChIJm-Mkeu4f9DkRM0gbNQNPWXQ", "rating": 5, "reference": "ChIJm-Mkeu4f9DkRM0gbNQNPWXQ", "scope": "GOOGLE", "types": ["school", "point_of_interest", "establishment"], "user_ratings_total": 3, "vicinity": "Q5JH+46H, Matigara"}, {"business_status": "OPERATIONAL", "geometry": {"location": {"lat": 23.7948626, "lng": 86.175122}, "viewport": {"northeast": {"lat": 23.7960126802915, "lng": 86.17650983029151}, "southwest": {"lat": 23.7933147197085, "lng": 86.17381186970849}}}, "icon": "https://maps.gstatic.com/mapfiles/place_api/icons/v1/png_71/school-71.png", "icon_background_color": "#7B9EB0", "icon_mask_base_uri": "https://maps.gstatic.com/mapfiles/place_api/icons/v2/school_pinlet", "name": "Upgraded Middle School", "opening_hours": {"open_now": false}, "place_id": "ChIJL4qZJ5gZ9DkREZ2LRopqj4k", "plus_code": {"compound_code": "Q5VG+W2 Khanudih, Jharkhand, India", "global_code": "7MM8Q5VG+W2"}, "reference": "ChIJL4qZJ5gZ9DkREZ2LRopqj4k", "scope": "GOOGLE", "types": ["school", "point_of_interest", "establishment"], "vicinity": "Unnamed Road, Khanudih"}], "status": "OK"}