{"html_attributions": [], "results": [{"business_status": "OPERATIONAL", "geometry": {"location": {"lat": 23.8870172, "lng": 86.22034359999999}, "viewport": {"northeast": {"lat": 23.8884218302915, "lng": 86.2216123302915}, "southwest": {"lat": 23.8857238697085, "lng": 86.21891436970849}}}, "icon": "https://maps.gstatic.com/mapfiles/place_api/icons/v1/png_71/school-71.png", "icon_background_color": "#7B9EB0", "icon_mask_base_uri": "https://maps.gstatic.com/mapfiles/place_api/icons/v2/school_pinlet", "name": "U. G. M. S Tantri(Topchanchi)", "photos": [{"height": 2340, "html_attributions": ["<a href=\"https://maps.google.com/maps/contrib/105673187300826467932\">Chandrashekhar chaturvedi</a>"], "photo_reference": "Aap_uECKkvTSaEUGZsH8RJ6Z3qniBtdMqVrGjVmxk3C9Eys5epdKo5JDanBFgQrBuQhtkHQDDC5FFi0SnjxitNYvumGIp2mhR-p4mBNXbtUsxRXcW-O9kPyAorxsRDfY2mSSZLA6emeDmDYJgFQSXVyAgJJxzva9uMhOzY2ThrqzjrhDwd2S", "width": 4160}], "place_id": "ChIJ1zAbeiEd9DkRASOoJsbcRhM", "rating": 4.5, "reference": "ChIJ1zAbeiEd9DkRASOoJsbcRhM", "scope": "GOOGLE", "types": ["school", "point_of_interest", "establishment"], "user_ratings_total": 4, "vicinity": "V6PC+R44, Tantri"}, {"business_status": "OPERATIONAL", "geometry": {"location": {"lat": 23.8945041, "lng": 86.2251405}, "viewport": {"northeast": {"lat": 23.8958657302915, "lng": 86.2264644302915}, "southwest": {"lat": 23.8931677697085, "lng": 86.2237664697085}}}, "icon": "https://maps.gstatic.com/mapfiles/place_api/icons/v1/png_71/school-71.png", "icon_background_color": "#7B9EB0", "icon_mask_base_uri": "https://maps.gstatic.com/mapfiles/place_api/icons/v2/school_pinlet", "name": "JHARKHAND SEWA AASRAM SAHUBAHIYAR", "photos": [{"height": 4160, "html_attributions": ["<a href=\"https://maps.google.com/maps/contrib/105673187300826467932\">Chandrashekhar chaturvedi</a>"], "photo_reference": "Aap_uEDHaLcF1GAFhaGZcDpkEpTaUUDQbk566iVQwF3yBthVmAUK2rNASmqjBavXRCxr500zNvcQ-Eo3_TbmPH1Zo-GkccPMMkLj3q7nxk5Vy0znIKzI4MrGN4WrZuuUIz3mKBBykdSqqnEJKslq54QYvi4c0GBizUVjShjCuxdiimAqdqdL", "width": 2340}], "place_id": "ChIJj36fRiUd9DkR-WI0a5CFoUg", "rating": 1, "reference": "ChIJj36fRiUd9DkR-WI0a5CFoUg", "scope": "GOOGLE", "types": ["school", "point_of_interest", "establishment"], "user_ratings_total": 1, "vicinity": "V6VG+R32, Sahubahiar"}, {"business_status": "OPERATIONAL", "geometry": {"location": {"lat": 23.8880354, "lng": 86.2171401}, "viewport": {"northeast": {"lat": 23.8893681802915, "lng": 86.21848208029151}, "southwest": {"lat": 23.8866702197085, "lng": 86.2157841197085}}}, "icon": "https://maps.gstatic.com/mapfiles/place_api/icons/v1/png_71/school-71.png", "icon_background_color": "#7B9EB0", "icon_mask_base_uri": "https://maps.gstatic.com/mapfiles/place_api/icons/v2/school_pinlet", "name": "GIRLS MS TANTRI", "photos": [{"height": 2448, "html_attributions": ["<a href=\"https://maps.google.com/maps/contrib/102388965946165082688\">Kuldeep Singh</a>"], "photo_reference": "Aap_uECkGH5-YeiHYiYTBRovC1P_biCKg6uSljiZsRI2VO4SLMq32dMGPkojkdcTnFZBBMMGocY8Ofu4Mg-ONUuwjIdOgNsFTg766Vb57jKPT_0-niiAsbyqhykvW6Zcws0VeXGVDjJPMrsOwGrxL-cuYvwpbeNT2OZA9Nd7mMltQEBbOLq-", "width": 3264}], "place_id": "ChIJU1VVlSAd9DkRsbbGikcdFxE", "rating": 4, "reference": "ChIJU1VVlSAd9DkRsbbGikcdFxE", "scope": "GOOGLE", "types": ["school", "point_of_interest", "establishment"], "user_ratings_total": 2, "vicinity": "V6Q8+6V6, Tantri"}, {"business_status": "OPERATIONAL", "geometry": {"location": {"lat": 23.8880354, "lng": 86.2171401}, "viewport": {"northeast": {"lat": 23.8893681802915, "lng": 86.21848208029151}, "southwest": {"lat": 23.8866702197085, "lng": 86.2157841197085}}}, "icon": "https://maps.gstatic.com/mapfiles/place_api/icons/v1/png_71/school-71.png", "icon_background_color": "#7B9EB0", "icon_mask_base_uri": "https://maps.gstatic.com/mapfiles/place_api/icons/v2/school_pinlet", "name": "NPS VISHNU MANDIR, TANTRI", "photos": [{"height": 2448, "html_attributions": ["<a href=\"https://maps.google.com/maps/contrib/102388965946165082688\">Kuldeep Singh</a>"], "photo_reference": "Aap_uEAbUEz7k8tkZlFDbpnzX8IrDwAqn0pbalhgjXDEVwhjT8DxTLIzZ4GrUHiLq5foJ4h5eXZ-rY0ET-kz2xOrtV8QWpY45feHYeenIxHK3fsNhSR87v9rR1G7IqFxp_2cVbJwDmhQWp4mYYLXsSKsP4UMNh3XZs6RSV1m4wZk7nSJ3tct", "width": 3264}], "place_id": "ChIJU1VVlSAd9DkRPdqlQHbckR4", "reference": "ChIJU1VVlSAd9DkRPdqlQHbckR4", "scope": "GOOGLE", "types": ["school", "point_of_interest", "establishment"], "vicinity": "V6Q8+6V6, Tantri"}, {"business_status": "OPERATIONAL", "geometry": {"location": {"lat": 23.8973182, "lng": 86.22612889999999}, "viewport": {"northeast": {"lat": 23.8987681802915, "lng": 86.22750508029151}, "southwest": {"lat": 23.89607021970849, "lng": 86.2248071197085}}}, "icon": "https://maps.gstatic.com/mapfiles/place_api/icons/v1/png_71/school-71.png", "icon_background_color": "#7B9EB0", "icon_mask_base_uri": "https://maps.gstatic.com/mapfiles/place_api/icons/v2/school_pinlet", "name": "Jharkhand public High School", "place_id": "ChIJXTxYIDAd9DkR6MxfH3F__zw", "rating": 5, "reference": "ChIJXTxYIDAd9DkR6MxfH3F__zw", "scope": "GOOGLE", "types": ["school", "point_of_interest", "establishment"], "user_ratings_total": 1, "vicinity": "V6WG+WFC, Sahubahiar"}, {"business_status": "OPERATIONAL", "geometry": {"location": {"lat": 23.8973755, "lng": 86.22598239999999}, "viewport": {"northeast": {"lat": 23.8988140302915, "lng": 86.22735548029151}, "southwest": {"lat": 23.8961160697085, "lng": 86.2246575197085}}}, "icon": "https://maps.gstatic.com/mapfiles/place_api/icons/v1/png_71/school-71.png", "icon_background_color": "#7B9EB0", "icon_mask_base_uri": "https://maps.gstatic.com/mapfiles/place_api/icons/v2/school_pinlet", "name": "Jharkhand Vidya Aashram", "place_id": "ChIJQRxl3y8d9DkRPd8CKKjuh68", "plus_code": {"compound_code": "V6WG+X9 Sahubahiar, Jharkhand, India", "global_code": "7MM8V6WG+X9"}, "reference": "ChIJQRxl3y8d9DkRPd8CKKjuh68", "scope": "GOOGLE", "types": ["school", "point_of_interest", "establishment"], "vicinity": "Sahubahiar"}, {"business_status": "OPERATIONAL", "geometry": {"location": {"lat": 23.8975432, "lng": 86.22489540000001}, "viewport": {"northeast": {"lat": 23.8988921802915, "lng": 86.22624813029151}, "southwest": {"lat": 23.8961942197085, "lng": 86.2235501697085}}}, "icon": "https://maps.gstatic.com/mapfiles/place_api/icons/v1/png_71/school-71.png", "icon_background_color": "#7B9EB0", "icon_mask_base_uri": "https://maps.gstatic.com/mapfiles/place_api/icons/v2/school_pinlet", "name": "Madhya Vidyalaya Sahobahiyar", "place_id": "ChIJHxQnxy8d9DkRXFqRdPTA2YY", "rating": 5, "reference": "ChIJHxQnxy8d9DkRXFqRdPTA2YY", "scope": "GOOGLE", "types": ["school", "point_of_interest", "establishment"], "user_ratings_total": 1, "vicinity": "V6XF+2X6, Sahubahiar"}, {"business_status": "OPERATIONAL", "geometry": {"location": {"lat": 23.8816264, "lng": 86.2199377}, "viewport": {"northeast": {"lat": 23.8829124302915, "lng": 86.2212918302915}, "southwest": {"lat": 23.8802144697085, "lng": 86.2185938697085}}}, "icon": "https://maps.gstatic.com/mapfiles/place_api/icons/v1/png_71/school-71.png", "icon_background_color": "#7B9EB0", "icon_mask_base_uri": "https://maps.gstatic.com/mapfiles/place_api/icons/v2/school_pinlet", "name": "MIDDLE SCHOOL CHIRUDIH", "opening_hours": {"open_now": false}, "photos": [{"height": 3120, "html_attributions": ["<a href=\"https://maps.google.com/maps/contrib/102816031808864372737\">Bharat Swabhiman</a>"], "photo_reference": "Aap_uEAH7ndIc__PLUryREERWsfkg9kaeidc_V83k9VvLk3SNI1S1Q0UinASMPP5BvcidX6KkmGLe6sA8O4r4C8Sw5x4-SyMQcgYvE4hHpHq7PekMTN85_Kq1DWOv81sMc-uoKQHS_XkSvptBfgGudvLW8x7Fr1NeXIbzMJMp9Vwge6uTZ-x", "width": 4160}], "place_id": "ChIJEU5lPB8d9DkRf9nrdYY4sFs", "rating": 3.2, "reference": "ChIJEU5lPB8d9DkRf9nrdYY4sFs", "scope": "GOOGLE", "types": ["school", "point_of_interest", "establishment"], "user_ratings_total": 6, "vicinity": "V6J9+MX4, Bakspura"}, {"business_status": "OPERATIONAL", "geometry": {"location": {"lat": 23.8822849, "lng": 86.2338171}, "viewport": {"northeast": {"lat": 23.8836684302915, "lng": 86.2350731302915}, "southwest": {"lat": 23.8809704697085, "lng": 86.23237516970849}}}, "icon": "https://maps.gstatic.com/mapfiles/place_api/icons/v1/png_71/school-71.png", "icon_background_color": "#7B9EB0", "icon_mask_base_uri": "https://maps.gstatic.com/mapfiles/place_api/icons/v2/school_pinlet", "name": "Primary School Chinpun", "photos": [{"height": 1080, "html_attributions": ["<a href=\"https://maps.google.com/maps/contrib/102749290873281548174\">NAWEEN MAHTO</a>"], "photo_reference": "Aap_uECp67CFGzqhq9OOuh-z6MkUHnZj7xrhjGf4bMH3xrwff6MMyl2cVjus239JW9qL_XogABV4h7WfsaePIdlszz9Z-lOfPXIR6CrYM9dz8w8cH8Gm6csyK6XJRLyxufQndQe9kzz0GMjeCo0l8YQ5vkZaMzx8nPq447gYTYQULe4ttsCc", "width": 1920}], "place_id": "ChIJ7TRqdZkd9DkReO7o7pHbNd0", "plus_code": {"compound_code": "V6JM+WG Chinpur, Jharkhand, India", "global_code": "7MM8V6JM+WG"}, "rating": 4.9, "reference": "ChIJ7TRqdZkd9DkReO7o7pHbNd0", "scope": "GOOGLE", "types": ["school", "point_of_interest", "establishment"], "user_ratings_total": 9, "vicinity": "Chinpur"}, {"business_status": "OPERATIONAL", "geometry": {"location": {"lat": 23.899227, "lng": 86.22085899999999}, "viewport": {"northeast": {"lat": 23.90040903029151, "lng": 86.2221605802915}, "southwest": {"lat": 23.8977110697085, "lng": 86.2194626197085}}}, "icon": "https://maps.gstatic.com/mapfiles/place_api/icons/v1/png_71/school-71.png", "icon_background_color": "#7B9EB0", "icon_mask_base_uri": "https://maps.gstatic.com/mapfiles/place_api/icons/v2/school_pinlet", "name": "ST THOMAS HIGH SCHOOL", "opening_hours": {"open_now": false}, "photos": [{"height": 720, "html_attributions": ["<a href=\"https://maps.google.com/maps/contrib/104795267749081643341\">Viru Updates</a>"], "photo_reference": "Aap_uEA8tklmSYquylzhh7QXWX6s3c-JsM52HUy4ZyQQHz9Nn7CvsjKnswR22sWWLH80epmhs96EanvT0aG2A4yr70z9V8_se_8Ra2IeagNB52nAulzUHSQFxRNwDUt-YXd0PWN5Gs-_zuKeyFSVi7cHJg5wFbrhNSTeqsdHQQcN7ENysiF6", "width": 1280}], "place_id": "ChIJY6n9LSkd9DkR3xNqnciv7k4", "plus_code": {"compound_code": "V6XC+M8 Sahubahiar, Jharkhand, India", "global_code": "7MM8V6XC+M8"}, "rating": 3.5, "reference": "ChIJY6n9LSkd9DkR3xNqnciv7k4", "scope": "GOOGLE", "types": ["school", "point_of_interest", "establishment"], "user_ratings_total": 89, "vicinity": "NH-2, SAHUBAHIYAR, TOPCHANCHI, DHANBAD"}, {"business_status": "OPERATIONAL", "geometry": {"location": {"lat": 23.8976906, "lng": 86.234425}, "viewport": {"northeast": {"lat": 23.8990951302915, "lng": 86.23584568029152}, "southwest": {"lat": 23.8963971697085, "lng": 86.2331477197085}}}, "icon": "https://maps.gstatic.com/mapfiles/place_api/icons/v1/png_71/school-71.png", "icon_background_color": "#7B9EB0", "icon_mask_base_uri": "https://maps.gstatic.com/mapfiles/place_api/icons/v2/school_pinlet", "name": "Education hub", "opening_hours": {"open_now": false}, "place_id": "ChIJo-K3OvQd9DkRYef3oEyzWjw", "rating": 5, "reference": "ChIJo-K3OvQd9DkRYef3oEyzWjw", "scope": "GOOGLE", "types": ["school", "point_of_interest", "establishment"], "user_ratings_total": 1, "vicinity": "V6XM+3QF, Madaidih"}, {"business_status": "OPERATIONAL", "geometry": {"location": {"lat": 23.900335, "lng": 86.2214304}, "viewport": {"northeast": {"lat": 23.9017543302915, "lng": 86.2231087302915}, "southwest": {"lat": 23.8990563697085, "lng": 86.2204107697085}}}, "icon": "https://maps.gstatic.com/mapfiles/place_api/icons/v1/png_71/school-71.png", "icon_background_color": "#7B9EB0", "icon_mask_base_uri": "https://maps.gstatic.com/mapfiles/place_api/icons/v2/school_pinlet", "name": "B.Ed college", "opening_hours": {"open_now": false}, "place_id": "ChIJAcYuty4d9DkR5Cs_MmUqeno", "rating": 4.8, "reference": "ChIJAcYuty4d9DkR5Cs_MmUqeno", "scope": "GOOGLE", "types": ["school", "point_of_interest", "establishment"], "user_ratings_total": 4, "vicinity": "W62C+4HM, Sahubahiar"}], "status": "OK"}