{"html_attributions": [], "results": [{"business_status": "OPERATIONAL", "geometry": {"location": {"lat": 23.951339, "lng": 86.2285429}, "viewport": {"northeast": {"lat": 23.9527801802915, "lng": 86.2301195802915}, "southwest": {"lat": 23.9500822197085, "lng": 86.2274216197085}}}, "icon": "https://maps.gstatic.com/mapfiles/place_api/icons/v1/png_71/school-71.png", "icon_background_color": "#7B9EB0", "icon_mask_base_uri": "https://maps.gstatic.com/mapfiles/place_api/icons/v2/school_pinlet", "name": "High School Badgaon", "photos": [{"height": 4160, "html_attributions": ["<a href=\"https://maps.google.com/maps/contrib/106891867775826934166\">Mahto ji</a>"], "photo_reference": "Aap_uEB9AiMQbjJ5SbK2aBLs_Pobb4QEwRrKlbt-PYeaSP3noRMA_H9Drz29Bqv1_rEV3Y9HYGjJeqJtF3YZY2U2PBIUn_0iYKUl7uSPgmqSB90ZCmjba0kIwmy31ViKeGuMpa4rFslUsocr_rHb3f02LwqrCjhnTP1qeuqbAl4Cy_itEPPo", "width": 2340}], "place_id": "ChIJ7dzYE9sD9DkRwF03CgDn1kM", "rating": 4, "reference": "ChIJ7dzYE9sD9DkRwF03CgDn1kM", "scope": "GOOGLE", "types": ["school", "point_of_interest", "establishment"], "user_ratings_total": 1, "vicinity": "X62H+GCM, Badgaon"}, {"business_status": "OPERATIONAL", "geometry": {"location": {"lat": 23.9516852, "lng": 86.2285675}, "viewport": {"northeast": {"lat": 23.9530858302915, "lng": 86.22997293029151}, "southwest": {"lat": 23.9503878697085, "lng": 86.22727496970849}}}, "icon": "https://maps.gstatic.com/mapfiles/place_api/icons/v1/png_71/school-71.png", "icon_background_color": "#7B9EB0", "icon_mask_base_uri": "https://maps.gstatic.com/mapfiles/place_api/icons/v2/school_pinlet", "name": "UPG GOVT HS BADGAWAN", "place_id": "ChIJV9cpW3wD9DkRWseQU2TXpHU", "reference": "ChIJV9cpW3wD9DkRWseQU2TXpHU", "scope": "GOOGLE", "types": ["school", "point_of_interest", "establishment"], "vicinity": "X62H+MCG, Badgaon"}, {"business_status": "OPERATIONAL", "geometry": {"location": {"lat": 23.9525236, "lng": 86.22140490000001}, "viewport": {"northeast": {"lat": 23.9538607302915, "lng": 86.22280828029152}, "southwest": {"lat": 23.9511627697085, "lng": 86.2201103197085}}}, "icon": "https://maps.gstatic.com/mapfiles/place_api/icons/v1/png_71/school-71.png", "icon_background_color": "#7B9EB0", "icon_mask_base_uri": "https://maps.gstatic.com/mapfiles/place_api/icons/v2/school_pinlet", "name": "UPG GOVT MS SOHRAIYA", "place_id": "ChIJM7nld7QD9DkRfcPN4Y_9_Cs", "reference": "ChIJM7nld7QD9DkRfcPN4Y_9_Cs", "scope": "GOOGLE", "types": ["school", "point_of_interest", "establishment"], "vicinity": "X63C+2H2, Sohraia"}, {"business_status": "OPERATIONAL", "geometry": {"location": {"lat": 23.95932999999999, "lng": 86.22212809999999}, "viewport": {"northeast": {"lat": 23.9607854802915, "lng": 86.2235144802915}, "southwest": {"lat": 23.9580875197085, "lng": 86.22081651970849}}}, "icon": "https://maps.gstatic.com/mapfiles/place_api/icons/v1/png_71/school-71.png", "icon_background_color": "#7B9EB0", "icon_mask_base_uri": "https://maps.gstatic.com/mapfiles/place_api/icons/v2/school_pinlet", "name": "U.P.S Manjhiyandih", "photos": [{"height": 2048, "html_attributions": ["<a href=\"https://maps.google.com/maps/contrib/115757689729612147900\">Mukteshwar Hansda</a>"], "photo_reference": "Aap_uEB9awa9wQEj7JAfkPmFJfOP8bL3ln0_Djwj8NUBmdYqKoLhUQZ-IMna9dyIulrn93ROtMJ4hbIn_ll4bksaTn1AGB1GNVtBYv1KS7HwbQqV52kBkeexvAZ9fv3ehoVAdpEfF1jhtX0QI3i9VSxjdBbT8TF-D9HkT9KxfyBjP5AdRyO5", "width": 4096}], "place_id": "ChIJvW7C_qMD9DkRTnNB7iWgIFA", "plus_code": {"compound_code": "X65C+PV Majhiandih, Jharkhand, India", "global_code": "7MM8X65C+PV"}, "reference": "ChIJvW7C_qMD9DkRTnNB7iWgIFA", "scope": "GOOGLE", "types": ["school", "point_of_interest", "establishment"], "vicinity": "Majhiandih"}, {"business_status": "OPERATIONAL", "geometry": {"location": {"lat": 23.9486411, "lng": 86.21284829999999}, "viewport": {"northeast": {"lat": 23.9499896802915, "lng": 86.2141952302915}, "southwest": {"lat": 23.9472917197085, "lng": 86.21149726970849}}}, "icon": "https://maps.gstatic.com/mapfiles/place_api/icons/v1/png_71/school-71.png", "icon_background_color": "#7B9EB0", "icon_mask_base_uri": "https://maps.gstatic.com/mapfiles/place_api/icons/v2/school_pinlet", "name": "UPG PS MADHUKATA", "place_id": "ChIJuWS4OgoD9DkR8rY9fdvoz9g", "reference": "ChIJuWS4OgoD9DkR8rY9fdvoz9g", "scope": "GOOGLE", "types": ["school", "point_of_interest", "establishment"], "vicinity": "W6X7+F45, Sohraia"}, {"business_status": "OPERATIONAL", "geometry": {"location": {"lat": 23.9508577, "lng": 86.23958549999999}, "viewport": {"northeast": {"lat": 23.95240058029151, "lng": 86.24288100000001}, "southwest": {"lat": 23.9497026197085, "lng": 86.23848699999999}}}, "icon": "https://maps.gstatic.com/mapfiles/place_api/icons/v1/png_71/school-71.png", "icon_background_color": "#7B9EB0", "icon_mask_base_uri": "https://maps.gstatic.com/mapfiles/place_api/icons/v2/school_pinlet", "name": "\u092c\u094c\u0902\u0917\u093e \u092a\u0939\u093e\u095c\u0940", "place_id": "ChIJa-rrMhgD9DkRiZ1mHR4GLOI", "reference": "ChIJa-rrMhgD9DkRiZ1mHR4GLOI", "scope": "GOOGLE", "types": ["school", "point_of_interest", "establishment"], "vicinity": "X62Q+8RW, \u0917\u092e\u094d\u0939\u0930\u093e"}], "status": "OK"}