{"html_attributions": [], "results": [{"business_status": "OPERATIONAL", "geometry": {"location": {"lat": 23.5308138, "lng": 86.24887319999999}, "viewport": {"northeast": {"lat": 23.5321662802915, "lng": 86.2502364802915}, "southwest": {"lat": 23.5294683197085, "lng": 86.2475385197085}}}, "icon": "https://maps.gstatic.com/mapfiles/place_api/icons/v1/png_71/school-71.png", "icon_background_color": "#7B9EB0", "icon_mask_base_uri": "https://maps.gstatic.com/mapfiles/place_api/icons/v2/school_pinlet", "name": "B M Singh H/s Tupra Dabar", "place_id": "ChIJAQAAAP0n9DkRC0DUqbRXXWk", "plus_code": {"compound_code": "G6JX+8G Tupra, Jharkhand, India", "global_code": "7MM8G6JX+8G"}, "rating": 5, "reference": "ChIJAQAAAP0n9DkRC0DUqbRXXWk", "scope": "GOOGLE", "types": ["secondary_school", "school", "point_of_interest", "establishment"], "user_ratings_total": 1, "vicinity": "B M Singh High School Dabar, Tupra, Tupra"}, {"business_status": "OPERATIONAL", "geometry": {"location": {"lat": 23.5308138, "lng": 86.24887319999999}, "viewport": {"northeast": {"lat": 23.5321662802915, "lng": 86.2502364802915}, "southwest": {"lat": 23.5294683197085, "lng": 86.2475385197085}}}, "icon": "https://maps.gstatic.com/mapfiles/place_api/icons/v1/png_71/school-71.png", "icon_background_color": "#7B9EB0", "icon_mask_base_uri": "https://maps.gstatic.com/mapfiles/place_api/icons/v2/school_pinlet", "name": "Tulsi Das", "place_id": "ChIJAQAAAP0n9DkRcgdeg8X9tKk", "plus_code": {"compound_code": "G6JX+8G Tupra, Jharkhand, India", "global_code": "7MM8G6JX+8G"}, "reference": "ChIJAQAAAP0n9DkRcgdeg8X9tKk", "scope": "GOOGLE", "types": ["school", "point_of_interest", "establishment"], "vicinity": "Tupra"}, {"business_status": "OPERATIONAL", "geometry": {"location": {"lat": 23.5317586, "lng": 86.24171989999999}, "viewport": {"northeast": {"lat": 23.5332809302915, "lng": 86.24306933029149}, "southwest": {"lat": 23.5305829697085, "lng": 86.24037136970848}}}, "icon": "https://maps.gstatic.com/mapfiles/place_api/icons/v1/png_71/school-71.png", "icon_background_color": "#7B9EB0", "icon_mask_base_uri": "https://maps.gstatic.com/mapfiles/place_api/icons/v2/school_pinlet", "name": "Nav Prathamik Vidyalaya, mahatha tola", "opening_hours": {"open_now": false}, "photos": [{"height": 1080, "html_attributions": ["<a href=\"https://maps.google.com/maps/contrib/100373270254362827398\">AJAY MAHATHA</a>"], "photo_reference": "Aap_uEDzpHHMbznGydhoysBuUx5T3PhbZke1MLXXSyCNj9WAJrdMPoUknhs5Wj8nBXOjKRWwqLqtUjddpX-RpgOVtwmvEmUdfS-f6xpV6LIgkT0AA543Awb7aUyJKRJX4m6e3fG_QRObh0M_ZKe6Zf_DCjfZl5kMjUVq6UpdTSPW5fGp-zhP", "width": 810}], "place_id": "ChIJqXl_3OMn9DkR_3MNFIJz1ig", "reference": "ChIJqXl_3OMn9DkR_3MNFIJz1ig", "scope": "GOOGLE", "types": ["school", "point_of_interest", "establishment"], "vicinity": "G6JR+PM5, Tupra"}, {"business_status": "OPERATIONAL", "geometry": {"location": {"lat": 23.5319505, "lng": 86.2415955}, "viewport": {"northeast": {"lat": 23.5333748802915, "lng": 86.2429419802915}, "southwest": {"lat": 23.5306769197085, "lng": 86.2402440197085}}}, "icon": "https://maps.gstatic.com/mapfiles/place_api/icons/v1/png_71/school-71.png", "icon_background_color": "#7B9EB0", "icon_mask_base_uri": "https://maps.gstatic.com/mapfiles/place_api/icons/v2/school_pinlet", "name": "MAHATHA TOLA SCHOOL", "photos": [{"height": 1080, "html_attributions": ["<a href=\"https://maps.google.com/maps/contrib/100373270254362827398\">AJAY MAHATHA</a>"], "photo_reference": "Aap_uEAmQu18KklbXwtMANUrCqjCj8zD4A-c6XNa6e_T_0j1xaDH5DHLbbAMJVKNODsKdD95w88xPmoplOC1PF1RVA5GQYDHiepFnp_heA9jnpyJpzDnX76flbVBFVM6bgyi_IRvLB6pCUpzd633sQCtcIPYwttV8UBkNjvGAY4P2QX4A3fC", "width": 810}], "place_id": "ChIJ5XXT3eMn9DkRMvFOd8WeH2E", "reference": "ChIJ5XXT3eMn9DkRMvFOd8WeH2E", "scope": "GOOGLE", "types": ["school", "point_of_interest", "establishment"], "vicinity": "G6JR+QJQ, Tupra"}, {"business_status": "OPERATIONAL", "geometry": {"location": {"lat": 23.5320565, "lng": 86.2404469}, "viewport": {"northeast": {"lat": 23.5334367302915, "lng": 86.24179153029151}, "southwest": {"lat": 23.5307387697085, "lng": 86.23909356970849}}}, "icon": "https://maps.gstatic.com/mapfiles/place_api/icons/v1/png_71/school-71.png", "icon_background_color": "#7B9EB0", "icon_mask_base_uri": "https://maps.gstatic.com/mapfiles/place_api/icons/v2/school_pinlet", "name": "Primary School Barsabad", "place_id": "ChIJC96WPiAn9DkR6fzRYoDbQQE", "plus_code": {"compound_code": "G6JR+R5 Tupra, Jharkhand, India", "global_code": "7MM8G6JR+R5"}, "reference": "ChIJC96WPiAn9DkR6fzRYoDbQQE", "scope": "GOOGLE", "types": ["school", "point_of_interest", "establishment"], "vicinity": "Alokdih Road, Tupra"}, {"business_status": "OPERATIONAL", "geometry": {"location": {"lat": 23.5320565, "lng": 86.2404469}, "viewport": {"northeast": {"lat": 23.5334369302915, "lng": 86.2417950302915}, "southwest": {"lat": 23.5307389697085, "lng": 86.23909706970849}}}, "icon": "https://maps.gstatic.com/mapfiles/place_api/icons/v1/png_71/school-71.png", "icon_background_color": "#7B9EB0", "icon_mask_base_uri": "https://maps.gstatic.com/mapfiles/place_api/icons/v2/school_pinlet", "name": "Satayjeet Sardar", "place_id": "ChIJnYI3f8Yn9DkRnhguiyeThrk", "plus_code": {"compound_code": "G6JR+R5 Tupra, Jharkhand, India", "global_code": "7MM8G6JR+R5"}, "reference": "ChIJnYI3f8Yn9DkRnhguiyeThrk", "scope": "GOOGLE", "types": ["school", "point_of_interest", "establishment"], "vicinity": "Alokdih Road, Tupra"}, {"business_status": "OPERATIONAL", "geometry": {"location": {"lat": 23.5264283, "lng": 86.238918}, "viewport": {"northeast": {"lat": 23.5277796802915, "lng": 86.2401767302915}, "southwest": {"lat": 23.5250817197085, "lng": 86.23747876970849}}}, "icon": "https://maps.gstatic.com/mapfiles/place_api/icons/v1/png_71/school-71.png", "icon_background_color": "#7B9EB0", "icon_mask_base_uri": "https://maps.gstatic.com/mapfiles/place_api/icons/v2/school_pinlet", "name": "primary school Tupra(girl)", "opening_hours": {"open_now": false}, "place_id": "ChIJM0huYQoo9DkRBNpjQF22g3w", "plus_code": {"compound_code": "G6GQ+HH Pindrajora, Jharkhand, India", "global_code": "7MM8G6GQ+HH"}, "rating": 4, "reference": "ChIJM0huYQoo9DkRBNpjQF22g3w", "scope": "GOOGLE", "types": ["school", "point_of_interest", "establishment"], "user_ratings_total": 1, "vicinity": "vill Tupra, post+thana- Dist-, Pindrajora"}, {"business_status": "OPERATIONAL", "geometry": {"location": {"lat": 23.5327511, "lng": 86.2544037}, "viewport": {"northeast": {"lat": 23.5341342302915, "lng": 86.2557035802915}, "southwest": {"lat": 23.5314362697085, "lng": 86.25300561970849}}}, "icon": "https://maps.gstatic.com/mapfiles/place_api/icons/v1/png_71/school-71.png", "icon_background_color": "#7B9EB0", "icon_mask_base_uri": "https://maps.gstatic.com/mapfiles/place_api/icons/v2/school_pinlet", "name": "Prarthamik vidyalaya varsabad alokdih", "opening_hours": {"open_now": true}, "place_id": "ChIJXf6nX8Mn9DkR_aONuyuf2Uo", "plus_code": {"compound_code": "G7M3+4Q Tupra, Jharkhand, India", "global_code": "7MM8G7M3+4Q"}, "reference": "ChIJXf6nX8Mn9DkR_aONuyuf2Uo", "scope": "GOOGLE", "types": ["school", "point_of_interest", "establishment"], "vicinity": "Alokdih Road, Tupra"}, {"business_status": "OPERATIONAL", "geometry": {"location": {"lat": 23.5327552, "lng": 86.2544953}, "viewport": {"northeast": {"lat": 23.53413543029151, "lng": 86.2558917302915}, "southwest": {"lat": 23.5314374697085, "lng": 86.25319376970849}}}, "icon": "https://maps.gstatic.com/mapfiles/place_api/icons/v1/png_71/school-71.png", "icon_background_color": "#7B9EB0", "icon_mask_base_uri": "https://maps.gstatic.com/mapfiles/place_api/icons/v2/school_pinlet", "name": "Prathamik Vidyaly", "place_id": "ChIJF_8o7hYn9DkRKp58qznZ7tQ", "plus_code": {"compound_code": "G7M3+4Q Tupra, Jharkhand, India", "global_code": "7MM8G7M3+4Q"}, "reference": "ChIJF_8o7hYn9DkRKp58qznZ7tQ", "scope": "GOOGLE", "types": ["school", "point_of_interest", "establishment"], "vicinity": "Unnamed Road, Tupra"}, {"business_status": "OPERATIONAL", "geometry": {"location": {"lat": 23.5329584, "lng": 86.25444829999999}, "viewport": {"northeast": {"lat": 23.5343315302915, "lng": 86.25578008029152}, "southwest": {"lat": 23.5316335697085, "lng": 86.2530821197085}}}, "icon": "https://maps.gstatic.com/mapfiles/place_api/icons/v1/png_71/school-71.png", "icon_background_color": "#7B9EB0", "icon_mask_base_uri": "https://maps.gstatic.com/mapfiles/place_api/icons/v2/school_pinlet", "name": "Primary School Alokdih", "place_id": "ChIJATUDa8In9DkRlAS3Jhov0W4", "plus_code": {"compound_code": "G7M3+5Q Tupra, Jharkhand, India", "global_code": "7MM8G7M3+5Q"}, "reference": "ChIJATUDa8In9DkRlAS3Jhov0W4", "scope": "GOOGLE", "types": ["school", "point_of_interest", "establishment"], "vicinity": "Alokdih Road, Tupra"}, {"business_status": "OPERATIONAL", "geometry": {"location": {"lat": 23.5200282, "lng": 86.2483488}, "viewport": {"northeast": {"lat": 23.5212784802915, "lng": 86.2503445302915}, "southwest": {"lat": 23.51858051970849, "lng": 86.2476465697085}}}, "icon": "https://maps.gstatic.com/mapfiles/place_api/icons/v1/png_71/school-71.png", "icon_background_color": "#7B9EB0", "icon_mask_base_uri": "https://maps.gstatic.com/mapfiles/place_api/icons/v2/school_pinlet", "name": "UP GRADED HIGH SCHOOL RANICHIRKA CHAS -1", "opening_hours": {"open_now": true}, "photos": [{"height": 1080, "html_attributions": ["<a href=\"https://maps.google.com/maps/contrib/106729828051234020499\">Shishupaul kumar Manjhi</a>"], "photo_reference": "Aap_uEBgM6sffoOGcTa3kj5lCwWjRevZEv70DodJjyXpa9osFTMcdlDJAtY4Ai6qhncT02fwsTmN8IuXFZC25P_bsf-It34CUW56ZO1RRL2_9HMPVeQbagJyhsLliR5e1XaZ7cQr_mkRs2UPB2DmG8h21RcEaT5DVETMbzC5mTuUD7kcJoyw", "width": 1920}], "place_id": "ChIJCz1XkKQp9DkR6P381oafAZc", "reference": "ChIJCz1XkKQp9DkR6P381oafAZc", "scope": "GOOGLE", "types": ["secondary_school", "school", "point_of_interest", "establishment"], "vicinity": "G6CX+289, Ranichirka"}], "status": "OK"}