{"html_attributions": [], "results": [{"business_status": "OPERATIONAL", "geometry": {"location": {"lat": 23.6080719, "lng": 86.24887319999999}, "viewport": {"northeast": {"lat": 23.6094774302915, "lng": 86.2501920802915}, "southwest": {"lat": 23.6067794697085, "lng": 86.24749411970849}}}, "icon": "https://maps.gstatic.com/mapfiles/place_api/icons/v1/png_71/school-71.png", "icon_background_color": "#7B9EB0", "icon_mask_base_uri": "https://maps.gstatic.com/mapfiles/place_api/icons/v2/school_pinlet", "name": "Mamarkudar S Kumar Classes", "place_id": "ChIJgatKpeEn9DkRzPBIUc2g73c", "reference": "ChIJgatKpeEn9DkRzPBIUc2g73c", "scope": "GOOGLE", "types": ["school", "point_of_interest", "establishment"], "vicinity": "J65X+6GH, Mamar Kudar"}, {"business_status": "OPERATIONAL", "geometry": {"location": {"lat": 23.6051559, "lng": 86.2473059}, "viewport": {"northeast": {"lat": 23.6064837302915, "lng": 86.2485937802915}, "southwest": {"lat": 23.6037857697085, "lng": 86.2458958197085}}}, "icon": "https://maps.gstatic.com/mapfiles/place_api/icons/v1/png_71/school-71.png", "icon_background_color": "#7B9EB0", "icon_mask_base_uri": "https://maps.gstatic.com/mapfiles/place_api/icons/v2/school_pinlet", "name": "Ajay Madhukar", "place_id": "ChIJ09n4hLwn9DkRDzZ34AaFRCI", "rating": 4, "reference": "ChIJ09n4hLwn9DkRDzZ34AaFRCI", "scope": "GOOGLE", "types": ["school", "point_of_interest", "establishment"], "user_ratings_total": 1, "vicinity": "J64W+3W7, Mamar Kudar"}, {"business_status": "OPERATIONAL", "geometry": {"location": {"lat": 23.6047675, "lng": 86.24667699999999}, "viewport": {"northeast": {"lat": 23.6060672802915, "lng": 86.24820248029151}, "southwest": {"lat": 23.6033693197085, "lng": 86.2455045197085}}}, "icon": "https://maps.gstatic.com/mapfiles/place_api/icons/v1/png_71/school-71.png", "icon_background_color": "#7B9EB0", "icon_mask_base_uri": "https://maps.gstatic.com/mapfiles/place_api/icons/v2/school_pinlet", "name": "Modern Public School", "photos": [{"height": 960, "html_attributions": ["<a href=\"https://maps.google.com/maps/contrib/118073179628660992992\">Amit Kumar Raz</a>"], "photo_reference": "Aap_uEB__HJNO-ecFxFwQB-SuH75EECzyz-N-m_GuMwyDs0eiw52MefCWTGmpaTawO6tbRn1U2UefBwpT6xoDuOSbMBkvxWPu4loGSn6UIxruSJAJFuH0DdlkohMP-LBYEJYQ-RkzYzyywf737dAMetRvNpM5IwWd8VUtbbXtWwl8vm7RW6k", "width": 1280}], "place_id": "ChIJA7JbqVwn9DkRx8HSa3-GgRE", "plus_code": {"compound_code": "J63W+WM Mamar Kudar, Jharkhand, India", "global_code": "7MM8J63W+WM"}, "rating": 4.6, "reference": "ChIJA7JbqVwn9DkRx8HSa3-GgRE", "scope": "GOOGLE", "types": ["school", "point_of_interest", "establishment"], "user_ratings_total": 5, "vicinity": "Mamar Kudar"}, {"business_status": "OPERATIONAL", "geometry": {"location": {"lat": 23.604805, "lng": 86.24691639999999}, "viewport": {"northeast": {"lat": 23.6061337302915, "lng": 86.24833803029149}, "southwest": {"lat": 23.6034357697085, "lng": 86.24564006970849}}}, "icon": "https://maps.gstatic.com/mapfiles/place_api/icons/v1/png_71/school-71.png", "icon_background_color": "#7B9EB0", "icon_mask_base_uri": "https://maps.gstatic.com/mapfiles/place_api/icons/v2/school_pinlet", "name": "MPS PlayGround", "place_id": "ChIJhzVmjp0n9DkRLiGVIOwJK5s", "reference": "ChIJhzVmjp0n9DkRLiGVIOwJK5s", "scope": "GOOGLE", "types": ["school", "point_of_interest", "establishment"], "vicinity": "J63W+WQF, Mamar Kudar"}, {"business_status": "OPERATIONAL", "geometry": {"location": {"lat": 23.6047454, "lng": 86.24298019999999}, "viewport": {"northeast": {"lat": 23.6061828302915, "lng": 86.2442923802915}, "southwest": {"lat": 23.6034848697085, "lng": 86.24159441970849}}}, "icon": "https://maps.gstatic.com/mapfiles/place_api/icons/v1/png_71/school-71.png", "icon_background_color": "#7B9EB0", "icon_mask_base_uri": "https://maps.gstatic.com/mapfiles/place_api/icons/v2/school_pinlet", "name": "Study Circle", "opening_hours": {"open_now": false}, "place_id": "ChIJIwoEiUMn9DkRcx3b3qMdKSs", "rating": 5, "reference": "ChIJIwoEiUMn9DkRcx3b3qMdKSs", "scope": "GOOGLE", "types": ["school", "point_of_interest", "establishment"], "user_ratings_total": 2, "vicinity": "J63V+V5X, Mamar Kudar"}, {"business_status": "OPERATIONAL", "geometry": {"location": {"lat": 23.6047066, "lng": 86.2406678}, "viewport": {"northeast": {"lat": 23.6060404302915, "lng": 86.24183293029151}, "southwest": {"lat": 23.6033424697085, "lng": 86.23913496970849}}}, "icon": "https://maps.gstatic.com/mapfiles/place_api/icons/v1/png_71/school-71.png", "icon_background_color": "#7B9EB0", "icon_mask_base_uri": "https://maps.gstatic.com/mapfiles/place_api/icons/v2/school_pinlet", "name": "Primary School Mamarkudar", "place_id": "ChIJc2x9UkEn9DkRFA5WJl9KlwQ", "reference": "ChIJc2x9UkEn9DkRFA5WJl9KlwQ", "scope": "GOOGLE", "types": ["school", "point_of_interest", "establishment"], "vicinity": "J63R+V7M, Mamar Kudar"}, {"business_status": "OPERATIONAL", "geometry": {"location": {"lat": 23.6071122, "lng": 86.2386588}, "viewport": {"northeast": {"lat": 23.6084670302915, "lng": 86.2400283802915}, "southwest": {"lat": 23.6057690697085, "lng": 86.2373304197085}}}, "icon": "https://maps.gstatic.com/mapfiles/place_api/icons/v1/png_71/school-71.png", "icon_background_color": "#7B9EB0", "icon_mask_base_uri": "https://maps.gstatic.com/mapfiles/place_api/icons/v2/school_pinlet", "name": "B N High School Mamarkudar", "photos": [{"height": 2000, "html_attributions": ["<a href=\"https://maps.google.com/maps/contrib/113070286910455350223\">Chirag Bhai</a>"], "photo_reference": "Aap_uEA0N6DMXk1FGLhzmatt9wjBIHfs0qLOIOligLH1tJP4KWp7v6F-VkJNFr6JGXUNCRDGEh6S7TharG6BB8t3zxgifpOB1hkhhtJGaZ4QFe2U7xoEKBDEGQ8jxCT5ahjGceW5MQ3etGk_JHLlV6gCaF-Ne-Tfk-a-yRQtQHK2V3_WFA6G", "width": 4000}], "place_id": "ChIJWz-xAkcn9DkRCqhddagZrMQ", "rating": 3, "reference": "ChIJWz-xAkcn9DkRCqhddagZrMQ", "scope": "GOOGLE", "types": ["school", "point_of_interest", "establishment"], "user_ratings_total": 2, "vicinity": "J64Q+RFV, Mamar Kudar"}, {"business_status": "OPERATIONAL", "geometry": {"location": {"lat": 23.600745, "lng": 86.24646539999999}, "viewport": {"northeast": {"lat": 23.6021058302915, "lng": 86.2478874802915}, "southwest": {"lat": 23.5994078697085, "lng": 86.24518951970849}}}, "icon": "https://maps.gstatic.com/mapfiles/place_api/icons/v1/png_71/school-71.png", "icon_background_color": "#7B9EB0", "icon_mask_base_uri": "https://maps.gstatic.com/mapfiles/place_api/icons/v2/school_pinlet", "name": "\u092a\u094d\u0930\u0925\u093e\u092e\u093f\u0915 \u0935\u093f\u0926\u094d\u092f\u093e\u0932\u092f \u0939\u0930\u093f\u0932\u093e\u0917\u094b\u0930\u093e", "place_id": "ChIJ3wJ4Xtkn9DkRmTC503ED7Qw", "reference": "ChIJ3wJ4Xtkn9DkRmTC503ED7Qw", "scope": "GOOGLE", "types": ["school", "point_of_interest", "establishment"], "vicinity": "J62W+7HW, Mamar Kudar"}, {"business_status": "OPERATIONAL", "geometry": {"location": {"lat": 23.6057743, "lng": 86.23700389999999}, "viewport": {"northeast": {"lat": 23.6070799802915, "lng": 86.2382723302915}, "southwest": {"lat": 23.6043820197085, "lng": 86.23557436970849}}}, "icon": "https://maps.gstatic.com/mapfiles/place_api/icons/v1/png_71/school-71.png", "icon_background_color": "#7B9EB0", "icon_mask_base_uri": "https://maps.gstatic.com/mapfiles/place_api/icons/v2/school_pinlet", "name": "M.P School", "place_id": "ChIJVeSBmCAn9DkRksDembq5AJ8", "reference": "ChIJVeSBmCAn9DkRksDembq5AJ8", "scope": "GOOGLE", "types": ["school", "point_of_interest", "establishment"], "vicinity": "J64P+8R2, Mamar Kudar"}, {"business_status": "OPERATIONAL", "geometry": {"location": {"lat": 23.6178632, "lng": 86.2445121}, "viewport": {"northeast": {"lat": 23.61926538029151, "lng": 86.2459377802915}, "southwest": {"lat": 23.6165674197085, "lng": 86.24323981970849}}}, "icon": "https://maps.gstatic.com/mapfiles/place_api/icons/v1/png_71/school-71.png", "icon_background_color": "#7B9EB0", "icon_mask_base_uri": "https://maps.gstatic.com/mapfiles/place_api/icons/v2/school_pinlet", "name": "Middle School Khamarbendi", "photos": [{"height": 3456, "html_attributions": ["<a href=\"https://maps.google.com/maps/contrib/115310009300272413234\">Bhairav Singh Choudhary</a>"], "photo_reference": "Aap_uECRa01BP2M4EW4nG2bp9rqEkUJXmOuxwpxNKL0E1Q--487r1FXdZeG3YMden1Jv06Ssoan7CJVnW6ww_ol3JN7tx_kIbFmRQSAgzYrWAhyNU1MhHZ-gslk0y7dwMQ9Rjy77seC0cEINGDCpmE8prTsgOrhQxvQ_Wf6Jf4WZADskzjRR", "width": 4608}], "place_id": "ChIJQZ0_xU0n9DkRd1jeIuSO848", "plus_code": {"compound_code": "J69V+4R Khamarbendi, Jharkhand, India", "global_code": "7MM8J69V+4R"}, "rating": 5, "reference": "ChIJQZ0_xU0n9DkRd1jeIuSO848", "scope": "GOOGLE", "types": ["school", "point_of_interest", "establishment"], "user_ratings_total": 1, "vicinity": "Choudhary Kulhi Street, Khamarbendi"}, {"business_status": "OPERATIONAL", "geometry": {"location": {"lat": 23.61375869999999, "lng": 86.2355676}, "viewport": {"northeast": {"lat": 23.6150796302915, "lng": 86.2369608802915}, "southwest": {"lat": 23.6123816697085, "lng": 86.23426291970848}}}, "icon": "https://maps.gstatic.com/mapfiles/place_api/icons/v1/png_71/school-71.png", "icon_background_color": "#7B9EB0", "icon_mask_base_uri": "https://maps.gstatic.com/mapfiles/place_api/icons/v2/school_pinlet", "name": "\u092c\u0948\u0927 \u0936\u0915\u094d\u0924\u093f\u092e\u093e\u0928 \u0920\u093e\u0915\u0941\u0930", "place_id": "ChIJ92KmcqAn9DkRKEGCekrwFzk", "rating": 5, "reference": "ChIJ92KmcqAn9DkRKEGCekrwFzk", "scope": "GOOGLE", "types": ["school", "point_of_interest", "establishment"], "user_ratings_total": 1, "vicinity": "J67P+G64, Khamarbendi"}, {"business_status": "OPERATIONAL", "geometry": {"location": {"lat": 23.6123481, "lng": 86.2340511}, "viewport": {"northeast": {"lat": 23.6138146802915, "lng": 86.2354039302915}, "southwest": {"lat": 23.61111671970849, "lng": 86.23270596970849}}}, "icon": "https://maps.gstatic.com/mapfiles/place_api/icons/v1/png_71/school-71.png", "icon_background_color": "#7B9EB0", "icon_mask_base_uri": "https://maps.gstatic.com/mapfiles/place_api/icons/v2/school_pinlet", "name": "Khamarbendi Primary School", "place_id": "ChIJo4JMojcn9DkRsL4dlMdVUPY", "reference": "ChIJo4JMojcn9DkRsL4dlMdVUPY", "scope": "GOOGLE", "types": ["school", "point_of_interest", "establishment"], "vicinity": "J66M+WJM, Khamarbendi"}], "status": "OK"}