{"html_attributions": [], "results": [{"business_status": "OPERATIONAL", "geometry": {"location": {"lat": 23.6253351, "lng": 86.2345775}, "viewport": {"northeast": {"lat": 23.6267438802915, "lng": 86.2359605302915}, "southwest": {"lat": 23.6240459197085, "lng": 86.2332625697085}}}, "icon": "https://maps.gstatic.com/mapfiles/place_api/icons/v1/png_71/school-71.png", "icon_background_color": "#7B9EB0", "icon_mask_base_uri": "https://maps.gstatic.com/mapfiles/place_api/icons/v2/school_pinlet", "name": "U.M.School Chamsobad Harijan Chas - 2", "photos": [{"height": 1773, "html_attributions": ["<a href=\"https://maps.google.com/maps/contrib/115372770692068385186\">Naresh Kumar</a>"], "photo_reference": "Aap_uEDR9rEDaX8jRufnTcGCwuM11LbvfEC8b-JxIBBuvW0dK6yPSMXmDheQzM_822heob5RbWcaOIqVRGo6hClq9K_EA1FDISAzH7SZrMwChon6TaukcHIUCadOtoVVjgK5DKSV26o08maK5wBpSsusNcTmwKYV3qseN24c6MR4YnCMlLPS", "width": 1773}], "place_id": "ChIJg-YuhgMh9DkR0rEhdjDikUY", "plus_code": {"compound_code": "J6GM+4R Khamarbendi, Jharkhand, India", "global_code": "7MM8J6GM+4R"}, "rating": 4, "reference": "ChIJg-YuhgMh9DkR0rEhdjDikUY", "scope": "GOOGLE", "types": ["school", "point_of_interest", "establishment"], "user_ratings_total": 4, "vicinity": "harijan tola, Chamsobad, Khamarbendi"}, {"business_status": "OPERATIONAL", "geometry": {"location": {"lat": 23.6252497, "lng": 86.2345454}, "viewport": {"northeast": {"lat": 23.6266131302915, "lng": 86.2358111802915}, "southwest": {"lat": 23.6239151697085, "lng": 86.23311321970849}}}, "icon": "https://maps.gstatic.com/mapfiles/place_api/icons/v1/png_71/school-71.png", "icon_background_color": "#7B9EB0", "icon_mask_base_uri": "https://maps.gstatic.com/mapfiles/place_api/icons/v2/school_pinlet", "name": "Utkramit Middle School Chamsobad", "photos": [{"height": 4096, "html_attributions": ["<a href=\"https://maps.google.com/maps/contrib/109989655982080142692\">Mithun Bauri</a>"], "photo_reference": "Aap_uEDP6sTvVhzwCoAYZs2OlzH_wB4oWXUpi2-O7eBiaS4ivvPxqq-IMFFbM_qYxAyrOrh2aJEiPF3iRY_gCKb5SltPkoMal9S86VYHRwZWzM2f91we0KYskzDvsXxOw8aXdXdq3mWpQoW4wJCq2sXKQhPyi_yRim1KdmTGidRxqhd212AE", "width": 2304}], "place_id": "ChIJKbUd9Mog9DkRCIzR4xWGGcM", "plus_code": {"compound_code": "J6GM+3R Khamarbendi, Jharkhand, India", "global_code": "7MM8J6GM+3R"}, "reference": "ChIJKbUd9Mog9DkRCIzR4xWGGcM", "scope": "GOOGLE", "types": ["school", "point_of_interest", "establishment"], "vicinity": "Chamsobad, Khamarbendi"}, {"business_status": "OPERATIONAL", "geometry": {"location": {"lat": 23.6178632, "lng": 86.2445121}, "viewport": {"northeast": {"lat": 23.61926538029151, "lng": 86.2459377802915}, "southwest": {"lat": 23.6165674197085, "lng": 86.24323981970849}}}, "icon": "https://maps.gstatic.com/mapfiles/place_api/icons/v1/png_71/school-71.png", "icon_background_color": "#7B9EB0", "icon_mask_base_uri": "https://maps.gstatic.com/mapfiles/place_api/icons/v2/school_pinlet", "name": "Middle School Khamarbendi", "photos": [{"height": 3456, "html_attributions": ["<a href=\"https://maps.google.com/maps/contrib/115310009300272413234\">Bhairav Singh Choudhary</a>"], "photo_reference": "Aap_uEDAGvItmaaU_VLwoq_HfLKYYBtutyozUl4UXH7BrAM-a9iKeMaY9Uygnzq1GkJbYDZsn8O0grev7Xo_o5n-evmOqviDSEZb6guu-zffVKQpsISLWt8NxsVngQmv__QsmDNQnZ-X45scGwd-DFzL8iA3WFLz9M9B_XUKo3w6Xc2T_FdQ", "width": 4608}], "place_id": "ChIJQZ0_xU0n9DkRd1jeIuSO848", "plus_code": {"compound_code": "J69V+4R Khamarbendi, Jharkhand, India", "global_code": "7MM8J69V+4R"}, "rating": 5, "reference": "ChIJQZ0_xU0n9DkRd1jeIuSO848", "scope": "GOOGLE", "types": ["school", "point_of_interest", "establishment"], "user_ratings_total": 1, "vicinity": "Choudhary Kulhi Street, Khamarbendi"}], "status": "OK"}