{"html_attributions": [], "results": [{"business_status": "OPERATIONAL", "geometry": {"location": {"lat": 23.8074179, "lng": 86.2615689}, "viewport": {"northeast": {"lat": 23.8086483802915, "lng": 86.2629026302915}, "southwest": {"lat": 23.80595041970849, "lng": 86.26020466970849}}}, "icon": "https://maps.gstatic.com/mapfiles/place_api/icons/v1/png_71/school-71.png", "icon_background_color": "#7B9EB0", "icon_mask_base_uri": "https://maps.gstatic.com/mapfiles/place_api/icons/v2/school_pinlet", "name": "Kharkhari Narayan Dhaura", "place_id": "ChIJE5VRpeGh9jkRxeqe98nGlCc", "reference": "ChIJE5VRpeGh9jkRxeqe98nGlCc", "scope": "GOOGLE", "types": ["school", "point_of_interest", "establishment"], "vicinity": "R746+XJ8"}, {"business_status": "OPERATIONAL", "geometry": {"location": {"lat": 23.8143436, "lng": 86.2646109}, "viewport": {"northeast": {"lat": 23.8156145802915, "lng": 86.26590143029149}, "southwest": {"lat": 23.8129166197085, "lng": 86.26320346970849}}}, "icon": "https://maps.gstatic.com/mapfiles/place_api/icons/v1/png_71/school-71.png", "icon_background_color": "#7B9EB0", "icon_mask_base_uri": "https://maps.gstatic.com/mapfiles/place_api/icons/v2/school_pinlet", "name": "U. P. G HIGH SCHOOL BEHRRAKUDAR", "photos": [{"height": 818, "html_attributions": ["<a href=\"https://maps.google.com/maps/contrib/101238091976883405823\">ashutosh singh</a>"], "photo_reference": "Aap_uEBAzjNCnF41J-IY0_ZpjAqnzfZi0hFJiudpKEG1HZ5XXJ5O2bqn_IPH7cuQOKuK3CGMLmXJtI9kwYoQ0HXkj1AMLUf10Tb-zDO73NGMJAoXYE4HJBJO-S4-zCHfkwCIipU--fts2kyoqYDPencIoBjh9h6iqaLYjXBcufE2NBKL5UBw", "width": 1080}], "place_id": "ChIJWStf5lin9jkRKN2MpgdCm-Q", "plus_code": {"compound_code": "R777+PR Baherakudar, Jharkhand, India", "global_code": "7MM8R777+PR"}, "rating": 5, "reference": "ChIJWStf5lin9jkRKN2MpgdCm-Q", "scope": "GOOGLE", "types": ["school", "point_of_interest", "establishment"], "user_ratings_total": 1, "vicinity": "Unnamed Road, Baherakudar"}, {"business_status": "OPERATIONAL", "geometry": {"location": {"lat": 23.81445609999999, "lng": 86.2646223}, "viewport": {"northeast": {"lat": 23.8156916802915, "lng": 86.26588133029149}, "southwest": {"lat": 23.81299371970849, "lng": 86.26318336970849}}}, "icon": "https://maps.gstatic.com/mapfiles/place_api/icons/v1/png_71/school-71.png", "icon_background_color": "#7B9EB0", "icon_mask_base_uri": "https://maps.gstatic.com/mapfiles/place_api/icons/v2/school_pinlet", "name": "Government School", "opening_hours": {"open_now": false}, "photos": [{"height": 3120, "html_attributions": ["<a href=\"https://maps.google.com/maps/contrib/115186841501392618021\">Randhir Singh</a>"], "photo_reference": "Aap_uEDsjDhoBBqNgz22veQEywFGhH0013gPt_DTpTp1e3P_fsYclG371XTooIfi4mjIkD5S-DALZoXKgMVHlzJwxon7DEar4wvrbhKrEW3MrYGMfB2l46TYL61PYUUSDTxOdR0EjC0hPvGlcgehSPmzZU5eNH7WYf39Ir1PN0vLMj9vVRQU", "width": 4160}], "place_id": "ChIJE6Zy21Kn9jkR3cNHTNP8r4E", "rating": 4.5, "reference": "ChIJE6Zy21Kn9jkR3cNHTNP8r4E", "scope": "GOOGLE", "types": ["school", "point_of_interest", "establishment"], "user_ratings_total": 2, "vicinity": "R777+QRQ, Baherakudar"}, {"business_status": "OPERATIONAL", "geometry": {"location": {"lat": 23.8146034, "lng": 86.2646719}, "viewport": {"northeast": {"lat": 23.81602078029151, "lng": 86.26604073029151}, "southwest": {"lat": 23.8133228197085, "lng": 86.26334276970849}}}, "icon": "https://maps.gstatic.com/mapfiles/place_api/icons/v1/png_71/school-71.png", "icon_background_color": "#7B9EB0", "icon_mask_base_uri": "https://maps.gstatic.com/mapfiles/place_api/icons/v2/school_pinlet", "name": "Middle School Baherakudar", "opening_hours": {"open_now": false}, "photos": [{"height": 3120, "html_attributions": ["<a href=\"https://maps.google.com/maps/contrib/115186841501392618021\">Randhir Singh</a>"], "photo_reference": "Aap_uEBM2N7Lsi_nwZ9q57WfUJPgHGuSiS0u701g91EJCf8lMsQweq7z1kUYitm37ORSX9Dbtm__2NuWxoPRbH6iHD5Sq-QuuyhRUVEml0o6X0wM_6FqIrujCPIJJwZ9iaG3C9IVlDe3AUqSCDl_EdFbraODM2p3HnYoTlG1SWIXSiUefEXy", "width": 4160}], "place_id": "ChIJD77lpFOn9jkRtz6E5UqRypA", "rating": 4, "reference": "ChIJD77lpFOn9jkRtz6E5UqRypA", "scope": "GOOGLE", "types": ["secondary_school", "school", "point_of_interest", "establishment"], "user_ratings_total": 2, "vicinity": "R777+RVV, Baherakudar"}, {"business_status": "OPERATIONAL", "geometry": {"location": {"lat": 23.80350259999999, "lng": 86.2591159}, "viewport": {"northeast": {"lat": 23.8047638302915, "lng": 86.26050278029152}, "southwest": {"lat": 23.8020658697085, "lng": 86.2578048197085}}}, "icon": "https://maps.gstatic.com/mapfiles/place_api/icons/v1/png_71/school-71.png", "icon_background_color": "#7B9EB0", "icon_mask_base_uri": "https://maps.gstatic.com/mapfiles/place_api/icons/v2/school_pinlet", "name": "Rajkiya Madhya Vidyalaya, Bahiyardih", "place_id": "ChIJYxXP96ig9jkRa32jwcwVDFk", "rating": 2, "reference": "ChIJYxXP96ig9jkRa32jwcwVDFk", "scope": "GOOGLE", "types": ["primary_school", "school", "point_of_interest", "establishment"], "user_ratings_total": 1, "vicinity": "R735+CJ5, Bahiyardih"}, {"business_status": "OPERATIONAL", "geometry": {"location": {"lat": 23.8036505, "lng": 86.25857359999999}, "viewport": {"northeast": {"lat": 23.8049852302915, "lng": 86.2599014302915}, "southwest": {"lat": 23.80228726970849, "lng": 86.2572034697085}}}, "icon": "https://maps.gstatic.com/mapfiles/place_api/icons/v1/png_71/school-71.png", "icon_background_color": "#7B9EB0", "icon_mask_base_uri": "https://maps.gstatic.com/mapfiles/place_api/icons/v2/school_pinlet", "name": "Anganbadi School", "place_id": "ChIJ7V-BUKig9jkRIuGtGWZqXBE", "rating": 3, "reference": "ChIJ7V-BUKig9jkRIuGtGWZqXBE", "scope": "GOOGLE", "types": ["school", "point_of_interest", "establishment"], "user_ratings_total": 1, "vicinity": "R735+FC8, Bahiyardih"}, {"business_status": "OPERATIONAL", "geometry": {"location": {"lat": 23.8122095, "lng": 86.2755304}, "viewport": {"northeast": {"lat": 23.8130236302915, "lng": 86.27688818029151}, "southwest": {"lat": 23.8103256697085, "lng": 86.2741902197085}}}, "icon": "https://maps.gstatic.com/mapfiles/place_api/icons/v1/png_71/school-71.png", "icon_background_color": "#7B9EB0", "icon_mask_base_uri": "https://maps.gstatic.com/mapfiles/place_api/icons/v2/school_pinlet", "name": "Royal kidszee play school", "photos": [{"height": 3000, "html_attributions": ["<a href=\"https://maps.google.com/maps/contrib/108313456213757691796\">Satish singh Singh</a>"], "photo_reference": "Aap_uEA73hju-3gFppSwvOrEjFv-pzXefOrLR6hA20cf3VdqXWs4xMwFBfVp7I-V6UkJjfNRjz0dLkzlSTYBP5GCqpgBgDzXeTEMwsUHUHBLIpWxIPQULHkwwzov8ImgIZWo7fJnimXU-u7cSPNhnE-_woAF7PyHtihTHd-Rls5HmdpyjtZ3", "width": 4000}], "place_id": "ChIJFYe_O3Wh9jkRgqyK6fEikSo", "reference": "ChIJFYe_O3Wh9jkRgqyK6fEikSo", "scope": "GOOGLE", "types": ["school", "point_of_interest", "establishment"], "vicinity": "R76G+V6J, Kolmurna"}, {"business_status": "OPERATIONAL", "geometry": {"location": {"lat": 23.8172848, "lng": 86.259622}, "viewport": {"northeast": {"lat": 23.8186127302915, "lng": 86.26096453029152}, "southwest": {"lat": 23.8159147697085, "lng": 86.2582665697085}}}, "icon": "https://maps.gstatic.com/mapfiles/place_api/icons/v1/png_71/school-71.png", "icon_background_color": "#7B9EB0", "icon_mask_base_uri": "https://maps.gstatic.com/mapfiles/place_api/icons/v2/school_pinlet", "name": "Anganbadi Kendra", "place_id": "ChIJd71oT1Sn9jkRuoulj79hQ5Y", "plus_code": {"compound_code": "R785+WR Baherakudar, Jharkhand, India", "global_code": "7MM8R785+WR"}, "rating": 3.8, "reference": "ChIJd71oT1Sn9jkRuoulj79hQ5Y", "scope": "GOOGLE", "types": ["school", "point_of_interest", "establishment"], "user_ratings_total": 4, "vicinity": "India"}, {"business_status": "OPERATIONAL", "geometry": {"location": {"lat": 23.8032843, "lng": 86.2771357}, "viewport": {"northeast": {"lat": 23.8045732802915, "lng": 86.27842803029151}, "southwest": {"lat": 23.8018753197085, "lng": 86.2757300697085}}}, "icon": "https://maps.gstatic.com/mapfiles/place_api/icons/v1/png_71/school-71.png", "icon_background_color": "#7B9EB0", "icon_mask_base_uri": "https://maps.gstatic.com/mapfiles/place_api/icons/v2/school_pinlet", "name": "Madhya Vidyalaya", "place_id": "ChIJczKzGMig9jkRFUYDjRXUDNA", "plus_code": {"compound_code": "R73G+8V Bhatmurna, Jharkhand, India", "global_code": "7MM8R73G+8V"}, "rating": 5, "reference": "ChIJczKzGMig9jkRFUYDjRXUDNA", "scope": "GOOGLE", "types": ["school", "point_of_interest", "establishment"], "user_ratings_total": 1, "vicinity": "Bhatmurna More, Katras, Dhanbad"}, {"business_status": "OPERATIONAL", "geometry": {"location": {"lat": 23.80334809999999, "lng": 86.277836}, "viewport": {"northeast": {"lat": 23.8046805302915, "lng": 86.27915438029152}, "southwest": {"lat": 23.80198256970849, "lng": 86.2764564197085}}}, "icon": "https://maps.gstatic.com/mapfiles/place_api/icons/v1/png_71/school-71.png", "icon_background_color": "#7B9EB0", "icon_mask_base_uri": "https://maps.gstatic.com/mapfiles/place_api/icons/v2/school_pinlet", "name": "Haridas sanskriti sankul", "opening_hours": {"open_now": true}, "place_id": "ChIJd76DCn6h9jkR10Fy4YhxYk8", "plus_code": {"compound_code": "R73H+84 Katras, Jharkhand, India", "global_code": "7MM8R73H+84"}, "reference": "ChIJd76DCn6h9jkR10Fy4YhxYk8", "scope": "GOOGLE", "types": ["school", "point_of_interest", "establishment"], "vicinity": "Dhanbad Road, Katras"}, {"business_status": "OPERATIONAL", "geometry": {"location": {"lat": 23.7970527, "lng": 86.2628383}, "viewport": {"northeast": {"lat": 23.7983184302915, "lng": 86.26418728029151}, "southwest": {"lat": 23.7956204697085, "lng": 86.26148931970849}}}, "icon": "https://maps.gstatic.com/mapfiles/place_api/icons/v1/png_71/school-71.png", "icon_background_color": "#7B9EB0", "icon_mask_base_uri": "https://maps.gstatic.com/mapfiles/place_api/icons/v2/school_pinlet", "name": "Manjro", "place_id": "ChIJJ4-Lr7eh9jkR6GwekjP79R0", "plus_code": {"compound_code": "Q7W7+R4 Sonardih, Jharkhand, India", "global_code": "7MM8Q7W7+R4"}, "reference": "ChIJJ4-Lr7eh9jkR6GwekjP79R0", "scope": "GOOGLE", "types": ["school", "point_of_interest", "establishment"], "vicinity": "Unnamed Road, Sonardih"}], "status": "OK"}