{"html_attributions": [], "results": [{"business_status": "OPERATIONAL", "geometry": {"location": {"lat": 23.8916834, "lng": 86.2653713}, "viewport": {"northeast": {"lat": 23.8929833802915, "lng": 86.2666201802915}, "southwest": {"lat": 23.8902854197085, "lng": 86.26392221970848}}}, "icon": "https://maps.gstatic.com/mapfiles/place_api/icons/v1/png_71/school-71.png", "icon_background_color": "#7B9EB0", "icon_mask_base_uri": "https://maps.gstatic.com/mapfiles/place_api/icons/v2/school_pinlet", "name": "Primary school lokbad", "place_id": "ChIJnRE-lgyn9jkR3QrVMxhrZs0", "plus_code": {"compound_code": "V7R8+M4 Lokbad, Jharkhand, India", "global_code": "7MM8V7R8+M4"}, "reference": "ChIJnRE-lgyn9jkR3QrVMxhrZs0", "scope": "GOOGLE", "types": ["school", "point_of_interest", "establishment"], "vicinity": "Unnamed Road, Lokbad"}, {"business_status": "OPERATIONAL", "geometry": {"location": {"lat": 23.8887626, "lng": 86.26081789999999}, "viewport": {"northeast": {"lat": 23.8901022302915, "lng": 86.2622567302915}, "southwest": {"lat": 23.8874042697085, "lng": 86.25955876970849}}}, "icon": "https://maps.gstatic.com/mapfiles/place_api/icons/v1/png_71/school-71.png", "icon_background_color": "#7B9EB0", "icon_mask_base_uri": "https://maps.gstatic.com/mapfiles/place_api/icons/v2/school_pinlet", "name": "Upgraded Middle School Kandedih", "opening_hours": {"open_now": false}, "place_id": "ChIJ5xbFcyGn9jkRJrSCiNyZ3Os", "rating": 5, "reference": "ChIJ5xbFcyGn9jkRJrSCiNyZ3Os", "scope": "GOOGLE", "types": ["school", "point_of_interest", "establishment"], "user_ratings_total": 1, "vicinity": "V7Q6+G84, Kandedih"}, {"business_status": "OPERATIONAL", "geometry": {"location": {"lat": 23.8885008, "lng": 86.26081459999999}, "viewport": {"northeast": {"lat": 23.8898525802915, "lng": 86.2622515802915}, "southwest": {"lat": 23.8871546197085, "lng": 86.25955361970848}}}, "icon": "https://maps.gstatic.com/mapfiles/place_api/icons/v1/png_71/school-71.png", "icon_background_color": "#7B9EB0", "icon_mask_base_uri": "https://maps.gstatic.com/mapfiles/place_api/icons/v2/school_pinlet", "name": "Upgraded High School Kandedih", "place_id": "ChIJiSmuo_On9jkRQyaUal5Jxsk", "rating": 2.2, "reference": "ChIJiSmuo_On9jkRQyaUal5Jxsk", "scope": "GOOGLE", "types": ["school", "point_of_interest", "establishment"], "user_ratings_total": 5, "vicinity": "V7Q6+C84, Kamta"}, {"business_status": "OPERATIONAL", "geometry": {"location": {"lat": 23.8884977, "lng": 86.2608125}, "viewport": {"northeast": {"lat": 23.8898509802915, "lng": 86.26225053029151}, "southwest": {"lat": 23.8871530197085, "lng": 86.2595525697085}}}, "icon": "https://maps.gstatic.com/mapfiles/place_api/icons/v1/png_71/school-71.png", "icon_background_color": "#7B9EB0", "icon_mask_base_uri": "https://maps.gstatic.com/mapfiles/place_api/icons/v2/school_pinlet", "name": "UHS KANDEDIH", "opening_hours": {"open_now": false}, "photos": [{"height": 640, "html_attributions": ["<a href=\"https://maps.google.com/maps/contrib/102465372180181734999\">Md Meraj</a>"], "photo_reference": "Aap_uEB_SS-Y9YXBfKEOwzviNeCI7HeKbxMuIWJiGnAdB1P2a2eZD_HkSgyOo5t6UBH09Co7HswTS0b25k1mdoBhFkk6of111d7Z2kSv89wNQuGfhvklfG_ZI-0D3bVzcFjvaFYaQXoBjX7yDeeRZCYYkj90nDBnHyn16Z9SIOAzOohq-SZm", "width": 1137}], "place_id": "ChIJuVVV8OSn9jkRSiA0v4JXaak", "rating": 5, "reference": "ChIJuVVV8OSn9jkRSiA0v4JXaak", "scope": "GOOGLE", "types": ["school", "point_of_interest", "establishment"], "user_ratings_total": 1, "vicinity": "V7Q6+98V, Kandedih"}, {"business_status": "OPERATIONAL", "geometry": {"location": {"lat": 23.8938933, "lng": 86.2612953}, "viewport": {"northeast": {"lat": 23.8952614302915, "lng": 86.2626649302915}, "southwest": {"lat": 23.8925634697085, "lng": 86.2599669697085}}}, "icon": "https://maps.gstatic.com/mapfiles/place_api/icons/v1/png_71/school-71.png", "icon_background_color": "#7B9EB0", "icon_mask_base_uri": "https://maps.gstatic.com/mapfiles/place_api/icons/v2/school_pinlet", "name": "Urdu Primary School Kurmitand", "opening_hours": {"open_now": false}, "place_id": "ChIJo0H3K_en9jkRc2j_nHCv5xQ", "rating": 5, "reference": "ChIJo0H3K_en9jkRc2j_nHCv5xQ", "scope": "GOOGLE", "types": ["school", "point_of_interest", "establishment"], "user_ratings_total": 3, "vicinity": "V7V6+HG3, Kamta"}, {"business_status": "OPERATIONAL", "geometry": {"location": {"lat": 23.883849, "lng": 86.2596647}, "viewport": {"northeast": {"lat": 23.8852184802915, "lng": 86.26102548029151}, "southwest": {"lat": 23.8825205197085, "lng": 86.25832751970849}}}, "icon": "https://maps.gstatic.com/mapfiles/place_api/icons/v1/png_71/school-71.png", "icon_background_color": "#7B9EB0", "icon_mask_base_uri": "https://maps.gstatic.com/mapfiles/place_api/icons/v2/school_pinlet", "name": "Suraj Book Store", "opening_hours": {"open_now": false}, "photos": [{"height": 1280, "html_attributions": ["<a href=\"https://maps.google.com/maps/contrib/115841772307419611247\">Suraj Mandal</a>"], "photo_reference": "Aap_uECJUMLf47pyG3rBgarcv4J71c-ZBfTSEHIy9dMEA7GxVn8fA3VXehB7zcoFUWpEogiqJXmn7O7dxYVnX5yZresyQ5ZPVRAZNujpdLkpzASWnaJKZShygIaQBlcU5G-0lYTY32aQ7HPqtqK-YbeObffV27nWdoaVq2BaDItDLnTXFB71", "width": 960}], "place_id": "ChIJ____L4un9jkROjaD1BQhQ8k", "rating": 5, "reference": "ChIJ____L4un9jkROjaD1BQhQ8k", "scope": "GOOGLE", "types": ["school", "point_of_interest", "establishment"], "user_ratings_total": 2, "vicinity": "V7M5+GVM, Kandedih"}, {"business_status": "OPERATIONAL", "geometry": {"location": {"lat": 23.8817411, "lng": 86.2705493}, "viewport": {"northeast": {"lat": 23.8831798802915, "lng": 86.2719527802915}, "southwest": {"lat": 23.8804819197085, "lng": 86.26925481970848}}}, "icon": "https://maps.gstatic.com/mapfiles/place_api/icons/v1/png_71/school-71.png", "icon_background_color": "#7B9EB0", "icon_mask_base_uri": "https://maps.gstatic.com/mapfiles/place_api/icons/v2/school_pinlet", "name": "Ad Raj Upadhyay", "photos": [{"height": 576, "html_attributions": ["<a href=\"https://maps.google.com/maps/contrib/111916757116768439254\">editing boy Aditya</a>"], "photo_reference": "Aap_uECCDXPrmQC0YZoSE30jAlcGiQ-kfGOvUjei4XGqh7DuQ7GpADaxmjaUCwFzJrYf8Uxho8DYwQJmcLKrpF9PBHyp-aI77W4kMZYGvIqqGZnQ6z0of8VhKbB3pOWkiVk5Znzpe8qLXgJqsajvCg9ovwpb4CMA9TcjbpIe9kwk00EVIwsE", "width": 649}], "place_id": "ChIJY9Z4F66n9jkR1edGuClCoIw", "plus_code": {"compound_code": "V7JC+M6 Brahmandiha, Jharkhand, India", "global_code": "7MM8V7JC+M6"}, "reference": "ChIJY9Z4F66n9jkR1edGuClCoIw", "scope": "GOOGLE", "types": ["school", "point_of_interest", "establishment"], "vicinity": "brahmandiha.bdka"}, {"business_status": "OPERATIONAL", "geometry": {"location": {"lat": 23.8900743, "lng": 86.2567892}, "viewport": {"northeast": {"lat": 23.8913559802915, "lng": 86.2581568302915}, "southwest": {"lat": 23.8886580197085, "lng": 86.25545886970849}}}, "icon": "https://maps.gstatic.com/mapfiles/place_api/icons/v1/png_71/school-71.png", "icon_background_color": "#7B9EB0", "icon_mask_base_uri": "https://maps.gstatic.com/mapfiles/place_api/icons/v2/school_pinlet", "name": "Urdu Primary School Kabirdih", "opening_hours": {"open_now": false}, "place_id": "ChIJiXZU-fWn9jkRYCa2z0X_Kjs", "plus_code": {"compound_code": "V7R4+2P Belatanr, Jharkhand, India", "global_code": "7MM8V7R4+2P"}, "rating": 5, "reference": "ChIJiXZU-fWn9jkRYCa2z0X_Kjs", "scope": "GOOGLE", "types": ["school", "point_of_interest", "establishment"], "user_ratings_total": 1, "vicinity": "Kabirdih, Belatanr"}, {"business_status": "OPERATIONAL", "geometry": {"location": {"lat": 23.8901558, "lng": 86.2567487}, "viewport": {"northeast": {"lat": 23.8915996302915, "lng": 86.25812308029151}, "southwest": {"lat": 23.8889016697085, "lng": 86.2554251197085}}}, "icon": "https://maps.gstatic.com/mapfiles/place_api/icons/v1/png_71/school-71.png", "icon_background_color": "#7B9EB0", "icon_mask_base_uri": "https://maps.gstatic.com/mapfiles/place_api/icons/v2/school_pinlet", "name": "Urdu Primary School Belatand", "photos": [{"height": 4160, "html_attributions": ["<a href=\"https://maps.google.com/maps/contrib/111502111112680425955\">AQUA YT Gaming</a>"], "photo_reference": "Aap_uEDWcVQ8zFQEZmh_bNuqNB5EocKceMZ-AG8UIVmA7lYVVPaLfGX9C_7i5jmde2UCfkeayNWykLTrZ09xGhKZXPVfSU5gIjrle85mYxTwR6U72OK6iWrZXSd4g4oGUnqSgQp5txAcxD1-wh7FHQ0ct_gxxYDi7qWzG7jbVp7HCc6J-I76", "width": 3120}], "place_id": "ChIJ91e5_vWn9jkRIm0CFqpn7Ok", "rating": 5, "reference": "ChIJ91e5_vWn9jkRIm0CFqpn7Ok", "scope": "GOOGLE", "types": ["school", "point_of_interest", "establishment"], "user_ratings_total": 3, "vicinity": "V7R4+3M9, Belatanr"}, {"business_status": "OPERATIONAL", "geometry": {"location": {"lat": 23.8863242, "lng": 86.27579539999999}, "viewport": {"northeast": {"lat": 23.8876424802915, "lng": 86.27713588029151}, "southwest": {"lat": 23.8849445197085, "lng": 86.27443791970849}}}, "icon": "https://maps.gstatic.com/mapfiles/place_api/icons/v1/png_71/school-71.png", "icon_background_color": "#7B9EB0", "icon_mask_base_uri": "https://maps.gstatic.com/mapfiles/place_api/icons/v2/school_pinlet", "name": "Knowledge Point", "place_id": "ChIJlY9lvuqn9jkRTJpWAs_dvJQ", "reference": "ChIJlY9lvuqn9jkRTJpWAs_dvJQ", "scope": "GOOGLE", "types": ["school", "point_of_interest", "establishment"], "vicinity": "V7PG+G8F, Kotaldih"}, {"business_status": "OPERATIONAL", "geometry": {"location": {"lat": 23.8860756, "lng": 86.2768662}, "viewport": {"northeast": {"lat": 23.8873932802915, "lng": 86.2782062302915}, "southwest": {"lat": 23.8846953197085, "lng": 86.2755082697085}}}, "icon": "https://maps.gstatic.com/mapfiles/place_api/icons/v1/png_71/school-71.png", "icon_background_color": "#7B9EB0", "icon_mask_base_uri": "https://maps.gstatic.com/mapfiles/place_api/icons/v2/school_pinlet", "name": "Upgraded High School", "opening_hours": {"open_now": false}, "photos": [{"height": 959, "html_attributions": ["<a href=\"https://maps.google.com/maps/contrib/102194566555226610787\">Nakul Ram</a>"], "photo_reference": "Aap_uEDC9BnwsTTk_LpHjIZODbrzSEe0JzW24LDBA0aSSX1Lrayy3uS_ht4q-slEGZVlU-2lHO_uS1_-IFaIRGIsAhvjzltrxAUu5aN1GwD14w5NUKtNAMTSMDRtpGRXcqPHcPsHnhtHDtSWL8_ZbZFaOmNHBhmvG7HdFmJTr-eET6-vrnIZ", "width": 1280}], "place_id": "ChIJ5SXmHcCn9jkRD8cP-2_hLFQ", "rating": 3.9, "reference": "ChIJ5SXmHcCn9jkRD8cP-2_hLFQ", "scope": "GOOGLE", "types": ["school", "point_of_interest", "establishment"], "user_ratings_total": 8, "vicinity": "V7PG+CPQ, Brahmandiha"}, {"business_status": "OPERATIONAL", "geometry": {"location": {"lat": 23.8856081, "lng": 86.2770711}, "viewport": {"northeast": {"lat": 23.8869378802915, "lng": 86.2784146802915}, "southwest": {"lat": 23.8842399197085, "lng": 86.2757167197085}}}, "icon": "https://maps.gstatic.com/mapfiles/place_api/icons/v1/png_71/school-71.png", "icon_background_color": "#7B9EB0", "icon_mask_base_uri": "https://maps.gstatic.com/mapfiles/place_api/icons/v2/school_pinlet", "name": "Nepaidih More", "opening_hours": {"open_now": true}, "place_id": "ChIJOUFwA8Cn9jkRTFhOkgNWGCE", "plus_code": {"compound_code": "V7PG+6R Nepaidih, Jharkhand, India", "global_code": "7MM8V7PG+6R"}, "rating": 5, "reference": "ChIJOUFwA8Cn9jkRTFhOkgNWGCE", "scope": "GOOGLE", "types": ["school", "point_of_interest", "establishment"], "user_ratings_total": 2, "vicinity": "National Highway 19, Nepaidih"}, {"business_status": "OPERATIONAL", "geometry": {"location": {"lat": 23.8901424, "lng": 86.25433269999999}, "viewport": {"northeast": {"lat": 23.8914153302915, "lng": 86.2557362802915}, "southwest": {"lat": 23.88871736970849, "lng": 86.25303831970848}}}, "icon": "https://maps.gstatic.com/mapfiles/place_api/icons/v1/png_71/school-71.png", "icon_background_color": "#7B9EB0", "icon_mask_base_uri": "https://maps.gstatic.com/mapfiles/place_api/icons/v2/school_pinlet", "name": "Masjid Taqwa", "place_id": "ChIJN8PPfsMd9DkRCXLVrQ129DA", "plus_code": {"compound_code": "V7R3+3P Belatanr, Jharkhand, India", "global_code": "7MM8V7R3+3P"}, "rating": 5, "reference": "ChIJN8PPfsMd9DkRCXLVrQ129DA", "scope": "GOOGLE", "types": ["school", "point_of_interest", "establishment"], "user_ratings_total": 1, "vicinity": "NH2, Belatanr"}, {"business_status": "OPERATIONAL", "geometry": {"location": {"lat": 23.8818824, "lng": 86.27698629999999}, "viewport": {"northeast": {"lat": 23.88321918029151, "lng": 86.2783723802915}, "southwest": {"lat": 23.8805212197085, "lng": 86.27567441970848}}}, "icon": "https://maps.gstatic.com/mapfiles/place_api/icons/v1/png_71/school-71.png", "icon_background_color": "#7B9EB0", "icon_mask_base_uri": "https://maps.gstatic.com/mapfiles/place_api/icons/v2/school_pinlet", "name": "\u0906\u0902\u0917\u0928\u092c\u093e\u0921\u093c\u0940 \u0915\u0947\u0928\u094d\u0926\u094d\u0930 \u0928\u0947\u092a\u0908\u0921\u0940\u0939", "photos": [{"height": 1023, "html_attributions": ["<a href=\"https://maps.google.com/maps/contrib/117968546654299376547\">Abhi Raj</a>"], "photo_reference": "Aap_uEBpuJHajVW4t3F-K432RwPZqowvWN0mSAAaAmZUX9myXsp-iTD9B-VZ2hUumpNXXIhUBPCtvNjjATV1LWXOLKErgEvCOkBpWtZT_cIDz3Tp0YWZLPgstMonxqBKk7fMU7dBUSfeTtHQ_tiN06b6cjDjEW_-SDetS9Z0SkAxfHceTM7g", "width": 1496}], "place_id": "ChIJ3Y_yNSmn9jkREl-e0-KEjY0", "reference": "ChIJ3Y_yNSmn9jkREl-e0-KEjY0", "scope": "GOOGLE", "types": ["school", "point_of_interest", "establishment"], "vicinity": "V7JG+QQ5, Nepaidih"}, {"business_status": "OPERATIONAL", "geometry": {"location": {"lat": 23.8818671, "lng": 86.2769762}, "viewport": {"northeast": {"lat": 23.8832032802915, "lng": 86.27836413029151}, "southwest": {"lat": 23.8805053197085, "lng": 86.2756661697085}}}, "icon": "https://maps.gstatic.com/mapfiles/place_api/icons/v1/png_71/school-71.png", "icon_background_color": "#7B9EB0", "icon_mask_base_uri": "https://maps.gstatic.com/mapfiles/place_api/icons/v2/school_pinlet", "name": "Aanganbadi kendra Nepaidih", "place_id": "ChIJA2e4JXin9jkRv3gOIEaitXs", "reference": "ChIJA2e4JXin9jkRv3gOIEaitXs", "scope": "GOOGLE", "types": ["school", "point_of_interest", "establishment"], "vicinity": "V7JG+PQX, Nepaidih"}, {"business_status": "OPERATIONAL", "geometry": {"location": {"lat": 23.8994891, "lng": 86.2587841}, "viewport": {"northeast": {"lat": 23.9009006802915, "lng": 86.26012588029151}, "southwest": {"lat": 23.8982027197085, "lng": 86.2574279197085}}}, "icon": "https://maps.gstatic.com/mapfiles/place_api/icons/v1/png_71/school-71.png", "icon_background_color": "#7B9EB0", "icon_mask_base_uri": "https://maps.gstatic.com/mapfiles/place_api/icons/v2/school_pinlet", "name": "jama masjid", "photos": [{"height": 2592, "html_attributions": ["<a href=\"https://maps.google.com/maps/contrib/100088830024148105355\">Sh Munna</a>"], "photo_reference": "Aap_uECRfkVZRuwy1UaMABiL10fA5V1BDtqrSAPX4bjE079tZQLOwzmpd4YvanfpC8YzpHufqDl6uojAzAYDOoF63H2GvIGjmW4f0kRX2-tCTzwAj5hI3AnzbLtVEBwMO50UPmmMSwBBB3us8jCe_kPwEMCqexDu0tHuDyJECh9kUNorh6oF", "width": 1944}], "place_id": "ChIJ17dD__in9jkRsxKQ2RkDejI", "rating": 4, "reference": "ChIJ17dD__in9jkRsxKQ2RkDejI", "scope": "GOOGLE", "types": ["school", "point_of_interest", "establishment"], "user_ratings_total": 1, "vicinity": "V7X5+QGV, Lokbad"}, {"business_status": "OPERATIONAL", "geometry": {"location": {"lat": 23.8848552, "lng": 86.27888589999999}, "viewport": {"northeast": {"lat": 23.8863759802915, "lng": 86.2802811302915}, "southwest": {"lat": 23.8836780197085, "lng": 86.27758316970848}}}, "icon": "https://maps.gstatic.com/mapfiles/place_api/icons/v1/png_71/school-71.png", "icon_background_color": "#7B9EB0", "icon_mask_base_uri": "https://maps.gstatic.com/mapfiles/place_api/icons/v2/school_pinlet", "name": "Upgaraded High School Kotaladda Topchanchi", "photos": [{"height": 632, "html_attributions": ["<a href=\"https://maps.google.com/maps/contrib/106332051434634223928\">Karan Paswan</a>"], "photo_reference": "Aap_uEA8yzYDvkQ9zNGJyP-DfvHtWEZY-JYgV4_xOqSEqT8UfHX5kITzoSfzs_-mW_kz7x2ETJ6fRnVdvFKPiFmJuDWdu0aH7agQugc9DH5GDaVzopcSiOpsUCRg56wMX_rdxdnQsFF9Ozdol5QFHuPxe6dyezrutMquBTKtBZVvNSa8Mm45", "width": 474}], "place_id": "ChIJLzj8hr-n9jkRd6bXEjydVnA", "rating": 5, "reference": "ChIJLzj8hr-n9jkRd6bXEjydVnA", "scope": "GOOGLE", "types": ["school", "point_of_interest", "establishment"], "user_ratings_total": 1, "vicinity": "V7MH+WHR, Brahmandiha"}], "status": "OK"}