{"html_attributions": [], "next_page_token": "Aap_uEDaDeoj6VSbXS0uM-HiVWRDwNMDicCXt4QeSiOCQs9rEQ2oGpH7fVDymty2KwpYqZTm4TbKUwUtX2QsDe7mWrGJQLgCAld7IuiJIBOLh12IFWbc-NY0axxh4vXUmzoiHX9Uzp0pfE_7vNnKFbvzAT05CSqY-pxNV_2H-McpsaudjsNdx8WpG1s4punaXJuMg5t1RPcPzdt70lCUriprGGCckEfMgrFjNdAOYIcahDRmL1Tkcjh7zm9inEyZ8TZR8LQzBg8Hb_Qm956PQxFGNMu_rL0B_fkW1iBlYzHFWrOAxFxAxsYiSTD_XiIdu_fOnB6rwYcntdJGTGDJS8sAzALm0ae8XoBHwIETtIhDb362zZK2jZiqucc1uKaMMKVdgD-wu1eF1JUim2oXyFWkUdMFtHFI3YZ5bd9v9EEFuzDhWIQnqKw", "results": [{"business_status": "OPERATIONAL", "geometry": {"location": {"lat": 23.8131418, "lng": 86.291142}, "viewport": {"northeast": {"lat": 23.8144021802915, "lng": 86.29243768029151}, "southwest": {"lat": 23.8117042197085, "lng": 86.28973971970849}}}, "icon": "https://maps.gstatic.com/mapfiles/place_api/icons/v1/png_71/school-71.png", "icon_background_color": "#7B9EB0", "icon_mask_base_uri": "https://maps.gstatic.com/mapfiles/place_api/icons/v2/school_pinlet", "name": "Post office road, Post Katras Bazar, Rajendra Balika Uchha Vidyalaya", "place_id": "ChIJG9eRndSg9jkREemBHr6SLzI", "plus_code": {"compound_code": "R77R+7F Katras, Jharkhand, India", "global_code": "7MM8R77R+7F"}, "rating": 3.3, "reference": "ChIJG9eRndSg9jkREemBHr6SLzI", "scope": "GOOGLE", "types": ["school", "point_of_interest", "establishment"], "user_ratings_total": 6, "vicinity": "Post office gali, Rajgarhia Road, Katras"}, {"business_status": "OPERATIONAL", "geometry": {"location": {"lat": 23.8117099, "lng": 86.29445779999999}, "viewport": {"northeast": {"lat": 23.8130701302915, "lng": 86.2957588302915}, "southwest": {"lat": 23.8103721697085, "lng": 86.2930608697085}}}, "icon": "https://maps.gstatic.com/mapfiles/place_api/icons/v1/png_71/school-71.png", "icon_background_color": "#7B9EB0", "icon_mask_base_uri": "https://maps.gstatic.com/mapfiles/place_api/icons/v2/school_pinlet", "name": "Little Bachpan", "opening_hours": {"open_now": false}, "photos": [{"height": 4128, "html_attributions": ["<a href=\"https://maps.google.com/maps/contrib/116850844187200227794\">soma roy</a>"], "photo_reference": "Aap_uEAhLBjpLA7vh2nkCz--OUBKc3yJ78d4Rt9V_AXVSWlSn1TRTaBjAfJozddvMe_ZZLHJpFtwdjsN6ybzklFYu3r59rUbgifkUOwnxI1yVO3xDC8sFZQAH6_SpJkiiX0RcObS04rFVZXudH7T9JZQHiyhUUyF5btSGaQ9-ocNxnCPYIxE", "width": 2322}], "place_id": "ChIJVUuqItSg9jkR6BhkEMQlCRE", "plus_code": {"compound_code": "R76V+MQ Dhanbad, Jharkhand, India", "global_code": "7MM8R76V+MQ"}, "rating": 3, "reference": "ChIJVUuqItSg9jkR6BhkEMQlCRE", "scope": "GOOGLE", "types": ["school", "point_of_interest", "establishment"], "user_ratings_total": 1, "vicinity": "Near : LIC office,Katras Bazar ,Dhanbad, Dhanbad"}, {"business_status": "OPERATIONAL", "geometry": {"location": {"lat": 23.8147106, "lng": 86.2925808}, "viewport": {"northeast": {"lat": 23.8160591302915, "lng": 86.29392833029151}, "southwest": {"lat": 23.8133611697085, "lng": 86.2912303697085}}}, "icon": "https://maps.gstatic.com/mapfiles/place_api/icons/v1/png_71/school-71.png", "icon_background_color": "#7B9EB0", "icon_mask_base_uri": "https://maps.gstatic.com/mapfiles/place_api/icons/v2/school_pinlet", "name": "Personality Development Classes", "opening_hours": {"open_now": true}, "place_id": "ChIJNQg4UCun9jkRzJrCl-d2S3w", "plus_code": {"compound_code": "R77V+V2 Katras, Jharkhand, India", "global_code": "7MM8R77V+V2"}, "rating": 5, "reference": "ChIJNQg4UCun9jkRzJrCl-d2S3w", "scope": "GOOGLE", "types": ["school", "point_of_interest", "establishment"], "user_ratings_total": 2, "vicinity": "Rajganj Road, Katras"}, {"business_status": "OPERATIONAL", "geometry": {"location": {"lat": 23.81940449999999, "lng": 86.29171389999999}, "viewport": {"northeast": {"lat": 23.8206137302915, "lng": 86.29300423029149}, "southwest": {"lat": 23.8179157697085, "lng": 86.29030626970848}}}, "icon": "https://maps.gstatic.com/mapfiles/place_api/icons/v1/png_71/school-71.png", "icon_background_color": "#7B9EB0", "icon_mask_base_uri": "https://maps.gstatic.com/mapfiles/place_api/icons/v2/school_pinlet", "name": "Competition Public School", "place_id": "ChIJH0d2Biyn9jkRPBc2_tUkxpw", "plus_code": {"compound_code": "R79R+QM Katras, Jharkhand, India", "global_code": "7MM8R79R+QM"}, "rating": 2.7, "reference": "ChIJH0d2Biyn9jkRPBc2_tUkxpw", "scope": "GOOGLE", "types": ["school", "point_of_interest", "establishment"], "user_ratings_total": 14, "vicinity": "Hirak Road, Katras Bazar, Katras"}, {"business_status": "OPERATIONAL", "geometry": {"location": {"lat": 23.8206657, "lng": 86.28056699999999}, "viewport": {"northeast": {"lat": 23.8222003802915, "lng": 86.28190418029149}, "southwest": {"lat": 23.81950241970849, "lng": 86.27920621970848}}}, "icon": "https://maps.gstatic.com/mapfiles/place_api/icons/v1/png_71/school-71.png", "icon_background_color": "#7B9EB0", "icon_mask_base_uri": "https://maps.gstatic.com/mapfiles/place_api/icons/v2/school_pinlet", "name": "Saraswati Shishu Mandir", "opening_hours": {"open_now": false}, "photos": [{"height": 1872, "html_attributions": ["<a href=\"https://maps.google.com/maps/contrib/111741815157977275931\">Sameer Mishra</a>"], "photo_reference": "Aap_uEAQX47OrCkVGA1UgNAvsnEB3_uZIy3RYal5UIMZf3Tk7nJPDg8-WqdA-TVwI20s2FdVM1rIwbkCvxph7PCddEeGDJDiwwD9WP_YRcd6KwgyHJuXoyEjpq1hHe8cbe7rmNIOmS6630Q6II6WjxfWdYhbNnKw1ZrTjj6OiouxgTEYD7l5", "width": 3328}], "place_id": "ChIJOQbosTan9jkRuuHfa1uMJA0", "plus_code": {"compound_code": "R7CJ+76 Katras, Jharkhand, India", "global_code": "7MM8R7CJ+76"}, "rating": 4.1, "reference": "ChIJOQbosTan9jkRuuHfa1uMJA0", "scope": "GOOGLE", "types": ["school", "point_of_interest", "establishment"], "user_ratings_total": 61, "vicinity": "shyamdih,katrasbazar"}, {"business_status": "OPERATIONAL", "geometry": {"location": {"lat": 23.8115305, "lng": 86.2876993}, "viewport": {"northeast": {"lat": 23.8128785802915, "lng": 86.2890454302915}, "southwest": {"lat": 23.81018061970849, "lng": 86.28634746970849}}}, "icon": "https://maps.gstatic.com/mapfiles/place_api/icons/v1/png_71/school-71.png", "icon_background_color": "#7B9EB0", "icon_mask_base_uri": "https://maps.gstatic.com/mapfiles/place_api/icons/v2/school_pinlet", "name": "ST. ANTHONY'S SCHOOL", "opening_hours": {"open_now": false}, "photos": [{"height": 2448, "html_attributions": ["<a href=\"https://maps.google.com/maps/contrib/103376005094401133239\">Vivekkumar Lala</a>"], "photo_reference": "Aap_uEBT7kdhxViES7NGASSyAkS9lnfw9Ux4R8Uw5ax8417zNmvhOhbi_FK4vQ0_d492mmcSDaLeEv_JFsa826j8kFWzsWm-WKaYwLxlPhsXqCdQ1TAU78WXol6Tlzw4-5HJY2-DyT3ySHHHXzZP0Bw1nrHj8HQdUInzpr3cyYJVlgrKCw9U", "width": 3264}], "place_id": "ChIJN-gPj9Kg9jkRQthTMlD-j2w", "rating": 4, "reference": "ChIJN-gPj9Kg9jkRQthTMlD-j2w", "scope": "GOOGLE", "types": ["school", "point_of_interest", "establishment"], "user_ratings_total": 4, "vicinity": "R76Q+J38, Katras"}, {"business_status": "OPERATIONAL", "geometry": {"location": {"lat": 23.8119673, "lng": 86.2872541}, "viewport": {"northeast": {"lat": 23.8132665302915, "lng": 86.28863878029149}, "southwest": {"lat": 23.8105685697085, "lng": 86.28594081970849}}}, "icon": "https://maps.gstatic.com/mapfiles/place_api/icons/v1/png_71/school-71.png", "icon_background_color": "#7B9EB0", "icon_mask_base_uri": "https://maps.gstatic.com/mapfiles/place_api/icons/v2/school_pinlet", "name": "Falcon mission school & coaching centre", "place_id": "ChIJI3-LMJmh9jkRjH-2M74wQUE", "reference": "ChIJI3-LMJmh9jkRjH-2M74wQUE", "scope": "GOOGLE", "types": ["primary_school", "school", "point_of_interest", "establishment"], "vicinity": "R76P+QWJ, Katras"}, {"business_status": "OPERATIONAL", "geometry": {"location": {"lat": 23.8127537, "lng": 86.28368929999999}, "viewport": {"northeast": {"lat": 23.8138241802915, "lng": 86.2850552302915}, "southwest": {"lat": 23.81112621970849, "lng": 86.28235726970848}}}, "icon": "https://maps.gstatic.com/mapfiles/place_api/icons/v1/png_71/school-71.png", "icon_background_color": "#7B9EB0", "icon_mask_base_uri": "https://maps.gstatic.com/mapfiles/place_api/icons/v2/school_pinlet", "name": "Education", "opening_hours": {"open_now": false}, "photos": [{"height": 809, "html_attributions": ["<a href=\"https://maps.google.com/maps/contrib/112035762922527278728\">Education</a>"], "photo_reference": "Aap_uECu_PH7OfJZcoxFskoSr5TA1-ay4sa9UjQeMYGQEc2afzUv818GhjExAUJUm0ww7V7OnIkkfRcfEaWGftUj1tm2Pm6gnZ-MeZK_Dxw_J6d9bttQ6iJi_hNU6G_RSDLBZmweS4iItidD3v3jRQKWsxJvGxlp3gd7HwlcS1LJBfrABO-8", "width": 1440}], "place_id": "ChIJKUqD6PKh9jkR0ZFaNR5ReN0", "plus_code": {"compound_code": "R77M+4F Alagdiha, Jharkhand, India", "global_code": "7MM8R77M+4F"}, "reference": "ChIJKUqD6PKh9jkR0ZFaNR5ReN0", "scope": "GOOGLE", "types": ["school", "point_of_interest", "establishment"], "vicinity": "Bazar, Katras, Alagdiha"}, {"business_status": "OPERATIONAL", "geometry": {"location": {"lat": 23.813873, "lng": 86.2858117}, "viewport": {"northeast": {"lat": 23.81510443029151, "lng": 86.28712133029151}, "southwest": {"lat": 23.8124064697085, "lng": 86.2844233697085}}}, "icon": "https://maps.gstatic.com/mapfiles/place_api/icons/v1/png_71/school-71.png", "icon_background_color": "#7B9EB0", "icon_mask_base_uri": "https://maps.gstatic.com/mapfiles/place_api/icons/v2/school_pinlet", "name": "Nitin Vishwakarma", "place_id": "ChIJSet_GGuh9jkR2LeWtqDxH64", "reference": "ChIJSet_GGuh9jkR2LeWtqDxH64", "scope": "GOOGLE", "types": ["school", "point_of_interest", "establishment"], "vicinity": "R77P+G8V, Katras"}, {"business_status": "OPERATIONAL", "geometry": {"location": {"lat": 23.8137329, "lng": 86.28467820000002}, "viewport": {"northeast": {"lat": 23.8150543302915, "lng": 86.2860147802915}, "southwest": {"lat": 23.8123563697085, "lng": 86.28331681970849}}}, "icon": "https://maps.gstatic.com/mapfiles/place_api/icons/v1/png_71/school-71.png", "icon_background_color": "#7B9EB0", "icon_mask_base_uri": "https://maps.gstatic.com/mapfiles/place_api/icons/v2/school_pinlet", "name": "Sishu mandir school", "place_id": "ChIJ72GU1tGh9jkR4L65NbqcsU4", "plus_code": {"compound_code": "R77M+FV Alagdiha, Jharkhand, India", "global_code": "7MM8R77M+FV"}, "reference": "ChIJ72GU1tGh9jkR4L65NbqcsU4", "scope": "GOOGLE", "types": ["school", "point_of_interest", "establishment"], "vicinity": "Alagdiha"}, {"business_status": "OPERATIONAL", "geometry": {"location": {"lat": 23.812712, "lng": 86.28966899999999}, "viewport": {"northeast": {"lat": 23.8140418302915, "lng": 86.29109903029149}, "southwest": {"lat": 23.8113438697085, "lng": 86.28840106970848}}}, "icon": "https://maps.gstatic.com/mapfiles/place_api/icons/v1/png_71/school-71.png", "icon_background_color": "#7B9EB0", "icon_mask_base_uri": "https://maps.gstatic.com/mapfiles/place_api/icons/v2/school_pinlet", "name": "Gandhi Harijan School", "place_id": "ChIJk1KpIdOg9jkRT-ReWR9Gmb0", "rating": 3.5, "reference": "ChIJk1KpIdOg9jkRT-ReWR9Gmb0", "scope": "GOOGLE", "types": ["school", "point_of_interest", "establishment"], "user_ratings_total": 2, "vicinity": "R77Q+3VM, Katras"}, {"business_status": "OPERATIONAL", "geometry": {"location": {"lat": 23.8071965, "lng": 86.28062969999999}, "viewport": {"northeast": {"lat": 23.8085060802915, "lng": 86.28202513029149}, "southwest": {"lat": 23.8058081197085, "lng": 86.27932716970848}}}, "icon": "https://maps.gstatic.com/mapfiles/place_api/icons/v1/png_71/school-71.png", "icon_background_color": "#7B9EB0", "icon_mask_base_uri": "https://maps.gstatic.com/mapfiles/place_api/icons/v2/school_pinlet", "name": "Ambedkar Madhya Vidyalaya", "photos": [{"height": 3096, "html_attributions": ["<a href=\"https://maps.google.com/maps/contrib/111846407484349999188\">Jiyaul Ansari</a>"], "photo_reference": "Aap_uEAXXWbOJl_-TboYfm2wf1Vfb8derowSch-P42G6VhT93M3ttWvnMbA2CImlt7ztxEY_m6y_t2mjXoN_qbHJOOos8lyuMDUHXoVT9Ct5GYYPaq7ChXbawdfe_IqSsj6j9fVlel2wiEHosvNkLcYdnJXQXR7ghF98QNg0xiDEztIk8nr_", "width": 4128}], "place_id": "ChIJwd7UCC6h9jkRtzoC_qqWEiY", "plus_code": {"compound_code": "R74J+V7 Jamua, Jharkhand, India", "global_code": "7MM8R74J+V7"}, "rating": 5, "reference": "ChIJwd7UCC6h9jkRtzoC_qqWEiY", "scope": "GOOGLE", "types": ["school", "point_of_interest", "establishment"], "user_ratings_total": 1, "vicinity": "Ambedkar Nagar 4no, Katras, Jamua"}, {"business_status": "OPERATIONAL", "geometry": {"location": {"lat": 23.80720849999999, "lng": 86.2805985}, "viewport": {"northeast": {"lat": 23.8085120802915, "lng": 86.2820095302915}, "southwest": {"lat": 23.80581411970849, "lng": 86.27931156970848}}}, "icon": "https://maps.gstatic.com/mapfiles/place_api/icons/v1/png_71/school-71.png", "icon_background_color": "#7B9EB0", "icon_mask_base_uri": "https://maps.gstatic.com/mapfiles/place_api/icons/v2/school_pinlet", "name": "Ambedkar Middle School", "photos": [{"height": 3120, "html_attributions": ["<a href=\"https://maps.google.com/maps/contrib/116171023267844223926\">Shabnam Khatoon</a>"], "photo_reference": "Aap_uECxWLXkqb7uewzN1WO2C3pV57DbFUh0JYRUYtCB751I38u8FJa6qVLOZnrPcAtoZWxUIuLQcQ4v5WIHSsHkr2WBJtHw0p-IYVf9DJ50Dmx89hUoDgpBC-XcwZ1ZIAOmHrhL_D8zMztZyh2bCHuzNI9MLUUuP1xU9JWxjIw9lWyiadly", "width": 4160}], "place_id": "ChIJr9FBLVih9jkRgoWFfqW5Dag", "plus_code": {"compound_code": "R74J+V6 Jamua, Jharkhand, India", "global_code": "7MM8R74J+V6"}, "rating": 4.3, "reference": "ChIJr9FBLVih9jkRgoWFfqW5Dag", "scope": "GOOGLE", "types": ["school", "point_of_interest", "establishment"], "user_ratings_total": 4, "vicinity": "Akash Kinari 4no, Katras, Jamua"}, {"business_status": "OPERATIONAL", "geometry": {"location": {"lat": 23.81223199999999, "lng": 86.290768}, "viewport": {"northeast": {"lat": 23.8138116302915, "lng": 86.29212658029151}, "southwest": {"lat": 23.8111136697085, "lng": 86.2894286197085}}}, "icon": "https://maps.gstatic.com/mapfiles/place_api/icons/v1/png_71/school-71.png", "icon_background_color": "#7B9EB0", "icon_mask_base_uri": "https://maps.gstatic.com/mapfiles/place_api/icons/v2/school_pinlet", "name": "Gandhi Harizan Madhya Vidyalaya", "place_id": "ChIJJZ9Ta9Og9jkRd6ah_nrdJ2g", "plus_code": {"compound_code": "R76R+V8 Katras, Jharkhand, India", "global_code": "7MM8R76R+V8"}, "reference": "ChIJJZ9Ta9Og9jkRd6ah_nrdJ2g", "scope": "GOOGLE", "types": ["school", "point_of_interest", "establishment"], "vicinity": "Vishwakarma Tola Road, Katras"}, {"business_status": "OPERATIONAL", "geometry": {"location": {"lat": 23.8081498, "lng": 86.2920255}, "viewport": {"northeast": {"lat": 23.8092719802915, "lng": 86.2936263302915}, "southwest": {"lat": 23.8065740197085, "lng": 86.2909283697085}}}, "icon": "https://maps.gstatic.com/mapfiles/place_api/icons/v1/png_71/school-71.png", "icon_background_color": "#7B9EB0", "icon_mask_base_uri": "https://maps.gstatic.com/mapfiles/place_api/icons/v2/school_pinlet", "name": "Saraswati Vidya Mandir ,Katras", "place_id": "ChIJVVVVVdGg9jkRXNkenffAm6Q", "rating": 5, "reference": "ChIJVVVVVdGg9jkRXNkenffAm6Q", "scope": "GOOGLE", "types": ["school", "point_of_interest", "establishment"], "user_ratings_total": 1, "vicinity": "R75R+7R2, Katras"}, {"business_status": "OPERATIONAL", "geometry": {"location": {"lat": 23.81232829999999, "lng": 86.29205689999999}, "viewport": {"northeast": {"lat": 23.8137645802915, "lng": 86.2934229802915}, "southwest": {"lat": 23.81106661970849, "lng": 86.29072501970849}}}, "icon": "https://maps.gstatic.com/mapfiles/place_api/icons/v1/png_71/school-71.png", "icon_background_color": "#7B9EB0", "icon_mask_base_uri": "https://maps.gstatic.com/mapfiles/place_api/icons/v2/school_pinlet", "name": "Rajendra Kanya Vidyalaya", "place_id": "ChIJUyX-GNOg9jkRHLMkmU5orIk", "rating": 5, "reference": "ChIJUyX-GNOg9jkRHLMkmU5orIk", "scope": "GOOGLE", "types": ["school", "point_of_interest", "establishment"], "user_ratings_total": 2, "vicinity": "R76R+WRM, Katras"}, {"business_status": "OPERATIONAL", "geometry": {"location": {"lat": 23.80820139999999, "lng": 86.2936428}, "viewport": {"northeast": {"lat": 23.8094851802915, "lng": 86.2949826302915}, "southwest": {"lat": 23.80678721970849, "lng": 86.29228466970848}}}, "icon": "https://maps.gstatic.com/mapfiles/place_api/icons/v1/png_71/school-71.png", "icon_background_color": "#7B9EB0", "icon_mask_base_uri": "https://maps.gstatic.com/mapfiles/place_api/icons/v2/school_pinlet", "name": "Selected Govindpur Primary School", "place_id": "ChIJiQZXJ9Sg9jkRy2MdarHyPuo", "rating": 2.5, "reference": "ChIJiQZXJ9Sg9jkRy2MdarHyPuo", "scope": "GOOGLE", "types": ["primary_school", "school", "point_of_interest", "establishment"], "user_ratings_total": 2, "vicinity": "R75V+7FJ, selected, Govindpur, Katras"}, {"business_status": "OPERATIONAL", "geometry": {"location": {"lat": 23.8126191, "lng": 86.292857}, "viewport": {"northeast": {"lat": 23.8139723302915, "lng": 86.2942043302915}, "southwest": {"lat": 23.8112743697085, "lng": 86.29150636970849}}}, "icon": "https://maps.gstatic.com/mapfiles/place_api/icons/v1/png_71/school-71.png", "icon_background_color": "#7B9EB0", "icon_mask_base_uri": "https://maps.gstatic.com/mapfiles/place_api/icons/v2/school_pinlet", "name": "Prof. P.N. Pandey(Chunmun Sir) Commerce & Economics Classes", "opening_hours": {"open_now": false}, "place_id": "ChIJS076gNOh9jkRt24QS3_NvQQ", "plus_code": {"compound_code": "R77V+24 Katras, Jharkhand, India", "global_code": "7MM8R77V+24"}, "reference": "ChIJS076gNOh9jkRt24QS3_NvQQ", "scope": "GOOGLE", "types": ["school", "point_of_interest", "establishment"], "vicinity": "post office road, Katras"}, {"business_status": "OPERATIONAL", "geometry": {"location": {"lat": 23.8135372, "lng": 86.2921841}, "viewport": {"northeast": {"lat": 23.8150502302915, "lng": 86.2936408802915}, "southwest": {"lat": 23.8123522697085, "lng": 86.29094291970848}}}, "icon": "https://maps.gstatic.com/mapfiles/place_api/icons/v1/png_71/school-71.png", "icon_background_color": "#7B9EB0", "icon_mask_base_uri": "https://maps.gstatic.com/mapfiles/place_api/icons/v2/school_pinlet", "name": "Ganga Narayan Memorial High School", "opening_hours": {"open_now": false}, "photos": [{"height": 598, "html_attributions": ["<a href=\"https://maps.google.com/maps/contrib/114266371600226652435\">Aman Choursiya</a>"], "photo_reference": "Aap_uEAWOvfEowdu3RP5F7QbYZBz2G8xXydU0c_IOOTciugmGg-5IXRPk3qYkyb9i5Bcds2eYrlmyeFOhoo1HBEnbktphDc6f9QZ4RMxdB2k9HdNfetdVBqALDdUKdNnaYEVPjyJGo6OltdHOgOYuVcnIdzmPycwLLStg3-YQpJCXEQ5wgSJ", "width": 598}], "place_id": "ChIJLYQhVtOg9jkRWAqJugQwNxQ", "plus_code": {"compound_code": "R77R+CV Katras, Jharkhand, India", "global_code": "7MM8R77R+CV"}, "rating": 4.7, "reference": "ChIJLYQhVtOg9jkRWAqJugQwNxQ", "scope": "GOOGLE", "types": ["school", "point_of_interest", "establishment"], "user_ratings_total": 14, "vicinity": "Katras"}, {"business_status": "OPERATIONAL", "geometry": {"location": {"lat": 23.801489, "lng": 86.2822946}, "viewport": {"northeast": {"lat": 23.8028105802915, "lng": 86.2837610302915}, "southwest": {"lat": 23.8001126197085, "lng": 86.2810630697085}}}, "icon": "https://maps.gstatic.com/mapfiles/place_api/icons/v1/png_71/school-71.png", "icon_background_color": "#7B9EB0", "icon_mask_base_uri": "https://maps.gstatic.com/mapfiles/place_api/icons/v2/school_pinlet", "name": "Rajkiya Madhya Vidyalaya", "place_id": "ChIJb1i5-8Wg9jkR-KrPIzC98f4", "plus_code": {"compound_code": "R72J+HW Bhatmurna, Jharkhand, India", "global_code": "7MM8R72J+HW"}, "rating": 4.7, "reference": "ChIJb1i5-8Wg9jkR-KrPIzC98f4", "scope": "GOOGLE", "types": ["school", "point_of_interest", "establishment"], "user_ratings_total": 3, "vicinity": "Main Road, Ketludhih, Katras, Dhanbad"}], "status": "OK"}