{"html_attributions": [], "results": [{"business_status": "OPERATIONAL", "geometry": {"location": {"lat": 23.6468012, "lng": 86.3125259}, "viewport": {"northeast": {"lat": 23.64800943029151, "lng": 86.3141505802915}, "southwest": {"lat": 23.6453114697085, "lng": 86.31145261970849}}}, "icon": "https://maps.gstatic.com/mapfiles/place_api/icons/v1/png_71/school-71.png", "icon_background_color": "#7B9EB0", "icon_mask_base_uri": "https://maps.gstatic.com/mapfiles/place_api/icons/v2/school_pinlet", "name": "Primary School Kochakhuli", "place_id": "ChIJN-XzN8Wf9jkRj6T3W3HWG5M", "plus_code": {"compound_code": "J8W7+P2 Silajuri, Jharkhand, India", "global_code": "7MM8J8W7+P2"}, "reference": "ChIJN-XzN8Wf9jkRj6T3W3HWG5M", "scope": "GOOGLE", "types": ["school", "point_of_interest", "establishment"], "vicinity": "Siyaljori Road, Silajuri"}, {"business_status": "OPERATIONAL", "geometry": {"location": {"lat": 23.6467604, "lng": 86.3132869}, "viewport": {"northeast": {"lat": 23.6481147302915, "lng": 86.31462753029152}, "southwest": {"lat": 23.6454167697085, "lng": 86.31192956970851}}}, "icon": "https://maps.gstatic.com/mapfiles/place_api/icons/v1/png_71/school-71.png", "icon_background_color": "#7B9EB0", "icon_mask_base_uri": "https://maps.gstatic.com/mapfiles/place_api/icons/v2/school_pinlet", "name": "Old SBM Public School Siyaljori", "place_id": "ChIJB3cRJnmf9jkRhc7Bvyz1reA", "reference": "ChIJB3cRJnmf9jkRhc7Bvyz1reA", "scope": "GOOGLE", "types": ["school", "point_of_interest", "establishment"], "vicinity": "J8W7+P83, Silajuri"}, {"business_status": "OPERATIONAL", "geometry": {"location": {"lat": 23.6544527, "lng": 86.3153087}, "viewport": {"northeast": {"lat": 23.6558312802915, "lng": 86.3166023302915}, "southwest": {"lat": 23.6531333197085, "lng": 86.3139043697085}}}, "icon": "https://maps.gstatic.com/mapfiles/place_api/icons/v1/png_71/school-71.png", "icon_background_color": "#7B9EB0", "icon_mask_base_uri": "https://maps.gstatic.com/mapfiles/place_api/icons/v2/school_pinlet", "name": "Nav Primary School Siyaljori (Dumarafula)", "opening_hours": {"open_now": false}, "place_id": "ChIJqRf6hume9jkRsUWpyamVVq0", "reference": "ChIJqRf6hume9jkRsUWpyamVVq0", "scope": "GOOGLE", "types": ["school", "point_of_interest", "establishment"], "vicinity": "M838+Q4M, Silajuri"}, {"business_status": "OPERATIONAL", "geometry": {"location": {"lat": 23.6551643, "lng": 86.3156805}, "viewport": {"northeast": {"lat": 23.65652883029151, "lng": 86.31700048029151}, "southwest": {"lat": 23.6538308697085, "lng": 86.3143025197085}}}, "icon": "https://maps.gstatic.com/mapfiles/place_api/icons/v1/png_71/school-71.png", "icon_background_color": "#7B9EB0", "icon_mask_base_uri": "https://maps.gstatic.com/mapfiles/place_api/icons/v2/school_pinlet", "name": "SBM Public School", "photos": [{"height": 3456, "html_attributions": ["<a href=\"https://maps.google.com/maps/contrib/107329827392280463709\">M Prasad</a>"], "photo_reference": "Aap_uEDXKr8sNm6vbu6BQaLDxxs6iH3HndnnaSQUFYmO34ByW_Ia1lxRLsqyyvX164ZxExSL1EJxgIQVTAlLCcHU-zAQn6uT71Ry3Vsmdlg84OGNTheQMb7noWrvzNv2WTPYLO_FU3L3urHO_z6nY_MTTPOeWo9Z9SNRhZgdrAFQ-v1b_LVP", "width": 4608}], "place_id": "ChIJA4T7kZuf9jkRYX_EMSMj0zI", "rating": 5, "reference": "ChIJA4T7kZuf9jkRYX_EMSMj0zI", "scope": "GOOGLE", "types": ["school", "point_of_interest", "establishment"], "user_ratings_total": 2, "vicinity": "M848+377, Silajuri"}, {"business_status": "OPERATIONAL", "geometry": {"location": {"lat": 23.644449, "lng": 86.29492189999999}, "viewport": {"northeast": {"lat": 23.6457977302915, "lng": 86.2962651302915}, "southwest": {"lat": 23.6430997697085, "lng": 86.2935671697085}}}, "icon": "https://maps.gstatic.com/mapfiles/place_api/icons/v1/png_71/school-71.png", "icon_background_color": "#7B9EB0", "icon_mask_base_uri": "https://maps.gstatic.com/mapfiles/place_api/icons/v2/school_pinlet", "name": "Bhagabandh Government School", "opening_hours": {"open_now": false}, "place_id": "ChIJAf0XnKef9jkRRlgPjr7Vd90", "reference": "ChIJAf0XnKef9jkRRlgPjr7Vd90", "scope": "GOOGLE", "types": ["primary_school", "school", "point_of_interest", "establishment"], "vicinity": "J7VV+QXF, Bhagabandh"}, {"business_status": "OPERATIONAL", "geometry": {"location": {"lat": 23.6442968, "lng": 86.29497769999999}, "viewport": {"northeast": {"lat": 23.6456519802915, "lng": 86.2963553302915}, "southwest": {"lat": 23.6429540197085, "lng": 86.2936573697085}}}, "icon": "https://maps.gstatic.com/mapfiles/place_api/icons/v1/png_71/school-71.png", "icon_background_color": "#7B9EB0", "icon_mask_base_uri": "https://maps.gstatic.com/mapfiles/place_api/icons/v2/school_pinlet", "name": "Ums Bhagabandh Chas2", "photos": [{"height": 3120, "html_attributions": ["<a href=\"https://maps.google.com/maps/contrib/108009442739751046189\">Rajkishor Mahato</a>"], "photo_reference": "Aap_uEB3C6uKPJY9Kyy-jLEPQ3Srl46wGUwQW0b12ALUsDuFnBsDwXWu5ASH1gyq5V2EDWhJlzmvczHJfZSHxa0TPXw4Jd_40ZMVZiYPu2y5uT32KhKIajFeQXp0OtRmYKwLoX0shtGlW6nG_BC6FDPVhJji3urJurG-LgqlipwyfhrRurLY", "width": 4160}], "place_id": "ChIJT5odr2Ge9jkRjBG3z2NT4ZQ", "plus_code": {"compound_code": "J7VV+PX Bhagabandh, Jharkhand, India", "global_code": "7MM8J7VV+PX"}, "rating": 5, "reference": "ChIJT5odr2Ge9jkRjBG3z2NT4ZQ", "scope": "GOOGLE", "types": ["school", "point_of_interest", "establishment"], "user_ratings_total": 1, "vicinity": "Bhagabandh"}], "status": "OK"}