{"html_attributions": [], "results": [{"business_status": "OPERATIONAL", "geometry": {"location": {"lat": 23.6657988, "lng": 86.30217359999999}, "viewport": {"northeast": {"lat": 23.6666382302915, "lng": 86.3033465302915}, "southwest": {"lat": 23.6639402697085, "lng": 86.30064856970849}}}, "icon": "https://maps.gstatic.com/mapfiles/place_api/icons/v1/png_71/school-71.png", "icon_background_color": "#7B9EB0", "icon_mask_base_uri": "https://maps.gstatic.com/mapfiles/place_api/icons/v2/school_pinlet", "name": "Vijay Kumar mahoto", "place_id": "ChIJRxWgwB2f9jkROwve-sN6XQM", "reference": "ChIJRxWgwB2f9jkROwve-sN6XQM", "scope": "GOOGLE", "types": ["school", "point_of_interest", "establishment"], "vicinity": "M882+8V7, Buribinor"}, {"business_status": "OPERATIONAL", "geometry": {"location": {"lat": 23.674674, "lng": 86.3095976}, "viewport": {"northeast": {"lat": 23.6760943302915, "lng": 86.31103858029151}, "southwest": {"lat": 23.67339636970849, "lng": 86.3083406197085}}}, "icon": "https://maps.gstatic.com/mapfiles/place_api/icons/v1/png_71/school-71.png", "icon_background_color": "#7B9EB0", "icon_mask_base_uri": "https://maps.gstatic.com/mapfiles/place_api/icons/v2/school_pinlet", "name": "Rajen Das Bat Binor", "place_id": "ChIJw5gDAR2f9jkRS0215Bc0RgY", "rating": 5, "reference": "ChIJw5gDAR2f9jkRS0215Bc0RgY", "scope": "GOOGLE", "types": ["school", "point_of_interest", "establishment"], "user_ratings_total": 1, "vicinity": "M8F5+VR9, Batbinor"}, {"business_status": "OPERATIONAL", "geometry": {"location": {"lat": 23.6655281, "lng": 86.3124756}, "viewport": {"northeast": {"lat": 23.6669438802915, "lng": 86.31374298029151}, "southwest": {"lat": 23.6642459197085, "lng": 86.3110450197085}}}, "icon": "https://maps.gstatic.com/mapfiles/place_api/icons/v1/png_71/school-71.png", "icon_background_color": "#7B9EB0", "icon_mask_base_uri": "https://maps.gstatic.com/mapfiles/place_api/icons/v2/school_pinlet", "name": "School pich", "photos": [{"height": 1920, "html_attributions": ["<a href=\"https://maps.google.com/maps/contrib/115498772472152965664\">MR BLACK 72</a>"], "photo_reference": "Aap_uEDhSOE-o2ThesVb0eqt7Zq2kS0PdukM_daRyCLUr3Js9mu6kH3xiolNulJKzzAsdPOIR-H0zaoQQRQd9BPb9NAt1gEscpDo-DcG6_IWrUZSr0nELM_Ww2ulkz9nqUkFJxc8pjc0yAbSCdDXF5H_Bpyd9LEqUHAvLwN0wXEomu2ILUdM", "width": 1080}], "place_id": "ChIJ57lPL_mf9jkR_Lo27Bu-Psc", "reference": "ChIJ57lPL_mf9jkR_Lo27Bu-Psc", "scope": "GOOGLE", "types": ["school", "point_of_interest", "establishment"], "vicinity": "M886+6X9, Chandaha"}, {"business_status": "OPERATIONAL", "geometry": {"location": {"lat": 23.675693, "lng": 86.3089773}, "viewport": {"northeast": {"lat": 23.6772183802915, "lng": 86.3102571302915}, "southwest": {"lat": 23.6745204197085, "lng": 86.30755916970848}}}, "icon": "https://maps.gstatic.com/mapfiles/place_api/icons/v1/png_71/school-71.png", "icon_background_color": "#7B9EB0", "icon_mask_base_uri": "https://maps.gstatic.com/mapfiles/place_api/icons/v2/school_pinlet", "name": "Batbinor Middle School", "photos": [{"height": 4160, "html_attributions": ["<a href=\"https://maps.google.com/maps/contrib/100633752457466963852\">MITHUN KUMAR BHARTI</a>"], "photo_reference": "Aap_uEBH5molMeEhHieVe12_p_trgmy99VUz23P5cOjyk8pr2usKWCK3IUHPw79vGHagohgJFZMHfX-tIQhul0oMGVpaPh5gjBGXbQ-5Ig4svPg1K8Kirk8A2iV-ZBg2sN2nJy_eLWamOyVLnA9nBc-VHKc_8YiD8hY-oDOO6le8lywiGOmf", "width": 3120}], "place_id": "ChIJsUZ07xyf9jkRu5AToBwjuGs", "plus_code": {"compound_code": "M8G5+7H Batbinor, Jharkhand, India", "global_code": "7MM8M8G5+7H"}, "rating": 3.7, "reference": "ChIJsUZ07xyf9jkRu5AToBwjuGs", "scope": "GOOGLE", "types": ["secondary_school", "school", "point_of_interest", "establishment"], "user_ratings_total": 6, "vicinity": "Chas - Talgaria Road, Batbinor"}, {"business_status": "OPERATIONAL", "geometry": {"location": {"lat": 23.664584, "lng": 86.3135879}, "viewport": {"northeast": {"lat": 23.6659181802915, "lng": 86.3149873302915}, "southwest": {"lat": 23.6632202197085, "lng": 86.3122893697085}}}, "icon": "https://maps.gstatic.com/mapfiles/place_api/icons/v1/png_71/school-71.png", "icon_background_color": "#7B9EB0", "icon_mask_base_uri": "https://maps.gstatic.com/mapfiles/place_api/icons/v2/school_pinlet", "name": "Rahul Kalindi Chandaha Jarkhand", "place_id": "ChIJv9R1n9Gf9jkRjEySJ2yjVAs", "plus_code": {"compound_code": "M877+RC Chandaha, Jharkhand, India", "global_code": "7MM8M877+RC"}, "reference": "ChIJv9R1n9Gf9jkRjEySJ2yjVAs", "scope": "GOOGLE", "types": ["school", "point_of_interest", "establishment"], "vicinity": "Chandaha"}, {"business_status": "OPERATIONAL", "geometry": {"location": {"lat": 23.6613388, "lng": 86.3136785}, "viewport": {"northeast": {"lat": 23.6627746302915, "lng": 86.3150710802915}, "southwest": {"lat": 23.66007666970849, "lng": 86.3123731197085}}}, "icon": "https://maps.gstatic.com/mapfiles/place_api/icons/v1/png_71/school-71.png", "icon_background_color": "#7B9EB0", "icon_mask_base_uri": "https://maps.gstatic.com/mapfiles/place_api/icons/v2/school_pinlet", "name": "\u092a\u094d\u0930\u093e\u0925\u092e\u093f\u0915 \u0938\u094d\u0915\u0942\u0932", "place_id": "ChIJ8fScPZif9jkRJ7EWE0-QVi4", "reference": "ChIJ8fScPZif9jkRJ7EWE0-QVi4", "scope": "GOOGLE", "types": ["school", "point_of_interest", "establishment"], "vicinity": "M867+GFM, Chandah"}], "status": "OK"}