{"html_attributions": [], "results": [{"business_status": "OPERATIONAL", "geometry": {"location": {"lat": 23.7784193, "lng": 86.2972333}, "viewport": {"northeast": {"lat": 23.7797361302915, "lng": 86.2985259802915}, "southwest": {"lat": 23.7770381697085, "lng": 86.2958280197085}}}, "icon": "https://maps.gstatic.com/mapfiles/place_api/icons/v1/png_71/school-71.png", "icon_background_color": "#7B9EB0", "icon_mask_base_uri": "https://maps.gstatic.com/mapfiles/place_api/icons/v2/school_pinlet", "name": "Mother Teresa Primary School", "opening_hours": {"open_now": false}, "place_id": "ChIJ5Uwox1yh9jkRtmxOPxnM4dw", "reference": "ChIJ5Uwox1yh9jkRtmxOPxnM4dw", "scope": "GOOGLE", "types": ["school", "point_of_interest", "establishment"], "vicinity": "Q7HW+9V9, Dhanbad"}, {"business_status": "OPERATIONAL", "geometry": {"location": {"lat": 23.7580092, "lng": 86.31230819999999}, "viewport": {"northeast": {"lat": 23.7594211302915, "lng": 86.31342228029149}, "southwest": {"lat": 23.7567231697085, "lng": 86.31072431970848}}}, "icon": "https://maps.gstatic.com/mapfiles/place_api/icons/v1/png_71/school-71.png", "icon_background_color": "#7B9EB0", "icon_mask_base_uri": "https://maps.gstatic.com/mapfiles/place_api/icons/v2/school_pinlet", "name": "Shanti Devi Ucchh Vidyalaya", "place_id": "ChIJ8Zg8gKSh9jkRuPgeolliXqs", "plus_code": {"compound_code": "Q856+6W Dhanbad, Jharkhand, India", "global_code": "7MM8Q856+6W"}, "reference": "ChIJ8Zg8gKSh9jkRuPgeolliXqs", "scope": "GOOGLE", "types": ["school", "point_of_interest", "establishment"], "vicinity": "Kapuria More, Kapuria, Dhanbad"}, {"business_status": "OPERATIONAL", "geometry": {"location": {"lat": 23.7568592, "lng": 86.30913489999999}, "viewport": {"northeast": {"lat": 23.7581962302915, "lng": 86.3104776302915}, "southwest": {"lat": 23.7554982697085, "lng": 86.3077796697085}}}, "icon": "https://maps.gstatic.com/mapfiles/place_api/icons/v1/png_71/school-71.png", "icon_background_color": "#7B9EB0", "icon_mask_base_uri": "https://maps.gstatic.com/mapfiles/place_api/icons/v2/school_pinlet", "name": "Fagu Mahato +2 School , Kapuria", "photos": [{"height": 3120, "html_attributions": ["<a href=\"https://maps.google.com/maps/contrib/104496655367393333760\">anup chakraborty</a>"], "photo_reference": "Aap_uEBS7O-CFcgyRLtRL4MpIQcXbxOjLmdEjrdy-LRK7xdfOEHu4tOlgWF9ZbNkP5ZWaoiVc9jYb-63UUuCYAlxL52jvBCDZAEpU8Nx0EUCNxoEonsJp5fr20MkwjRtcNW4PnpqCN8Ji7oEDxFI1XB9IDZlBfDCZ8LqM0TJxtLWsrxNxBt8", "width": 4160}], "place_id": "ChIJvT9eF6Wh9jkRCb_-KnlBVP0", "rating": 4.3, "reference": "ChIJvT9eF6Wh9jkRCb_-KnlBVP0", "scope": "GOOGLE", "types": ["school", "point_of_interest", "establishment"], "user_ratings_total": 7, "vicinity": "Q845+PMR, Kapuria"}, {"business_status": "OPERATIONAL", "geometry": {"location": {"lat": 23.7577849, "lng": 86.31229619999999}, "viewport": {"northeast": {"lat": 23.7589355802915, "lng": 86.3135496302915}, "southwest": {"lat": 23.7562376197085, "lng": 86.31085166970848}}}, "icon": "https://maps.gstatic.com/mapfiles/place_api/icons/v1/png_71/school-71.png", "icon_background_color": "#7B9EB0", "icon_mask_base_uri": "https://maps.gstatic.com/mapfiles/place_api/icons/v2/school_pinlet", "name": "Sarathi Devi High School", "photos": [{"height": 3440, "html_attributions": ["<a href=\"https://maps.google.com/maps/contrib/117323982815745570091\">G 63 \u0935\u093f\u0915\u093e\u0936 \u0915\u0941\u092e\u093e\u0930</a>"], "photo_reference": "Aap_uECXBiOXuELi9k8cWWdIDJ9cPg7hHInMPbJ_E8HAaPbnhfIojIU8ynC330V4wqzRcfOho5g1QnS9D5Wh5pFGZROQ4SCYTLhy-IWIh9JZppk7WMDXmHmhWb1IASXMmStJFcClXE_c1Q2ki-o5-wrYiI5ShQVRwK3bokkiTqB9cA_ZbqD3", "width": 4592}], "place_id": "ChIJp1z5gaSh9jkRTfPaDQDlqOI", "plus_code": {"compound_code": "Q856+4W Kapuria, Jharkhand, India", "global_code": "7MM8Q856+4W"}, "rating": 4.2, "reference": "ChIJp1z5gaSh9jkRTfPaDQDlqOI", "scope": "GOOGLE", "types": ["school", "point_of_interest", "establishment"], "user_ratings_total": 5, "vicinity": "National Highway 32, Kapuria"}], "status": "OK"}