{"html_attributions": [], "next_page_token": "Aap_uEAMQ4H0PAuCw1XhncE80oMBJYeGEavF9ne0P_FYKuQ0p22GMSznqNr1jyu62VGJ_mlGQjHkhvNPTmdNRih57xUCf1oP64GGxldHTk23WYNBLIE7lfOt0qwg7WfalU5QRF_U9AoN6L7uyYtyc3BvNRaS5nWrmn1FwxF-HVgqcv50DFH79xUg5t6ZEjLkT3sRNH5OxjD7x4rCp5bBoiphL2T14C8EO5JwJDurGDuILTtGXZN4d-6nXbDnA-AN_O1kHcMrSAm3t_MOaDKDSNonWIlW0gc32egIZkKC_FBDK02V9gTPy3h6fe9eRadJnZST3j6D0s1iBLnzsxsXDxgBnSFeRVLJqJwQ54wCTtDV6wAVX_B5170MvtAwz8-LTZ_K5TwpraVXbhyNUhf5RB2NvmZj1NqdW4uaJ474BnS21RWqzaEjCh0FcaolsUTpmlI5-suQ7ce7IpPxvhHyaZADfHTKNjYGQ2JMfv2IRsELedGR3lTWbC7ptmXMYYqyktcTypBBnBQV_1xL9swdP9uxFTp1AoJaILVPoFOg6ZNoljlVXWtsvMfx0q5vPqdcK3zcXysBZi2LxZ2bSlmGhU_U6LEEZGAGH3bH2ecW9gYl0qTWxwoVGbhG-Dd3QjK5pL4OoqWhcK4p", "results": [{"business_status": "OPERATIONAL", "geometry": {"location": {"lat": 23.7796425, "lng": 86.30578779999999}, "viewport": {"northeast": {"lat": 23.7810403802915, "lng": 86.30716083029151}, "southwest": {"lat": 23.7783424197085, "lng": 86.30446286970849}}}, "icon": "https://maps.gstatic.com/mapfiles/place_api/icons/v1/png_71/school-71.png", "icon_background_color": "#7B9EB0", "icon_mask_base_uri": "https://maps.gstatic.com/mapfiles/place_api/icons/v2/school_pinlet", "name": "pasitand primary school", "photos": [{"height": 2448, "html_attributions": ["<a href=\"https://maps.google.com/maps/contrib/103733038337523816998\">Ajay Mahato Akki Kalyanpur</a>"], "photo_reference": "Aap_uEDzp5a-LAqkzyAxglnlMyirUcwhCujoqUXYaVm7t3IC9GqjL_i7XrsPge9RzqkO6w5oCp5NhP8nXuNps5WQfgDQsYmm7C_XokIpynPbLAVlCjI43AKVRHLkxWkYGFmXE3faNMr6KY64l2MTzaQ2QsK9djl6GS5BS9ZqQww-dDwzXFi5", "width": 3264}], "place_id": "ChIJjw9Pxhqh9jkRI3lkBLqrWtg", "plus_code": {"compound_code": "Q8H4+V8 Kumarjuri, Jharkhand, India", "global_code": "7MM8Q8H4+V8"}, "rating": 4.1, "reference": "ChIJjw9Pxhqh9jkRI3lkBLqrWtg", "scope": "GOOGLE", "types": ["school", "point_of_interest", "establishment"], "user_ratings_total": 8, "vicinity": "828304, Dhanbad Road, Kumarjuri"}, {"business_status": "OPERATIONAL", "geometry": {"location": {"lat": 23.7983914, "lng": 86.30578039999999}, "viewport": {"northeast": {"lat": 23.7998626802915, "lng": 86.3071643802915}, "southwest": {"lat": 23.7971647197085, "lng": 86.30446641970849}}}, "icon": "https://maps.gstatic.com/mapfiles/place_api/icons/v1/png_71/school-71.png", "icon_background_color": "#7B9EB0", "icon_mask_base_uri": "https://maps.gstatic.com/mapfiles/place_api/icons/v2/school_pinlet", "name": "Ssm", "place_id": "ChIJv2jCYnSh9jkR20FvTY4DM1A", "plus_code": {"compound_code": "Q8X4+98 Katras, Jharkhand, India", "global_code": "7MM8Q8X4+98"}, "rating": 5, "reference": "ChIJv2jCYnSh9jkR20FvTY4DM1A", "scope": "GOOGLE", "types": ["school", "point_of_interest", "establishment"], "user_ratings_total": 1, "vicinity": "ShyamduhRoad, Katrasgarh, Katras"}, {"business_status": "OPERATIONAL", "geometry": {"location": {"lat": 23.7795483, "lng": 86.3061657}, "viewport": {"northeast": {"lat": 23.7809373802915, "lng": 86.3075301302915}, "southwest": {"lat": 23.7782394197085, "lng": 86.30483216970849}}}, "icon": "https://maps.gstatic.com/mapfiles/place_api/icons/v1/png_71/school-71.png", "icon_background_color": "#7B9EB0", "icon_mask_base_uri": "https://maps.gstatic.com/mapfiles/place_api/icons/v2/school_pinlet", "name": "Prathmik vidyalay pashitan", "place_id": "ChIJ5QXZdlSh9jkRJ4KGxjes6K4", "reference": "ChIJ5QXZdlSh9jkRJ4KGxjes6K4", "scope": "GOOGLE", "types": ["school", "point_of_interest", "establishment"], "vicinity": "Q8H4+RF7, Rampur"}, {"business_status": "OPERATIONAL", "geometry": {"location": {"lat": 23.7975867, "lng": 86.3008804}, "viewport": {"northeast": {"lat": 23.7988214802915, "lng": 86.3021979302915}, "southwest": {"lat": 23.79612351970849, "lng": 86.29949996970848}}}, "icon": "https://maps.gstatic.com/mapfiles/place_api/icons/v1/png_71/school-71.png", "icon_background_color": "#7B9EB0", "icon_mask_base_uri": "https://maps.gstatic.com/mapfiles/place_api/icons/v2/school_pinlet", "name": "Railway primary school", "place_id": "ChIJVcJqzzah9jkRMc647ApnFiM", "rating": 1, "reference": "ChIJVcJqzzah9jkRMc647ApnFiM", "scope": "GOOGLE", "types": ["school", "point_of_interest", "establishment"], "user_ratings_total": 1, "vicinity": "Q8X2+29J, Katras"}, {"business_status": "OPERATIONAL", "geometry": {"location": {"lat": 23.7987928, "lng": 86.304074}, "viewport": {"northeast": {"lat": 23.8001471302915, "lng": 86.3054213802915}, "southwest": {"lat": 23.7974491697085, "lng": 86.3027234197085}}}, "icon": "https://maps.gstatic.com/mapfiles/place_api/icons/v1/png_71/school-71.png", "icon_background_color": "#7B9EB0", "icon_mask_base_uri": "https://maps.gstatic.com/mapfiles/place_api/icons/v2/school_pinlet", "name": "Raj kumar saw", "place_id": "ChIJH39PQTOh9jkR0ZtglRaUlvU", "reference": "ChIJH39PQTOh9jkR0ZtglRaUlvU", "scope": "GOOGLE", "types": ["school", "point_of_interest", "establishment"], "vicinity": "Q8X3+GJ8, Katrasgarh, Katras"}, {"business_status": "OPERATIONAL", "geometry": {"location": {"lat": 23.7987928, "lng": 86.304074}, "viewport": {"northeast": {"lat": 23.8001471302915, "lng": 86.3054213802915}, "southwest": {"lat": 23.7974491697085, "lng": 86.3027234197085}}}, "icon": "https://maps.gstatic.com/mapfiles/place_api/icons/v1/png_71/school-71.png", "icon_background_color": "#7B9EB0", "icon_mask_base_uri": "https://maps.gstatic.com/mapfiles/place_api/icons/v2/school_pinlet", "name": "B. K .Roy High school", "place_id": "ChIJ20FFDZah9jkRjAOHgO5-DtA", "plus_code": {"compound_code": "Q8X3+GJ Katras, Jharkhand, India", "global_code": "7MM8Q8X3+GJ"}, "rating": 5, "reference": "ChIJ20FFDZah9jkRjAOHgO5-DtA", "scope": "GOOGLE", "types": ["school", "point_of_interest", "establishment"], "user_ratings_total": 1, "vicinity": "Panchgadhi, Katrasgarh, Katras"}, {"business_status": "OPERATIONAL", "geometry": {"location": {"lat": 23.7985623, "lng": 86.3024629}, "viewport": {"northeast": {"lat": 23.7998210802915, "lng": 86.3039300302915}, "southwest": {"lat": 23.7971231197085, "lng": 86.30123206970849}}}, "icon": "https://maps.gstatic.com/mapfiles/place_api/icons/v1/png_71/school-71.png", "icon_background_color": "#7B9EB0", "icon_mask_base_uri": "https://maps.gstatic.com/mapfiles/place_api/icons/v2/school_pinlet", "name": "B K Roy Memorial Girls High School", "opening_hours": {"open_now": false}, "photos": [{"height": 1280, "html_attributions": ["<a href=\"https://maps.google.com/maps/contrib/108131078417962617156\">BNT Information</a>"], "photo_reference": "Aap_uEBMq1qLRdem9fP7yQ0h2eXMdOkgWIis47xm8nE-IIrsT4V3sYswXvvV2VxacxwdpxoFrjC37XtFW00V4cp6VkVDc2ABY83e3X4qnLP1rsByNZ0O2pCfzroJoAEp77HzP6_ta6X9T7cneFS-fKPpO58WJzDFL_Kgws35KWO9AbhnV4l1", "width": 960}], "place_id": "ChIJr7Md8o6h9jkR-8x5EI4zaG8", "plus_code": {"compound_code": "Q8X2+CX Katras, Jharkhand, India", "global_code": "7MM8Q8X2+CX"}, "rating": 4, "reference": "ChIJr7Md8o6h9jkR-8x5EI4zaG8", "scope": "GOOGLE", "types": ["school", "point_of_interest", "establishment"], "user_ratings_total": 3, "vicinity": "Dhanbad Chhatabad Road, Katrasgarh, Katras"}, {"business_status": "OPERATIONAL", "geometry": {"location": {"lat": 23.79940329999999, "lng": 86.3063067}, "viewport": {"northeast": {"lat": 23.8007678302915, "lng": 86.3076500802915}, "southwest": {"lat": 23.7980698697085, "lng": 86.30495211970849}}}, "icon": "https://maps.gstatic.com/mapfiles/place_api/icons/v1/png_71/school-71.png", "icon_background_color": "#7B9EB0", "icon_mask_base_uri": "https://maps.gstatic.com/mapfiles/place_api/icons/v2/school_pinlet", "name": "Rupesh Rasion Dukan", "place_id": "ChIJu6jV2CSh9jkRvh2FAl4AhpQ", "reference": "ChIJu6jV2CSh9jkRvh2FAl4AhpQ", "scope": "GOOGLE", "types": ["school", "point_of_interest", "establishment"], "vicinity": "Q8X4+QG7, Katrasgarh, Katras"}, {"business_status": "OPERATIONAL", "geometry": {"location": {"lat": 23.781449, "lng": 86.2970485}, "viewport": {"northeast": {"lat": 23.7828558802915, "lng": 86.29849108029151}, "southwest": {"lat": 23.7801579197085, "lng": 86.2957931197085}}}, "icon": "https://maps.gstatic.com/mapfiles/place_api/icons/v1/png_71/school-71.png", "icon_background_color": "#7B9EB0", "icon_mask_base_uri": "https://maps.gstatic.com/mapfiles/place_api/icons/v2/school_pinlet", "name": "Bhubneswar Trigunait Memorial High School", "photos": [{"height": 960, "html_attributions": ["<a href=\"https://maps.google.com/maps/contrib/112146482108538084106\">Shivaay</a>"], "photo_reference": "Aap_uEBeKVx6b_mUyZ3d5EI-o0yZqyOpFDYMJUFpVVqOfbnTWpTl2G3Xegwm5yzkZ-IA5wqIy3TFpAmsX29sv7xSjhlSMoLsHa0FXIerk4bC3qLblGesbeVTSxBFKB9vEjivjn46TrJCrfkKgzQD5cd_Rw_603g6eBYQ1LAbe3dHyRXSAExs", "width": 1280}], "place_id": "ChIJVzYWgOKg9jkRSLEAMUD-5b4", "rating": 4.2, "reference": "ChIJVzYWgOKg9jkRSLEAMUD-5b4", "scope": "GOOGLE", "types": ["school", "point_of_interest", "establishment"], "user_ratings_total": 5, "vicinity": "Q7JW+HRF, Malkera"}, {"business_status": "OPERATIONAL", "geometry": {"location": {"lat": 23.7994032, "lng": 86.3012833}, "viewport": {"northeast": {"lat": 23.8008014302915, "lng": 86.30284703029152}, "southwest": {"lat": 23.7981034697085, "lng": 86.3001490697085}}}, "icon": "https://maps.gstatic.com/mapfiles/place_api/icons/v1/png_71/school-71.png", "icon_background_color": "#7B9EB0", "icon_mask_base_uri": "https://maps.gstatic.com/mapfiles/place_api/icons/v2/school_pinlet", "name": "D.A.V MIDDLE SCHOOL", "photos": [{"height": 1080, "html_attributions": ["<a href=\"https://maps.google.com/maps/contrib/108609430515420461179\">Sanjay Rawani</a>"], "photo_reference": "Aap_uEBvruBCn3DsBYByoxkkAZwnlX-XXEDygym4UO1BJPRFp2TiKeLCZ5MZjMGrQMnnpezbS4tMooI78_yPDd0PZ1cZExoxQft3uowxE9a2rQGXqENRwPqIcDCzk1uqhb1HqsDu96kRbiNvNqmg0T74PcI4o7U-m75cAW2mY-KpBdmo8muX", "width": 1920}], "place_id": "ChIJL6boiSah9jkRqoaERgDlVWM", "rating": 3, "reference": "ChIJL6boiSah9jkRqoaERgDlVWM", "scope": "GOOGLE", "types": ["school", "point_of_interest", "establishment"], "user_ratings_total": 4, "vicinity": "Q8X2+QG7, Katras"}, {"business_status": "OPERATIONAL", "geometry": {"location": {"lat": 23.7988557, "lng": 86.2999413}, "viewport": {"northeast": {"lat": 23.8002051802915, "lng": 86.3012850802915}, "southwest": {"lat": 23.7975072197085, "lng": 86.2985871197085}}}, "icon": "https://maps.gstatic.com/mapfiles/place_api/icons/v1/png_71/school-71.png", "icon_background_color": "#7B9EB0", "icon_mask_base_uri": "https://maps.gstatic.com/mapfiles/place_api/icons/v2/school_pinlet", "name": "Bloomy Tots", "opening_hours": {"open_now": false}, "photos": [{"height": 3000, "html_attributions": ["<a href=\"https://maps.google.com/maps/contrib/110574804437137640481\">Bloomy Tots</a>"], "photo_reference": "Aap_uECHd5cx-25TZFWPN_gYRFcQuUwSbnSBeGh--Ua-DcUJ3xg423ikHnn4EZ-7cd1Xj-3NXCneqtv61SzmZec-7WdGXfWhV96oxt0LlJxdcKirrjEzPpQQdQ9XZ50YuV-o8jMeeucFuuyOcu5mPqiwYqf6CJwlAEQEE5naPWccKvP1GX0s", "width": 4000}], "place_id": "ChIJtc2A_Cah9jkRhiomq66Uv2s", "plus_code": {"compound_code": "Q7XX+GX Dhanbad, Jharkhand, India", "global_code": "7MM8Q7XX+GX"}, "rating": 5, "reference": "ChIJtc2A_Cah9jkRhiomq66Uv2s", "scope": "GOOGLE", "types": ["school", "point_of_interest", "establishment"], "user_ratings_total": 1, "vicinity": "Rani Bazar, Bhaichand Colony, Katrasgarh, Dhanbad"}, {"business_status": "OPERATIONAL", "geometry": {"location": {"lat": 23.80013259999999, "lng": 86.3029427}, "viewport": {"northeast": {"lat": 23.8014479802915, "lng": 86.3042889802915}, "southwest": {"lat": 23.79875001970849, "lng": 86.3015910197085}}}, "icon": "https://maps.gstatic.com/mapfiles/place_api/icons/v1/png_71/school-71.png", "icon_background_color": "#7B9EB0", "icon_mask_base_uri": "https://maps.gstatic.com/mapfiles/place_api/icons/v2/school_pinlet", "name": "Gyan Shishu Mandir", "opening_hours": {"open_now": false}, "photos": [{"height": 4128, "html_attributions": ["<a href=\"https://maps.google.com/maps/contrib/105931166373397812068\">Mukesh Keshri</a>"], "photo_reference": "Aap_uEBxA0XWeN4s9_PbgUD4IpLd4LM_rcHrgDNaFeIc8AbHFI-0-paMGJ5TdF6yTY79wQKd57DaYLT47J6EptkTHWZQ4rcn5EbIOVbLnEKdv5xUrOXRyy1NEh-o79_vAKufwEiXR5qVDCGqx4ZjLzEw8LGF2HSd1hGUDQPraMRamecFqIXw", "width": 3096}], "place_id": "ChIJj8GjzyWh9jkRGJLqGB2YqG4", "rating": 4.2, "reference": "ChIJj8GjzyWh9jkRGJLqGB2YqG4", "scope": "GOOGLE", "types": ["school", "point_of_interest", "establishment"], "user_ratings_total": 13, "vicinity": "R823+354, Katrasgarh, Katras"}, {"business_status": "OPERATIONAL", "geometry": {"location": {"lat": 23.8001369, "lng": 86.30280959999999}, "viewport": {"northeast": {"lat": 23.8014546802915, "lng": 86.30415608029149}, "southwest": {"lat": 23.7987567197085, "lng": 86.30145811970849}}}, "icon": "https://maps.gstatic.com/mapfiles/place_api/icons/v1/png_71/school-71.png", "icon_background_color": "#7B9EB0", "icon_mask_base_uri": "https://maps.gstatic.com/mapfiles/place_api/icons/v2/school_pinlet", "name": "Sharaswati Shishu Mandir", "place_id": "ChIJLzsnq-6h9jkRe9eO2XTXyAc", "reference": "ChIJLzsnq-6h9jkRe9eO2XTXyAc", "scope": "GOOGLE", "types": ["school", "point_of_interest", "establishment"], "vicinity": "R823+343, Katrasgarh, Katras"}, {"business_status": "OPERATIONAL", "geometry": {"location": {"lat": 23.7996003, "lng": 86.3009434}, "viewport": {"northeast": {"lat": 23.8010508302915, "lng": 86.3023006302915}, "southwest": {"lat": 23.7983528697085, "lng": 86.29960266970849}}}, "icon": "https://maps.gstatic.com/mapfiles/place_api/icons/v1/png_71/school-71.png", "icon_background_color": "#7B9EB0", "icon_mask_base_uri": "https://maps.gstatic.com/mapfiles/place_api/icons/v2/school_pinlet", "name": "Bachpan a Play School", "opening_hours": {"open_now": true}, "place_id": "ChIJ69F6YCah9jkRLR97X2EchiI", "reference": "ChIJ69F6YCah9jkRLR97X2EchiI", "scope": "GOOGLE", "types": ["school", "point_of_interest", "establishment"], "vicinity": "Q8X2+R9W, rani bazaar, Katrasgarh"}, {"business_status": "OPERATIONAL", "geometry": {"location": {"lat": 23.79517569999999, "lng": 86.2949101}, "viewport": {"northeast": {"lat": 23.79650523029149, "lng": 86.29618893029149}, "southwest": {"lat": 23.79380726970849, "lng": 86.29349096970849}}}, "icon": "https://maps.gstatic.com/mapfiles/place_api/icons/v1/png_71/school-71.png", "icon_background_color": "#7B9EB0", "icon_mask_base_uri": "https://maps.gstatic.com/mapfiles/place_api/icons/v2/school_pinlet", "name": "Gyandeep Public School", "place_id": "ChIJhSnlI9-g9jkRqejV8a14edk", "plus_code": {"compound_code": "Q7WV+3X Dhanbad, Jharkhand, India", "global_code": "7MM8Q7WV+3X"}, "reference": "ChIJhSnlI9-g9jkRqejV8a14edk", "scope": "GOOGLE", "types": ["school", "point_of_interest", "establishment"], "vicinity": "Chhatabad, Main Road, Katrasgarh Market, Dhanbad"}, {"business_status": "OPERATIONAL", "geometry": {"location": {"lat": 23.800667, "lng": 86.3025222}, "viewport": {"northeast": {"lat": 23.8019815802915, "lng": 86.3039857802915}, "southwest": {"lat": 23.7992836197085, "lng": 86.30128781970848}}}, "icon": "https://maps.gstatic.com/mapfiles/place_api/icons/v1/png_71/school-71.png", "icon_background_color": "#7B9EB0", "icon_mask_base_uri": "https://maps.gstatic.com/mapfiles/place_api/icons/v2/school_pinlet", "name": "Board Middle School", "place_id": "ChIJy5VUgFqh9jkRTY3jMPvSG4M", "plus_code": {"compound_code": "R823+72 Katras, Jharkhand, India", "global_code": "7MM8R823+72"}, "reference": "ChIJy5VUgFqh9jkRTY3jMPvSG4M", "scope": "GOOGLE", "types": ["school", "point_of_interest", "establishment"], "vicinity": "Katrasgarh, Katras"}, {"business_status": "OPERATIONAL", "geometry": {"location": {"lat": 23.8007059, "lng": 86.302189}, "viewport": {"northeast": {"lat": 23.8019283302915, "lng": 86.30350773029151}, "southwest": {"lat": 23.7992303697085, "lng": 86.30080976970851}}}, "icon": "https://maps.gstatic.com/mapfiles/place_api/icons/v1/png_71/school-71.png", "icon_background_color": "#7B9EB0", "icon_mask_base_uri": "https://maps.gstatic.com/mapfiles/place_api/icons/v2/school_pinlet", "name": "Kanya Paathshala", "place_id": "ChIJD4a4mVKh9jkRLGMA2DMDN8Y", "reference": "ChIJD4a4mVKh9jkRLGMA2DMDN8Y", "scope": "GOOGLE", "types": ["school", "point_of_interest", "establishment"], "vicinity": "R822+7VP, Katrasgarh, Katras"}, {"business_status": "OPERATIONAL", "geometry": {"location": {"lat": 23.8007492, "lng": 86.3022533}, "viewport": {"northeast": {"lat": 23.8019449302915, "lng": 86.30358673029151}, "southwest": {"lat": 23.7992469697085, "lng": 86.30088876970851}}}, "icon": "https://maps.gstatic.com/mapfiles/place_api/icons/v1/png_71/school-71.png", "icon_background_color": "#7B9EB0", "icon_mask_base_uri": "https://maps.gstatic.com/mapfiles/place_api/icons/v2/school_pinlet", "name": "Hindi Kanya Madhya Vidhyalay PANCHGARI", "opening_hours": {"open_now": false}, "place_id": "ChIJldQM3yWh9jkRjI5Fs_dr5DI", "rating": 1, "reference": "ChIJldQM3yWh9jkRjI5Fs_dr5DI", "scope": "GOOGLE", "types": ["school", "point_of_interest", "establishment"], "user_ratings_total": 1, "vicinity": "R822+7WR, Katrasgarh, Katras"}, {"business_status": "OPERATIONAL", "geometry": {"location": {"lat": 23.8008351, "lng": 86.30232579999999}, "viewport": {"northeast": {"lat": 23.8023164302915, "lng": 86.3036227802915}, "southwest": {"lat": 23.7996184697085, "lng": 86.3009248197085}}}, "icon": "https://maps.gstatic.com/mapfiles/place_api/icons/v1/png_71/school-71.png", "icon_background_color": "#7B9EB0", "icon_mask_base_uri": "https://maps.gstatic.com/mapfiles/place_api/icons/v2/school_pinlet", "name": "Board Balak Madhya Vidyalaya, Panchgari", "photos": [{"height": 4160, "html_attributions": ["<a href=\"https://maps.google.com/maps/contrib/103619085715108108999\">Akhilesh Bhagat</a>"], "photo_reference": "Aap_uEAfXuVC1u1PuJNRBaUPD4qNc82KGpnfE_m-ezDUp8qcCQUxV9100QWVoT0fBej7Pzd1mUDGdeiAjyoFWtValTpKWEPYn13PQhSf637RXX3wc7QA2vI29DBchEWJibFbYJAf4dlw7IijaPNflFdJDY53UTp0y9_Pv97V9IIY3mpWpRZY", "width": 3120}], "place_id": "ChIJD612GaSh9jkRExTys6E1U9Q", "rating": 5, "reference": "ChIJD612GaSh9jkRExTys6E1U9Q", "scope": "GOOGLE", "types": ["school", "point_of_interest", "establishment"], "user_ratings_total": 1, "vicinity": "R822+8WP, Katrasgarh, Katras"}, {"business_status": "OPERATIONAL", "geometry": {"location": {"lat": 23.8007157, "lng": 86.3018668}, "viewport": {"northeast": {"lat": 23.80196343029151, "lng": 86.3031946802915}, "southwest": {"lat": 23.79926546970851, "lng": 86.30049671970849}}}, "icon": "https://maps.gstatic.com/mapfiles/place_api/icons/v1/png_71/school-71.png", "icon_background_color": "#7B9EB0", "icon_mask_base_uri": "https://maps.gstatic.com/mapfiles/place_api/icons/v2/school_pinlet", "name": "Gujrati madhya vidyalaya", "photos": [{"height": 2448, "html_attributions": ["<a href=\"https://maps.google.com/maps/contrib/104023940278096836296\">Neha K</a>"], "photo_reference": "Aap_uEC1BJhEHggovKFidS4OQRJA4H4dASDj2bJUKYSjdj1JG1WLn8FO1NnQudBE7opO--ETWhOt_ge_DnLujVtR55dk1_1Rm1osYYwhNhxA_gDsCP3kChqAYfLaByqiF6PkUOQB94xWcHewSRTJtt5wvUnI4psRxnqFRaEsXbwGdxVp3RqM", "width": 3264}], "place_id": "ChIJbfCTta-h9jkRlLMDi2UsaHk", "rating": 5, "reference": "ChIJbfCTta-h9jkRlLMDi2UsaHk", "scope": "GOOGLE", "types": ["school", "point_of_interest", "establishment"], "user_ratings_total": 1, "vicinity": "R822+7PQ, Katrasgarh, Katras"}], "status": "OK"}