{"html_attributions": [], "next_page_token": "Aap_uED4I3sNgVhrM0hphrAFHC8qfC_SKm0usXkpijAGpNIrau3edA9e9zcsHhUUXg5yxc0JeR3aGn_ThbBMs1UtZzLuCl6F_eifXfJK3Ln5MphwG9yXp90mtUMv4UePpbowKXdJ9zc1UJcWv1UFvR2pPxCWKrvkLJpnnYtMKXF0dPzSdNPOvCzM3LQlfVfKqeOmFFOKffi03sEPjqgNX5WKHc2LJTw0telTOp2JINJvQm8xEGe94VD1-txjQJ5Q7d9_q-9uHNzrmfkN-yQ-C9lNiv3AMOn9vcL5OVUk9RL9isAmJxzguVm91CWl1o5Lbdm6ffoVeO0Sd3bP3RG3FfsZZF6MkJVHnB-k8O4376SynbaASOfySH7mdwa9HFYVoU50LxGcRTJloQkBxzWEMomjM5S5PnSrkdIJGQ8jmCz2x9-tqrcyH1k", "results": [{"business_status": "CLOSED_TEMPORARILY", "geometry": {"location": {"lat": 23.7987928, "lng": 86.3040738}, "viewport": {"northeast": {"lat": 23.8001470302915, "lng": 86.30542128029151}, "southwest": {"lat": 23.7974490697085, "lng": 86.30272331970849}}}, "icon": "https://maps.gstatic.com/mapfiles/place_api/icons/v1/png_71/school-71.png", "icon_background_color": "#7B9EB0", "icon_mask_base_uri": "https://maps.gstatic.com/mapfiles/place_api/icons/v2/school_pinlet", "name": "Bachpan Play School, Rani Bazar", "permanently_closed": true, "photos": [{"height": 4032, "html_attributions": ["<a href=\"https://maps.google.com/maps/contrib/109126275768887417205\">Rajiv Ranjan Singh</a>"], "photo_reference": "Aap_uEBCiI-fSWs3PXzITPquBSBsOjZDGuvr0a8MtRYL-N6jkV60g13qkqjzXyl37yCHkGjIkxoWu0EaqHehLjT55eYKB_Be99nBqLnSYnJXXQAqmAOr4HzmVr5ynqtLu62ObX1RUWDfL_mDb4NnOoFSE0qiF0ZGnzzsHK0z3tg61yWNuPVR", "width": 3024}], "place_id": "ChIJq6qqqhqn9jkRcyKVUrxmAh0", "plus_code": {"compound_code": "Q8X3+GJ Dhanbad, Jharkhand, India", "global_code": "7MM8Q8X3+GJ"}, "rating": 5, "reference": "ChIJq6qqqhqn9jkRcyKVUrxmAh0", "scope": "GOOGLE", "types": ["school", "point_of_interest", "establishment"], "user_ratings_total": 4, "vicinity": "Satya Niwas, Rani Bazar, P.O. Katrasgarh, Dhanbad"}, {"business_status": "OPERATIONAL", "geometry": {"location": {"lat": 23.8117099, "lng": 86.29445779999999}, "viewport": {"northeast": {"lat": 23.8130701302915, "lng": 86.2957588302915}, "southwest": {"lat": 23.8103721697085, "lng": 86.2930608697085}}}, "icon": "https://maps.gstatic.com/mapfiles/place_api/icons/v1/png_71/school-71.png", "icon_background_color": "#7B9EB0", "icon_mask_base_uri": "https://maps.gstatic.com/mapfiles/place_api/icons/v2/school_pinlet", "name": "Little Bachpan", "opening_hours": {"open_now": false}, "photos": [{"height": 4128, "html_attributions": ["<a href=\"https://maps.google.com/maps/contrib/116850844187200227794\">soma roy</a>"], "photo_reference": "Aap_uEDR95aldGg6TZcKG_1bgM_Nadv8Um6_XS98azGE7CYJmYbHUJlhRXW_jUEeH-jCM-Q0yZ7TBwo5EDAvbk75o06yF9aP8ns3zxMVWLPKpNmc_-V1ZT49pkDoyHFSq0PdQ0iZzW69xpNv4_kzMkaHOTrnP5EowOPEkLga9ENncyFSxSu-", "width": 2322}], "place_id": "ChIJVUuqItSg9jkR6BhkEMQlCRE", "plus_code": {"compound_code": "R76V+MQ Dhanbad, Jharkhand, India", "global_code": "7MM8R76V+MQ"}, "rating": 3, "reference": "ChIJVUuqItSg9jkR6BhkEMQlCRE", "scope": "GOOGLE", "types": ["school", "point_of_interest", "establishment"], "user_ratings_total": 1, "vicinity": "Near : LIC office,Katras Bazar ,Dhanbad, Dhanbad"}, {"business_status": "OPERATIONAL", "geometry": {"location": {"lat": 23.8091389, "lng": 86.30196769999999}, "viewport": {"northeast": {"lat": 23.81045108029151, "lng": 86.3033711302915}, "southwest": {"lat": 23.8077531197085, "lng": 86.30067316970849}}}, "icon": "https://maps.gstatic.com/mapfiles/place_api/icons/v1/png_71/school-71.png", "icon_background_color": "#7B9EB0", "icon_mask_base_uri": "https://maps.gstatic.com/mapfiles/place_api/icons/v2/school_pinlet", "name": "Naya prathmik vidyalay, piyor ramkanali", "photos": [{"height": 2304, "html_attributions": ["<a href=\"https://maps.google.com/maps/contrib/110648955496926583826\">Manish Kumar</a>"], "photo_reference": "Aap_uEBm9UnY28nLVkxYK1uHin3f_uSSbBe6PvdB-Y83XW0tAXXzDWbpOQJ77KK7LK7CR9XPGzPpDga2DUTFzZBt4-KrWxDZweiSvWOATGUGA4ZsvrVhdOt3HjRkVYXbweCvdA5lvsgpyfzvT7cepWntaVR1GfX00gpSYKEgFnwQmPqOsxd3", "width": 4096}], "place_id": "ChIJQ1lPmWGh9jkRwaebVzr428k", "rating": 5, "reference": "ChIJQ1lPmWGh9jkRwaebVzr428k", "scope": "GOOGLE", "types": ["school", "point_of_interest", "establishment"], "user_ratings_total": 2, "vicinity": "R852+MQ4, Belaujabad"}, {"business_status": "OPERATIONAL", "geometry": {"location": {"lat": 23.8120283, "lng": 86.3025232}, "viewport": {"northeast": {"lat": 23.8133747802915, "lng": 86.30388038029149}, "southwest": {"lat": 23.8106768197085, "lng": 86.30118241970848}}}, "icon": "https://maps.gstatic.com/mapfiles/place_api/icons/v1/png_71/school-71.png", "icon_background_color": "#7B9EB0", "icon_mask_base_uri": "https://maps.gstatic.com/mapfiles/place_api/icons/v2/school_pinlet", "name": "Raj Kiyakrit Madhya Vidhyalaya", "place_id": "ChIJE-6ihCyh9jkRujw520WVlfQ", "plus_code": {"compound_code": "R863+R2 Dhanbad, Jharkhand, India", "global_code": "7MM8R863+R2"}, "rating": 4.7, "reference": "ChIJE-6ihCyh9jkRujw520WVlfQ", "scope": "GOOGLE", "types": ["school", "point_of_interest", "establishment"], "user_ratings_total": 3, "vicinity": "Jhinjhi Pahari, Katras Bazar, Dhanbad"}, {"business_status": "OPERATIONAL", "geometry": {"location": {"lat": 23.8142779, "lng": 86.30752249999999}, "viewport": {"northeast": {"lat": 23.8157462302915, "lng": 86.30895283029152}, "southwest": {"lat": 23.8130482697085, "lng": 86.3062548697085}}}, "icon": "https://maps.gstatic.com/mapfiles/place_api/icons/v1/png_71/school-71.png", "icon_background_color": "#7B9EB0", "icon_mask_base_uri": "https://maps.gstatic.com/mapfiles/place_api/icons/v2/school_pinlet", "name": "Mother Teresa Academy", "opening_hours": {"open_now": false}, "photos": [{"height": 768, "html_attributions": ["<a href=\"https://maps.google.com/maps/contrib/102535848403808112800\">Ganesh kumar</a>"], "photo_reference": "Aap_uECc8Le2bzJKbsOg2YvqDaTQDt7pefo9_NOQ9VjiFjSGnLG1wrAbiMe3ulq5T7Qi23kEGYyjYAxmSP_wrwwCaGYXaCgQPrIftv0CFue-6HRBUfLKLEOBp41yh0kdlgXChgVm4mD9sm1lStjOwWf1QZB0db6H5_-z3a9S5zPzGnxmlsl5", "width": 1152}], "place_id": "ChIJjYpiU82m9jkR83yw5MhPNak", "plus_code": {"compound_code": "R875+P2 Jharkhor, Jharkhand, India", "global_code": "7MM8R875+P2"}, "rating": 4.4, "reference": "ChIJjYpiU82m9jkR83yw5MhPNak", "scope": "GOOGLE", "types": ["school", "point_of_interest", "establishment"], "user_ratings_total": 16, "vicinity": "Jharkhor"}, {"business_status": "OPERATIONAL", "geometry": {"location": {"lat": 23.8144028, "lng": 86.30758019999999}, "viewport": {"northeast": {"lat": 23.8158143302915, "lng": 86.3089717802915}, "southwest": {"lat": 23.8131163697085, "lng": 86.3062738197085}}}, "icon": "https://maps.gstatic.com/mapfiles/place_api/icons/v1/png_71/school-71.png", "icon_background_color": "#7B9EB0", "icon_mask_base_uri": "https://maps.gstatic.com/mapfiles/place_api/icons/v2/school_pinlet", "name": "Mother Terasa Educational Trust", "photos": [{"height": 540, "html_attributions": ["<a href=\"https://maps.google.com/maps/contrib/110828694628887288614\">Madhav Singh</a>"], "photo_reference": "Aap_uEBAmtvmJPApqsNIwkmI4fpBxQvHkZ8GJay9hp1HW0ZrxkSscQYZ-LM1H8Rc_5n_mkiOb-mXttmN6sFCnSU0C5V9O0KT32nfFn7Lcq6fhDQExjBJtqyOm02Cj-HqOxpNrO-sHKKA3yI2GYFukE7_kJh2Ae_pqj8-ngSAt9r-pk9srMp3", "width": 720}], "place_id": "ChIJT82MrDKh9jkRJQwGr2sOiVc", "rating": 4.5, "reference": "ChIJT82MrDKh9jkRJQwGr2sOiVc", "scope": "GOOGLE", "types": ["school", "point_of_interest", "establishment"], "user_ratings_total": 2, "vicinity": "R875+Q28, Jhinjhipahari"}, {"business_status": "OPERATIONAL", "geometry": {"location": {"lat": 23.8118624, "lng": 86.3120952}, "viewport": {"northeast": {"lat": 23.8131158802915, "lng": 86.3134498302915}, "southwest": {"lat": 23.8104179197085, "lng": 86.3107518697085}}}, "icon": "https://maps.gstatic.com/mapfiles/place_api/icons/v1/png_71/school-71.png", "icon_background_color": "#7B9EB0", "icon_mask_base_uri": "https://maps.gstatic.com/mapfiles/place_api/icons/v2/school_pinlet", "name": "Primary School, Ramkanali", "photos": [{"height": 1536, "html_attributions": ["<a href=\"https://maps.google.com/maps/contrib/115617002583725817186\">nitish kumar</a>"], "photo_reference": "Aap_uEBHOKegTVwEUH0x3IZ357Bnxpnb8YlWXR3uPHxwECWHQDpLl-nko4mVSA0RtJ8h8kmlDvankK1WCP66N2w_zk8ZbHepPDK-7EHhnF_MZl4y-lI8K1LuI0hzEa8oCQ3MyNB5xq_rPjXzQDk5V4GmH9dZqiZId6cPfodGvKY5wEQ3eL1w", "width": 864}], "place_id": "ChIJ_6WRfjOh9jkRgvRlvHaCSQw", "rating": 4.3, "reference": "ChIJ_6WRfjOh9jkRgvRlvHaCSQw", "scope": "GOOGLE", "types": ["school", "point_of_interest", "establishment"], "user_ratings_total": 3, "vicinity": "R866+PRX, Jhinjhipahari"}, {"business_status": "OPERATIONAL", "geometry": {"location": {"lat": 23.8118552, "lng": 86.312118}, "viewport": {"northeast": {"lat": 23.8131128302915, "lng": 86.3134723802915}, "southwest": {"lat": 23.8104148697085, "lng": 86.3107744197085}}}, "icon": "https://maps.gstatic.com/mapfiles/place_api/icons/v1/png_71/school-71.png", "icon_background_color": "#7B9EB0", "icon_mask_base_uri": "https://maps.gstatic.com/mapfiles/place_api/icons/v2/school_pinlet", "name": "Primary School", "place_id": "ChIJ09y0CHeh9jkRPoDVANOfLW0", "rating": 3, "reference": "ChIJ09y0CHeh9jkRPoDVANOfLW0", "scope": "GOOGLE", "types": ["school", "point_of_interest", "establishment"], "user_ratings_total": 1, "vicinity": "R866+PRX, Jhinjhipahari"}, {"business_status": "OPERATIONAL", "geometry": {"location": {"lat": 23.8118391, "lng": 86.3121697}, "viewport": {"northeast": {"lat": 23.8131060302915, "lng": 86.3135235302915}, "southwest": {"lat": 23.81040806970849, "lng": 86.3108255697085}}}, "icon": "https://maps.gstatic.com/mapfiles/place_api/icons/v1/png_71/school-71.png", "icon_background_color": "#7B9EB0", "icon_mask_base_uri": "https://maps.gstatic.com/mapfiles/place_api/icons/v2/school_pinlet", "name": "Sarva Siksha Abhiyan School", "place_id": "ChIJZ8_Z5iOh9jkRRaWFJHh-VO8", "reference": "ChIJZ8_Z5iOh9jkRRaWFJHh-VO8", "scope": "GOOGLE", "types": ["school", "point_of_interest", "establishment"], "vicinity": "R866+PVM, Jhinjhipahari"}, {"business_status": "OPERATIONAL", "geometry": {"location": {"lat": 23.8036069, "lng": 86.3005867}, "viewport": {"northeast": {"lat": 23.8050519302915, "lng": 86.3018742802915}, "southwest": {"lat": 23.80235396970849, "lng": 86.2991763197085}}}, "icon": "https://maps.gstatic.com/mapfiles/place_api/icons/v1/png_71/school-71.png", "icon_background_color": "#7B9EB0", "icon_mask_base_uri": "https://maps.gstatic.com/mapfiles/place_api/icons/v2/school_pinlet", "name": "Holy Cross Pearls Academy", "place_id": "ChIJMYT1kyih9jkRsbP3S8jNImQ", "rating": 5, "reference": "ChIJMYT1kyih9jkRsbP3S8jNImQ", "scope": "GOOGLE", "types": ["school", "point_of_interest", "establishment"], "user_ratings_total": 1, "vicinity": "R832+C6W, Katras"}, {"business_status": "OPERATIONAL", "geometry": {"location": {"lat": 23.8029747, "lng": 86.3007466}, "viewport": {"northeast": {"lat": 23.8043957302915, "lng": 86.3020547802915}, "southwest": {"lat": 23.8016977697085, "lng": 86.29935681970849}}}, "icon": "https://maps.gstatic.com/mapfiles/place_api/icons/v1/png_71/school-71.png", "icon_background_color": "#7B9EB0", "icon_mask_base_uri": "https://maps.gstatic.com/mapfiles/place_api/icons/v2/school_pinlet", "name": "National Public School", "place_id": "ChIJ9Uqv522h9jkRoDZ8lwUkw1g", "plus_code": {"compound_code": "R832+57 Katras, Jharkhand, India", "global_code": "7MM8R832+57"}, "rating": 4, "reference": "ChIJ9Uqv522h9jkRoDZ8lwUkw1g", "scope": "GOOGLE", "types": ["school", "point_of_interest", "establishment"], "user_ratings_total": 2, "vicinity": "Rajganj, road, Katras"}, {"business_status": "OPERATIONAL", "geometry": {"location": {"lat": 23.8042533, "lng": 86.29898539999999}, "viewport": {"northeast": {"lat": 23.8056042302915, "lng": 86.3003542802915}, "southwest": {"lat": 23.8029062697085, "lng": 86.29765631970848}}}, "icon": "https://maps.gstatic.com/mapfiles/place_api/icons/v1/png_71/school-71.png", "icon_background_color": "#7B9EB0", "icon_mask_base_uri": "https://maps.gstatic.com/mapfiles/place_api/icons/v2/school_pinlet", "name": "Dwarika Prasad Gupta Science Teacher", "opening_hours": {"open_now": false}, "place_id": "ChIJj_CrRCih9jkRm-6uClZcpf0", "rating": 5, "reference": "ChIJj_CrRCih9jkRm-6uClZcpf0", "scope": "GOOGLE", "types": ["school", "point_of_interest", "establishment"], "user_ratings_total": 1, "vicinity": "R73X+PH5, Katras"}, {"business_status": "OPERATIONAL", "geometry": {"location": {"lat": 23.8170369, "lng": 86.30356460000002}, "viewport": {"northeast": {"lat": 23.8183824302915, "lng": 86.3049187802915}, "southwest": {"lat": 23.8156844697085, "lng": 86.3022208197085}}}, "icon": "https://maps.gstatic.com/mapfiles/place_api/icons/v1/png_71/school-71.png", "icon_background_color": "#7B9EB0", "icon_mask_base_uri": "https://maps.gstatic.com/mapfiles/place_api/icons/v2/school_pinlet", "name": "kids garden", "photos": [{"height": 480, "html_attributions": ["<a href=\"https://maps.google.com/maps/contrib/115826767303916290238\">Dilip Kumar</a>"], "photo_reference": "Aap_uEBup4nkp1DzpEltE2Gx_dFEeSfDCaNnlqMzUAjWdGCZD8oWWf-qU7PGlSO_YBSWPcgByTDGcaMoxPSU2KSL8CA_J40X_X_1_r6-9oo8KejnA7JhX078mSFxBQOot3epz2vlefUncicKD4EeWQdGZVJD01zAhifL_HbOY-AgEWP1LoLI", "width": 640}], "place_id": "ChIJo0ULKhqn9jkRTtGEeb8qNDo", "plus_code": {"compound_code": "R883+RC Katras, Jharkhand, India", "global_code": "7MM8R883+RC"}, "rating": 2, "reference": "ChIJo0ULKhqn9jkRTtGEeb8qNDo", "scope": "GOOGLE", "types": ["school", "point_of_interest", "establishment"], "user_ratings_total": 2, "vicinity": "Rajbari Road, Katras"}, {"business_status": "OPERATIONAL", "geometry": {"location": {"lat": 23.8018753, "lng": 86.3011573}, "viewport": {"northeast": {"lat": 23.8032237802915, "lng": 86.3025126802915}, "southwest": {"lat": 23.8005258197085, "lng": 86.29981471970848}}}, "icon": "https://maps.gstatic.com/mapfiles/place_api/icons/v1/png_71/school-71.png", "icon_background_color": "#7B9EB0", "icon_mask_base_uri": "https://maps.gstatic.com/mapfiles/place_api/icons/v2/school_pinlet", "name": "Sun Rise School", "opening_hours": {"open_now": false}, "place_id": "ChIJX5R1GSah9jkRhu-DK5sk0FI", "rating": 4.8, "reference": "ChIJX5R1GSah9jkRhu-DK5sk0FI", "scope": "GOOGLE", "types": ["school", "point_of_interest", "establishment"], "user_ratings_total": 5, "vicinity": "R822+QF3, Katrasgarh, Katras"}, {"business_status": "OPERATIONAL", "geometry": {"location": {"lat": 23.80892200000001, "lng": 86.29672169999999}, "viewport": {"northeast": {"lat": 23.8103002302915, "lng": 86.29805263029151}, "southwest": {"lat": 23.8076022697085, "lng": 86.2953546697085}}}, "icon": "https://maps.gstatic.com/mapfiles/place_api/icons/v1/png_71/school-71.png", "icon_background_color": "#7B9EB0", "icon_mask_base_uri": "https://maps.gstatic.com/mapfiles/place_api/icons/v2/school_pinlet", "name": "SHAPING SKILLS", "opening_hours": {"open_now": false}, "photos": [{"height": 1080, "html_attributions": ["<a href=\"https://maps.google.com/maps/contrib/115072693919738855421\">Ravi Kumar Sharma</a>"], "photo_reference": "Aap_uEAYutaEPNMIh5_A3fPOtULT9IoDpIKCkMxZNuKv70PRLpKrsY0-jzNJWHX0fQuyJaPeUYRwxmX9ri_9NrYz7C5Y3ej4YpN7huuV8mL-6MB8_CnS_xe9pThmfYPliiwUtrJvPfGcLH0aMliSVRzFSnaolGpWdbiOmewtQfVtpzWEBXTQ", "width": 1920}], "place_id": "ChIJX9EV-tWg9jkRTxEA8SzIMEw", "reference": "ChIJX9EV-tWg9jkRTxEA8SzIMEw", "scope": "GOOGLE", "types": ["school", "point_of_interest", "establishment"], "vicinity": "R75W+HM9, KALALI PHATA, Katrasgarh"}, {"business_status": "OPERATIONAL", "geometry": {"location": {"lat": 23.8019811, "lng": 86.3004516}, "viewport": {"northeast": {"lat": 23.8033490302915, "lng": 86.3018485802915}, "southwest": {"lat": 23.8006510697085, "lng": 86.2991506197085}}}, "icon": "https://maps.gstatic.com/mapfiles/place_api/icons/v1/png_71/school-71.png", "icon_background_color": "#7B9EB0", "icon_mask_base_uri": "https://maps.gstatic.com/mapfiles/place_api/icons/v2/school_pinlet", "name": "Education Point", "opening_hours": {"open_now": true}, "place_id": "ChIJuxbXYjuh9jkRd0Xy0MxyUhs", "rating": 5, "reference": "ChIJuxbXYjuh9jkRd0Xy0MxyUhs", "scope": "GOOGLE", "types": ["school", "point_of_interest", "establishment"], "user_ratings_total": 1, "vicinity": "R822+Q5W, Katras"}, {"business_status": "OPERATIONAL", "geometry": {"location": {"lat": 23.8151168, "lng": 86.31281890000001}, "viewport": {"northeast": {"lat": 23.8164427302915, "lng": 86.3141593302915}, "southwest": {"lat": 23.8137447697085, "lng": 86.3114613697085}}}, "icon": "https://maps.gstatic.com/mapfiles/place_api/icons/v1/png_71/school-71.png", "icon_background_color": "#7B9EB0", "icon_mask_base_uri": "https://maps.gstatic.com/mapfiles/place_api/icons/v2/school_pinlet", "name": "Volleyball Court", "photos": [{"height": 532, "html_attributions": ["<a href=\"https://maps.google.com/maps/contrib/102743958887974034768\">EL DORADO GAMING</a>"], "photo_reference": "Aap_uEDrEot2EoDzBQ3KDJCvl2tVCZCukZpdeuzdOOBdgegbR9_7pTPtlZ1KSD2rMWAB94OGhAszcWbdb6VcdfvJdrASKRoBycMEN-davHekCdsKPElKThdRsK672XGmhl8TvlV_Ls8uknNE4ocRkQ2OtU1fD8rXpcXQsmuINsUNc0jo2uTX", "width": 532}], "place_id": "ChIJ_VjChcin9jkR7bOrj6er99U", "rating": 4, "reference": "ChIJ_VjChcin9jkR7bOrj6er99U", "scope": "GOOGLE", "types": ["school", "point_of_interest", "establishment"], "user_ratings_total": 2, "vicinity": "R887+24W, Jharkhor"}, {"business_status": "OPERATIONAL", "geometry": {"location": {"lat": 23.8008351, "lng": 86.30232579999999}, "viewport": {"northeast": {"lat": 23.8023164302915, "lng": 86.3036227802915}, "southwest": {"lat": 23.7996184697085, "lng": 86.3009248197085}}}, "icon": "https://maps.gstatic.com/mapfiles/place_api/icons/v1/png_71/school-71.png", "icon_background_color": "#7B9EB0", "icon_mask_base_uri": "https://maps.gstatic.com/mapfiles/place_api/icons/v2/school_pinlet", "name": "Board Balak Madhya Vidyalaya, Panchgari", "photos": [{"height": 4160, "html_attributions": ["<a href=\"https://maps.google.com/maps/contrib/103619085715108108999\">Akhilesh Bhagat</a>"], "photo_reference": "Aap_uEDjzO31pZvnWFRI00C_p3BHHKWuIrc_VGF9eyrnSsXRQvWSwP-qjyMhxZGwYX73pAqRut64__CucUmDcTwUlBJZHalKuLHwkhm_BeFjG6cxLMciGC3SNlFSwq2H5GLXWqfg-6dA7as7o32wPhFZ610apA8cG8J9wrdrycXqLgD98d_K", "width": 3120}], "place_id": "ChIJD612GaSh9jkRExTys6E1U9Q", "rating": 5, "reference": "ChIJD612GaSh9jkRExTys6E1U9Q", "scope": "GOOGLE", "types": ["school", "point_of_interest", "establishment"], "user_ratings_total": 1, "vicinity": "R822+8WP, Katrasgarh, Katras"}, {"business_status": "OPERATIONAL", "geometry": {"location": {"lat": 23.800667, "lng": 86.3025222}, "viewport": {"northeast": {"lat": 23.8019815802915, "lng": 86.3039857802915}, "southwest": {"lat": 23.7992836197085, "lng": 86.30128781970848}}}, "icon": "https://maps.gstatic.com/mapfiles/place_api/icons/v1/png_71/school-71.png", "icon_background_color": "#7B9EB0", "icon_mask_base_uri": "https://maps.gstatic.com/mapfiles/place_api/icons/v2/school_pinlet", "name": "Board Middle School", "place_id": "ChIJy5VUgFqh9jkRTY3jMPvSG4M", "plus_code": {"compound_code": "R823+72 Katras, Jharkhand, India", "global_code": "7MM8R823+72"}, "reference": "ChIJy5VUgFqh9jkRTY3jMPvSG4M", "scope": "GOOGLE", "types": ["school", "point_of_interest", "establishment"], "vicinity": "Katrasgarh, Katras"}, {"business_status": "OPERATIONAL", "geometry": {"location": {"lat": 23.8007492, "lng": 86.3022533}, "viewport": {"northeast": {"lat": 23.8019449302915, "lng": 86.30358673029151}, "southwest": {"lat": 23.7992469697085, "lng": 86.30088876970851}}}, "icon": "https://maps.gstatic.com/mapfiles/place_api/icons/v1/png_71/school-71.png", "icon_background_color": "#7B9EB0", "icon_mask_base_uri": "https://maps.gstatic.com/mapfiles/place_api/icons/v2/school_pinlet", "name": "Hindi Kanya Madhya Vidhyalay PANCHGARI", "opening_hours": {"open_now": false}, "place_id": "ChIJldQM3yWh9jkRjI5Fs_dr5DI", "rating": 1, "reference": "ChIJldQM3yWh9jkRjI5Fs_dr5DI", "scope": "GOOGLE", "types": ["school", "point_of_interest", "establishment"], "user_ratings_total": 1, "vicinity": "R822+7WR, Katrasgarh, Katras"}], "status": "OK"}