{"html_attributions": [], "results": [{"business_status": "OPERATIONAL", "geometry": {"location": {"lat": 23.8327051, "lng": 86.3179203}, "viewport": {"northeast": {"lat": 23.8340850802915, "lng": 86.3191985802915}, "southwest": {"lat": 23.8313871197085, "lng": 86.31650061970849}}}, "icon": "https://maps.gstatic.com/mapfiles/place_api/icons/v1/png_71/school-71.png", "icon_background_color": "#7B9EB0", "icon_mask_base_uri": "https://maps.gstatic.com/mapfiles/place_api/icons/v2/school_pinlet", "name": "Utkramit High School", "place_id": "ChIJ11v2Ur-m9jkRPMhXbHWfZ6Q", "plus_code": {"compound_code": "R8M9+35 Udalbani, Jharkhand, India", "global_code": "7MM8R8M9+35"}, "rating": 1, "reference": "ChIJ11v2Ur-m9jkRPMhXbHWfZ6Q", "scope": "GOOGLE", "types": ["school", "point_of_interest", "establishment"], "user_ratings_total": 1, "vicinity": "Jamuatand"}, {"business_status": "OPERATIONAL", "geometry": {"location": {"lat": 23.8324474, "lng": 86.31816119999999}, "viewport": {"northeast": {"lat": 23.8338023302915, "lng": 86.3195299802915}, "southwest": {"lat": 23.8311043697085, "lng": 86.31683201970849}}}, "icon": "https://maps.gstatic.com/mapfiles/place_api/icons/v1/png_71/school-71.png", "icon_background_color": "#7B9EB0", "icon_mask_base_uri": "https://maps.gstatic.com/mapfiles/place_api/icons/v2/school_pinlet", "name": "Middle School, Jamuatand", "place_id": "ChIJ6zfM-Lyn9jkRh0sZKTZVOyM", "rating": 4, "reference": "ChIJ6zfM-Lyn9jkRh0sZKTZVOyM", "scope": "GOOGLE", "types": ["school", "point_of_interest", "establishment"], "user_ratings_total": 1, "vicinity": "R8J9+X7F, Jamuatand"}, {"business_status": "OPERATIONAL", "geometry": {"location": {"lat": 23.8170369, "lng": 86.30356460000002}, "viewport": {"northeast": {"lat": 23.8183824302915, "lng": 86.3049187802915}, "southwest": {"lat": 23.8156844697085, "lng": 86.3022208197085}}}, "icon": "https://maps.gstatic.com/mapfiles/place_api/icons/v1/png_71/school-71.png", "icon_background_color": "#7B9EB0", "icon_mask_base_uri": "https://maps.gstatic.com/mapfiles/place_api/icons/v2/school_pinlet", "name": "kids garden", "photos": [{"height": 480, "html_attributions": ["<a href=\"https://maps.google.com/maps/contrib/115826767303916290238\">Dilip Kumar</a>"], "photo_reference": "Aap_uEA8Q9cRcfDwczCRQC8ZffUmTN6H0aPAfby2MxtndiVm9yYVODLxMWPgXszCfwhLawVj85TpkHLFMD5P_dgmOeMUIGnLsx41x3vc4MHn3dLs57NliCVeZtIAMbcYhRTWu-UkbHxcfV9USxIxHmAjoEJk50ffi3_IT22wqmZmo5_PrDBz", "width": 640}], "place_id": "ChIJo0ULKhqn9jkRTtGEeb8qNDo", "plus_code": {"compound_code": "R883+RC Katras, Jharkhand, India", "global_code": "7MM8R883+RC"}, "rating": 2, "reference": "ChIJo0ULKhqn9jkRTtGEeb8qNDo", "scope": "GOOGLE", "types": ["school", "point_of_interest", "establishment"], "user_ratings_total": 2, "vicinity": "Rajbari Road, Katras"}, {"business_status": "OPERATIONAL", "geometry": {"location": {"lat": 23.82611349999999, "lng": 86.3189384}, "viewport": {"northeast": {"lat": 23.82745838029151, "lng": 86.32030113029151}, "southwest": {"lat": 23.8247604197085, "lng": 86.31760316970849}}}, "icon": "https://maps.gstatic.com/mapfiles/place_api/icons/v1/png_71/school-71.png", "icon_background_color": "#7B9EB0", "icon_mask_base_uri": "https://maps.gstatic.com/mapfiles/place_api/icons/v2/school_pinlet", "name": "Jai Maa Tara Wastaralay", "photos": [{"height": 2560, "html_attributions": ["<a href=\"https://maps.google.com/maps/contrib/102718041602719199310\">Karan Kumar Mahato</a>"], "photo_reference": "Aap_uEAXVpVHwMFNYfP33mVZkpTzrSUVWaP3zVW43QImPWm3SOmq49XiQdJaH2qUI6ZYXGLUGougOBKXKqtmEjEbySVWW1zX0LSKDU2lBSMHjT0e5oe8KyPdV2X19luuvRaHhX2El7675_ZBV8Znqaw7WY3wKSbnCYBthT76E1gea2qyKp5j", "width": 1440}], "place_id": "ChIJ0ykrxqGn9jkRDzV4Y9fkHWE", "reference": "ChIJ0ykrxqGn9jkRDzV4Y9fkHWE", "scope": "GOOGLE", "types": ["school", "point_of_interest", "establishment"], "vicinity": "R8G9+CHW, Gargaria"}, {"business_status": "OPERATIONAL", "geometry": {"location": {"lat": 23.82604629999999, "lng": 86.3190941}, "viewport": {"northeast": {"lat": 23.8274155302915, "lng": 86.3203859802915}, "southwest": {"lat": 23.82471756970849, "lng": 86.31768801970848}}}, "icon": "https://maps.gstatic.com/mapfiles/place_api/icons/v1/png_71/school-71.png", "icon_background_color": "#7B9EB0", "icon_mask_base_uri": "https://maps.gstatic.com/mapfiles/place_api/icons/v2/school_pinlet", "name": "\u091a\u093e\u0930\u0940 \u0926\u0947\u0935\u0940 \u0938\u0930\u0938\u094d\u0935\u0924\u0940 \u0936\u093f\u0936\u0941 \u0935\u093f\u0926\u094d\u092f\u093e \u092e\u0902\u0926\u093f\u0930", "opening_hours": {"open_now": true}, "photos": [{"height": 1844, "html_attributions": ["<a href=\"https://maps.google.com/maps/contrib/102020580522091307226\">raju thakur</a>"], "photo_reference": "Aap_uEDAy1qQrpAwCT5sLf2lgeGWwFmcIJkmc3zs2kplg8pF2c92V4pWlxg0vLOEW4GLqmEVXhKfLg05azMPvUdCp1U0F0UpFNMjx9mBsL_BqD80pWdBKcPB8zJZLOWMrG2lwVtF9Fv24b3KrFkQNPnmCZ3nrxa4iEMXlEStwDmnvOOJbv40", "width": 4000}], "place_id": "ChIJlTJTjrem9jkRLyEBVTf1bAE", "rating": 4.3, "reference": "ChIJlTJTjrem9jkRLyEBVTf1bAE", "scope": "GOOGLE", "types": ["school", "point_of_interest", "establishment"], "user_ratings_total": 3, "vicinity": "R8G9+CJ9, Phatamahul"}, {"business_status": "OPERATIONAL", "geometry": {"location": {"lat": 23.8411732, "lng": 86.3085059}, "viewport": {"northeast": {"lat": 23.8426439802915, "lng": 86.30960243029149}, "southwest": {"lat": 23.8399460197085, "lng": 86.30690446970848}}}, "icon": "https://maps.gstatic.com/mapfiles/place_api/icons/v1/png_71/school-71.png", "icon_background_color": "#7B9EB0", "icon_mask_base_uri": "https://maps.gstatic.com/mapfiles/place_api/icons/v2/school_pinlet", "name": "Sanskrit School Kanko", "place_id": "ChIJ-cwHYOim9jkRdE8uFVScsn8", "rating": 2, "reference": "ChIJ-cwHYOim9jkRdE8uFVScsn8", "scope": "GOOGLE", "types": ["school", "point_of_interest", "establishment"], "user_ratings_total": 1, "vicinity": "R8R5+FC6, Kanko"}, {"business_status": "OPERATIONAL", "geometry": {"location": {"lat": 23.82565339999999, "lng": 86.31910529999999}, "viewport": {"northeast": {"lat": 23.8270632302915, "lng": 86.3203188802915}, "southwest": {"lat": 23.82436526970849, "lng": 86.31762091970849}}}, "icon": "https://maps.gstatic.com/mapfiles/place_api/icons/v1/png_71/school-71.png", "icon_background_color": "#7B9EB0", "icon_mask_base_uri": "https://maps.gstatic.com/mapfiles/place_api/icons/v2/school_pinlet", "name": "Chari Devi Shishu Mandir", "opening_hours": {"open_now": false}, "place_id": "ChIJqaGcuuCn9jkROPLn1UsgqCA", "reference": "ChIJqaGcuuCn9jkROPLn1UsgqCA", "scope": "GOOGLE", "types": ["school", "point_of_interest", "establishment"], "vicinity": "R8G9+7J9, Phatamahul"}, {"business_status": "OPERATIONAL", "geometry": {"location": {"lat": 23.8293053, "lng": 86.31970110000002}, "viewport": {"northeast": {"lat": 23.8306438302915, "lng": 86.32108688029152}, "southwest": {"lat": 23.8279458697085, "lng": 86.3183889197085}}}, "icon": "https://maps.gstatic.com/mapfiles/place_api/icons/v1/png_71/school-71.png", "icon_background_color": "#7B9EB0", "icon_mask_base_uri": "https://maps.gstatic.com/mapfiles/place_api/icons/v2/school_pinlet", "name": "The science zone", "opening_hours": {"open_now": false}, "place_id": "ChIJFekfSzqn9jkRw3gG-UV_kT4", "plus_code": {"compound_code": "R8H9+PV Phatamahul, Jharkhand, India", "global_code": "7MM8R8H9+PV"}, "reference": "ChIJFekfSzqn9jkRw3gG-UV_kT4", "scope": "GOOGLE", "types": ["school", "point_of_interest", "establishment"], "vicinity": "Unnamed Road"}, {"business_status": "OPERATIONAL", "geometry": {"location": {"lat": 23.8340323, "lng": 86.31866}, "viewport": {"northeast": {"lat": 23.8352539802915, "lng": 86.3196958302915}, "southwest": {"lat": 23.83255601970849, "lng": 86.31699786970849}}}, "icon": "https://maps.gstatic.com/mapfiles/place_api/icons/v1/png_71/school-71.png", "icon_background_color": "#7B9EB0", "icon_mask_base_uri": "https://maps.gstatic.com/mapfiles/place_api/icons/v2/school_pinlet", "name": "Rajesh Kumar Das", "photos": [{"height": 4096, "html_attributions": ["<a href=\"https://maps.google.com/maps/contrib/111597874777749287446\">Rajesh Das</a>"], "photo_reference": "Aap_uEAbCqdqGExFpVBCLt_Yzwc8-wa0iPW1qMyceCMElFQHJppF_GNUK2s5EABVr30SM0QeTp3fwew9rnclLaRb6zvGTQJaVVdD7SoZXcuLtdJHU3dILb61boxsSvGN3jz0tbSHHcOShDAqq42OIRLCvE5sYIZMlNL4KnfPl7d70ctMXN5v", "width": 3072}], "place_id": "ChIJyRwBAnyn9jkRvDN4Tp1tzns", "plus_code": {"compound_code": "R8M9+JF Katras, Jharkhand, India", "global_code": "7MM8R8M9+JF"}, "rating": 5, "reference": "ChIJyRwBAnyn9jkRvDN4Tp1tzns", "scope": "GOOGLE", "types": ["secondary_school", "school", "point_of_interest", "establishment"], "user_ratings_total": 1, "vicinity": "Vill-udalbani po-kankobmath, ps, Katras"}], "status": "OK"}