{"html_attributions": [], "results": [{"business_status": "OPERATIONAL", "geometry": {"location": {"lat": 23.8535946, "lng": 86.3173542}, "viewport": {"northeast": {"lat": 23.8551290302915, "lng": 86.31858883029152}, "southwest": {"lat": 23.85243106970849, "lng": 86.3158908697085}}}, "icon": "https://maps.gstatic.com/mapfiles/place_api/icons/v1/png_71/school-71.png", "icon_background_color": "#7B9EB0", "icon_mask_base_uri": "https://maps.gstatic.com/mapfiles/place_api/icons/v2/school_pinlet", "name": "Kako Hill School", "opening_hours": {"open_now": false}, "photos": [{"height": 3120, "html_attributions": ["<a href=\"https://maps.google.com/maps/contrib/115258064689696784425\">Suresh Mahato</a>"], "photo_reference": "Aap_uECJEWRG0nyOVn2jQ7QcBPSTHSw5qwn0tqHGNAsTAufRTBJ3DkoM0ZaTGL_CmKVbYhGo-eDetXcINAzVFJu5UjXEQRVLjhCBLPlEp0r2wJYDgDkw7I5gM-7mjW4QnSDvByZB6VSmRKlxjlTX2XCkQEFKdPrOYIdfVDthW2Re-tKmrK9y", "width": 4160}], "place_id": "ChIJxRIh1Yym9jkRTWOZX1sQgWM", "plus_code": {"compound_code": "V838+CW Katras, Jharkhand, India", "global_code": "7MM8V838+CW"}, "rating": 4.3, "reference": "ChIJxRIh1Yym9jkRTWOZX1sQgWM", "scope": "GOOGLE", "types": ["school", "point_of_interest", "establishment"], "user_ratings_total": 28, "vicinity": "Kanko, Muth, Katras"}, {"business_status": "OPERATIONAL", "geometry": {"location": {"lat": 23.8470722, "lng": 86.3084969}, "viewport": {"northeast": {"lat": 23.8484251302915, "lng": 86.30988003029151}, "southwest": {"lat": 23.8457271697085, "lng": 86.3071820697085}}}, "icon": "https://maps.gstatic.com/mapfiles/place_api/icons/v1/png_71/school-71.png", "icon_background_color": "#7B9EB0", "icon_mask_base_uri": "https://maps.gstatic.com/mapfiles/place_api/icons/v2/school_pinlet", "name": "The Study Centre", "place_id": "ChIJPS9Kde-m9jkRn46hFKFkvZI", "rating": 5, "reference": "ChIJPS9Kde-m9jkRn46hFKFkvZI", "scope": "GOOGLE", "types": ["school", "point_of_interest", "establishment"], "user_ratings_total": 1, "vicinity": "R8W5+R9H, Kanko"}, {"business_status": "OPERATIONAL", "geometry": {"location": {"lat": 23.84912499999999, "lng": 86.309896}, "viewport": {"northeast": {"lat": 23.8504840302915, "lng": 86.3112593302915}, "southwest": {"lat": 23.8477860697085, "lng": 86.3085613697085}}}, "icon": "https://maps.gstatic.com/mapfiles/place_api/icons/v1/png_71/school-71.png", "icon_background_color": "#7B9EB0", "icon_mask_base_uri": "https://maps.gstatic.com/mapfiles/place_api/icons/v2/school_pinlet", "name": "Saraswati Shush Mandir Shyamdih", "place_id": "ChIJOcSgIHWn9jkR0z2MPTMkYOs", "plus_code": {"compound_code": "R8X5+MX Kanko, Jharkhand, India", "global_code": "7MM8R8X5+MX"}, "reference": "ChIJOcSgIHWn9jkR0z2MPTMkYOs", "scope": "GOOGLE", "types": ["school", "point_of_interest", "establishment"], "vicinity": "Unnamed Road, Kanko"}, {"business_status": "OPERATIONAL", "geometry": {"location": {"lat": 23.8523801, "lng": 86.30837009999999}, "viewport": {"northeast": {"lat": 23.85374683029151, "lng": 86.30974283029151}, "southwest": {"lat": 23.8510488697085, "lng": 86.30704486970849}}}, "icon": "https://maps.gstatic.com/mapfiles/place_api/icons/v1/png_71/school-71.png", "icon_background_color": "#7B9EB0", "icon_mask_base_uri": "https://maps.gstatic.com/mapfiles/place_api/icons/v2/school_pinlet", "name": "Middle School Dharkiro", "photos": [{"height": 1080, "html_attributions": ["<a href=\"https://maps.google.com/maps/contrib/100874034833792116589\">Arvind Raj</a>"], "photo_reference": "Aap_uED_pT34nyIvoedXhJbZb0JeeH2vO--f29S1_70RKpQaLOyyfPCsZ8-ksIMQjhMAuEIjtvXjirOMT17blB04ngAuEfjP5GAJ4gCz3uVm_PLvqigkRdZd8KP0jhgDrimiQtjrOvyLWBoeF0o4q9o8tHFWAUcfKGMl2FvBmra8ayHTNVxs", "width": 1920}], "place_id": "ChIJv3DZZ_Cm9jkRZ1kzTfJlkI8", "rating": 5, "reference": "ChIJv3DZZ_Cm9jkRZ1kzTfJlkI8", "scope": "GOOGLE", "types": ["school", "point_of_interest", "establishment"], "user_ratings_total": 2, "vicinity": "V825+X85, Dharkiro"}, {"business_status": "OPERATIONAL", "geometry": {"location": {"lat": 23.8448771, "lng": 86.3020119}, "viewport": {"northeast": {"lat": 23.84617428029151, "lng": 86.3033490302915}, "southwest": {"lat": 23.8434763197085, "lng": 86.3006510697085}}}, "icon": "https://maps.gstatic.com/mapfiles/place_api/icons/v1/png_71/school-71.png", "icon_background_color": "#7B9EB0", "icon_mask_base_uri": "https://maps.gstatic.com/mapfiles/place_api/icons/v2/school_pinlet", "name": "Shiv Mandir", "place_id": "ChIJB4kK9-Om9jkRFLgvJjR6Dlw", "rating": 3, "reference": "ChIJB4kK9-Om9jkRFLgvJjR6Dlw", "scope": "GOOGLE", "types": ["school", "point_of_interest", "establishment"], "user_ratings_total": 1, "vicinity": "R8V2+XR2, Dhangi"}, {"business_status": "OPERATIONAL", "geometry": {"location": {"lat": 23.8429188, "lng": 86.3106292}, "viewport": {"northeast": {"lat": 23.84425703029151, "lng": 86.3119660802915}, "southwest": {"lat": 23.8415590697085, "lng": 86.30926811970849}}}, "icon": "https://maps.gstatic.com/mapfiles/place_api/icons/v1/png_71/school-71.png", "icon_background_color": "#7B9EB0", "icon_mask_base_uri": "https://maps.gstatic.com/mapfiles/place_api/icons/v2/school_pinlet", "name": "Primary School Kanko", "place_id": "ChIJz8azPemm9jkRPut1bCgPdhE", "reference": "ChIJz8azPemm9jkRPut1bCgPdhE", "scope": "GOOGLE", "types": ["school", "point_of_interest", "establishment"], "vicinity": "R8V6+576, Kanko"}, {"business_status": "OPERATIONAL", "geometry": {"location": {"lat": 23.8411732, "lng": 86.3085059}, "viewport": {"northeast": {"lat": 23.8426439802915, "lng": 86.30960243029149}, "southwest": {"lat": 23.8399460197085, "lng": 86.30690446970848}}}, "icon": "https://maps.gstatic.com/mapfiles/place_api/icons/v1/png_71/school-71.png", "icon_background_color": "#7B9EB0", "icon_mask_base_uri": "https://maps.gstatic.com/mapfiles/place_api/icons/v2/school_pinlet", "name": "Sanskrit School Kanko", "place_id": "ChIJ-cwHYOim9jkRdE8uFVScsn8", "rating": 2, "reference": "ChIJ-cwHYOim9jkRdE8uFVScsn8", "scope": "GOOGLE", "types": ["school", "point_of_interest", "establishment"], "user_ratings_total": 1, "vicinity": "R8R5+FC6, Kanko"}, {"business_status": "OPERATIONAL", "geometry": {"location": {"lat": 23.8566007, "lng": 86.29708839999999}, "viewport": {"northeast": {"lat": 23.8582147802915, "lng": 86.29816418029151}, "southwest": {"lat": 23.8555168197085, "lng": 86.29546621970849}}}, "icon": "https://maps.gstatic.com/mapfiles/place_api/icons/v1/png_71/school-71.png", "icon_background_color": "#7B9EB0", "icon_mask_base_uri": "https://maps.gstatic.com/mapfiles/place_api/icons/v2/school_pinlet", "name": "Dak bangla school", "place_id": "ChIJa4UsYLan9jkRWaoW36BQ_z4", "reference": "ChIJa4UsYLan9jkRWaoW36BQ_z4", "scope": "GOOGLE", "types": ["school", "point_of_interest", "establishment"], "vicinity": "V74W+JRW, Dhanbad"}, {"business_status": "OPERATIONAL", "geometry": {"location": {"lat": 23.8490988, "lng": 86.2934721}, "viewport": {"northeast": {"lat": 23.8504373302915, "lng": 86.2949302802915}, "southwest": {"lat": 23.8477393697085, "lng": 86.29223231970849}}}, "icon": "https://maps.gstatic.com/mapfiles/place_api/icons/v1/png_71/school-71.png", "icon_background_color": "#7B9EB0", "icon_mask_base_uri": "https://maps.gstatic.com/mapfiles/place_api/icons/v2/school_pinlet", "name": "Madhya Bidyalay Baijudih", "place_id": "ChIJp_WLyByn9jkRUhC0EBTYc6g", "plus_code": {"compound_code": "R7XV+J9 Dhangi, Jharkhand, India", "global_code": "7MM8R7XV+J9"}, "rating": 4, "reference": "ChIJp_WLyByn9jkRUhC0EBTYc6g", "scope": "GOOGLE", "types": ["school", "point_of_interest", "establishment"], "user_ratings_total": 1, "vicinity": "Dhangi"}, {"business_status": "OPERATIONAL", "geometry": {"location": {"lat": 23.849093, "lng": 86.2933715}, "viewport": {"northeast": {"lat": 23.8504267802915, "lng": 86.29487908029151}, "southwest": {"lat": 23.8477288197085, "lng": 86.2921811197085}}}, "icon": "https://maps.gstatic.com/mapfiles/place_api/icons/v1/png_71/school-71.png", "icon_background_color": "#7B9EB0", "icon_mask_base_uri": "https://maps.gstatic.com/mapfiles/place_api/icons/v2/school_pinlet", "name": "Middle School Baijudi, Dhangi", "place_id": "ChIJkZn8x8an9jkR2SALBXetfvo", "rating": 3, "reference": "ChIJkZn8x8an9jkR2SALBXetfvo", "scope": "GOOGLE", "types": ["school", "point_of_interest", "establishment"], "user_ratings_total": 1, "vicinity": "R7XV+J8Q, Dhangi"}, {"business_status": "OPERATIONAL", "geometry": {"location": {"lat": 23.8441604, "lng": 86.2938557}, "viewport": {"northeast": {"lat": 23.8456439802915, "lng": 86.29553158029151}, "southwest": {"lat": 23.8429460197085, "lng": 86.29283361970849}}}, "icon": "https://maps.gstatic.com/mapfiles/place_api/icons/v1/png_71/school-71.png", "icon_background_color": "#7B9EB0", "icon_mask_base_uri": "https://maps.gstatic.com/mapfiles/place_api/icons/v2/school_pinlet", "name": "Sarvoday Public School", "opening_hours": {"open_now": false}, "photos": [{"height": 3120, "html_attributions": ["<a href=\"https://maps.google.com/maps/contrib/102926009633131106769\">Krishna Kumar</a>"], "photo_reference": "Aap_uEBiI3eKmlrfwNpWegCId3jVU_DPylbaU7ApZc-xILRmIpCnYOk_l5UJX-EXjrlwii6ji2geLHkYzq1km3-OWlXMPVYzxI-MschqXDKj8uEZDnBnhhiKBC3jqawPN3IscV272NxEbRw9A4p4oPMWYjs5EV6PNgMTjcbmpFpwjXptKCdD", "width": 4160}], "place_id": "ChIJk50SJhyn9jkRpfUzEHgFVJc", "rating": 5, "reference": "ChIJk50SJhyn9jkRpfUzEHgFVJc", "scope": "GOOGLE", "types": ["school", "point_of_interest", "establishment"], "user_ratings_total": 4, "vicinity": "R7VV+MG9, Dhangi"}], "status": "OK"}