{"html_attributions": [], "results": [{"business_status": "OPERATIONAL", "geometry": {"location": {"lat": 23.881954, "lng": 86.29589}, "viewport": {"northeast": {"lat": 23.8832534802915, "lng": 86.2972095802915}, "southwest": {"lat": 23.8805555197085, "lng": 86.29451161970849}}}, "icon": "https://maps.gstatic.com/mapfiles/place_api/icons/v1/png_71/school-71.png", "icon_background_color": "#7B9EB0", "icon_mask_base_uri": "https://maps.gstatic.com/mapfiles/place_api/icons/v2/school_pinlet", "name": "Montfort Academy Main Branch", "opening_hours": {"open_now": false}, "photos": [{"height": 3024, "html_attributions": ["<a href=\"https://maps.google.com/maps/contrib/106827561607153217186\">Dr. Rishi Khurana</a>"], "photo_reference": "Aap_uEAo20W0fIEyANnbQQGMk-7IEro7ccNXx2M6zojgeCuaoTuKfIXzHRV6VY1Z20Af6uBx9OEzsRRKNPRTiGuEUYqR9wD0eD5G1jdF0SD7dQkwAiYSdXbN_KQs9so6YngR0l5H46-Ggf4yIVA99HcVGsp0lZ4w7GBV2YY9jnugZpJWsWHL", "width": 4032}], "place_id": "ChIJR4qPwbSn9jkRJX8Vj_72tHQ", "plus_code": {"compound_code": "V7JW+Q9 Dayabanspahar, Jharkhand, India", "global_code": "7MM8V7JW+Q9"}, "rating": 3.6, "reference": "ChIJR4qPwbSn9jkRJX8Vj_72tHQ", "scope": "GOOGLE", "types": ["school", "point_of_interest", "establishment"], "user_ratings_total": 49, "vicinity": "Grand Trunk Road, Dayabanspahar"}, {"business_status": "OPERATIONAL", "geometry": {"location": {"lat": 23.8842289, "lng": 86.30464649999999}, "viewport": {"northeast": {"lat": 23.8855746302915, "lng": 86.30592773029149}, "southwest": {"lat": 23.8828766697085, "lng": 86.30322976970848}}}, "icon": "https://maps.gstatic.com/mapfiles/place_api/icons/v1/png_71/school-71.png", "icon_background_color": "#7B9EB0", "icon_mask_base_uri": "https://maps.gstatic.com/mapfiles/place_api/icons/v2/school_pinlet", "name": "Primary School Mahto Tanr", "photos": [{"height": 720, "html_attributions": ["<a href=\"https://maps.google.com/maps/contrib/102177198848422654823\">Rishi Kumar Mahato</a>"], "photo_reference": "Aap_uEDfsGPC4yhcy0Ii60CoOuqG-xTE1zjldehmnTTyW1p9Mgiyqkp6XU18K-qpcSA0eynqw6LLhRb-4AMtUCXilEJADQztVV8_TMc3qBFDeasuQeikrYum5yngz-IO4a3iWVrKuBX4xOwpCvsilVqWQwEHUAFupPL5azgQRZKTlaXS1CWh", "width": 1280}], "place_id": "ChIJBfsM4QSn9jkRgFGubwHgbgw", "reference": "ChIJBfsM4QSn9jkRgFGubwHgbgw", "scope": "GOOGLE", "types": ["school", "point_of_interest", "establishment"], "vicinity": "V8M3+MVR, Mahtotanr"}, {"business_status": "OPERATIONAL", "geometry": {"location": {"lat": 23.8885517, "lng": 86.3004251}, "viewport": {"northeast": {"lat": 23.8898645802915, "lng": 86.30175993029151}, "southwest": {"lat": 23.88716661970849, "lng": 86.29906196970849}}}, "icon": "https://maps.gstatic.com/mapfiles/place_api/icons/v1/png_71/school-71.png", "icon_background_color": "#7B9EB0", "icon_mask_base_uri": "https://maps.gstatic.com/mapfiles/place_api/icons/v2/school_pinlet", "name": "\u0906\u0901\u0917\u0928\u092c\u093e\u0921\u093c\u0940 \u0915\u0947\u0928\u094d\u0926\u094d\u0930", "place_id": "ChIJTRpDCj-n9jkRB-SZxiJ_xEM", "reference": "ChIJTRpDCj-n9jkRB-SZxiJ_xEM", "scope": "GOOGLE", "types": ["school", "point_of_interest", "establishment"], "vicinity": "V8Q2+C5F"}, {"business_status": "OPERATIONAL", "geometry": {"location": {"lat": 23.888613, "lng": 86.30034429999999}, "viewport": {"northeast": {"lat": 23.88990988029151, "lng": 86.30167458029149}, "southwest": {"lat": 23.8872119197085, "lng": 86.29897661970848}}}, "icon": "https://maps.gstatic.com/mapfiles/place_api/icons/v1/png_71/school-71.png", "icon_background_color": "#7B9EB0", "icon_mask_base_uri": "https://maps.gstatic.com/mapfiles/place_api/icons/v2/school_pinlet", "name": "Aganbari Centre", "place_id": "ChIJK6xICTWn9jkRg_6OJd2DdRs", "reference": "ChIJK6xICTWn9jkRg_6OJd2DdRs", "scope": "GOOGLE", "types": ["school", "point_of_interest", "establishment"], "vicinity": "V8Q2+C4X, Rajbanspahar"}, {"business_status": "OPERATIONAL", "geometry": {"location": {"lat": 23.8840161, "lng": 86.309401}, "viewport": {"northeast": {"lat": 23.88537678029151, "lng": 86.3107541802915}, "southwest": {"lat": 23.8826788197085, "lng": 86.30805621970849}}}, "icon": "https://maps.gstatic.com/mapfiles/place_api/icons/v1/png_71/school-71.png", "icon_background_color": "#7B9EB0", "icon_mask_base_uri": "https://maps.gstatic.com/mapfiles/place_api/icons/v2/school_pinlet", "name": "NPS Marchakicha", "place_id": "ChIJhS2C1fOn9jkR8MCmDIm2110", "plus_code": {"compound_code": "V8M5+JQ Jarmunai alias Murchakocha, Jharkhand, India", "global_code": "7MM8V8M5+JQ"}, "reference": "ChIJhS2C1fOn9jkR8MCmDIm2110", "scope": "GOOGLE", "types": ["school", "point_of_interest", "establishment"], "vicinity": "Unnamed Road"}, {"business_status": "OPERATIONAL", "geometry": {"location": {"lat": 23.8798432, "lng": 86.310778}, "viewport": {"northeast": {"lat": 23.88102908029151, "lng": 86.3120814802915}, "southwest": {"lat": 23.8783311197085, "lng": 86.30938351970849}}}, "icon": "https://maps.gstatic.com/mapfiles/place_api/icons/v1/png_71/school-71.png", "icon_background_color": "#7B9EB0", "icon_mask_base_uri": "https://maps.gstatic.com/mapfiles/place_api/icons/v2/school_pinlet", "name": "SARSWATI SISHU VIDHYA MANDIR", "opening_hours": {"open_now": false}, "place_id": "ChIJ47OYIESm9jkR3JTRxXvO20s", "rating": 5, "reference": "ChIJ47OYIESm9jkR3JTRxXvO20s", "scope": "GOOGLE", "types": ["school", "point_of_interest", "establishment"], "user_ratings_total": 2, "vicinity": "V8H6+W8J, Rajganj"}], "status": "OK"}