{"html_attributions": [], "results": [{"business_status": "OPERATIONAL", "geometry": {"location": {"lat": 23.5290774, "lng": 86.3243169}, "viewport": {"northeast": {"lat": 23.5304003802915, "lng": 86.32565323029151}, "southwest": {"lat": 23.5277024197085, "lng": 86.3229552697085}}}, "icon": "https://maps.gstatic.com/mapfiles/place_api/icons/v1/png_71/school-71.png", "icon_background_color": "#7B9EB0", "icon_mask_base_uri": "https://maps.gstatic.com/mapfiles/place_api/icons/v2/school_pinlet", "name": "Jay Bajrangbali Mandir dungurithar", "place_id": "ChIJowp9qP-D9jkRbW8QvWW6JkM", "reference": "ChIJowp9qP-D9jkRbW8QvWW6JkM", "scope": "GOOGLE", "types": ["school", "point_of_interest", "establishment"], "vicinity": "G8HF+JPP"}, {"business_status": "OPERATIONAL", "geometry": {"location": {"lat": 23.5304999, "lng": 86.3302543}, "viewport": {"northeast": {"lat": 23.5318587302915, "lng": 86.33152328029149}, "southwest": {"lat": 23.5291607697085, "lng": 86.32882531970849}}}, "icon": "https://maps.gstatic.com/mapfiles/place_api/icons/v1/png_71/school-71.png", "icon_background_color": "#7B9EB0", "icon_mask_base_uri": "https://maps.gstatic.com/mapfiles/place_api/icons/v2/school_pinlet", "name": "Madarsa Islamia Norulhuda Nodiha", "place_id": "ChIJT0B816yc9jkRafvOEfQ9QF0", "rating": 5, "reference": "ChIJT0B816yc9jkRafvOEfQ9QF0", "scope": "GOOGLE", "types": ["school", "point_of_interest", "establishment"], "user_ratings_total": 2, "vicinity": "G8JJ+54R, Nadiha"}, {"business_status": "OPERATIONAL", "geometry": {"location": {"lat": 23.5305915, "lng": 86.33131739999999}, "viewport": {"northeast": {"lat": 23.5318975302915, "lng": 86.3327101802915}, "southwest": {"lat": 23.5291995697085, "lng": 86.3300122197085}}}, "icon": "https://maps.gstatic.com/mapfiles/place_api/icons/v1/png_71/school-71.png", "icon_background_color": "#7B9EB0", "icon_mask_base_uri": "https://maps.gstatic.com/mapfiles/place_api/icons/v2/school_pinlet", "name": "H.R.Mobile", "opening_hours": {"open_now": false}, "place_id": "ChIJP7Lwx6yc9jkRYuAQe5Hz6lw", "reference": "ChIJP7Lwx6yc9jkRYuAQe5Hz6lw", "scope": "GOOGLE", "types": ["school", "point_of_interest", "establishment"], "vicinity": "G8JJ+6GP, Nadiha"}, {"business_status": "OPERATIONAL", "geometry": {"location": {"lat": 23.5304328, "lng": 86.3317472}, "viewport": {"northeast": {"lat": 23.5318404302915, "lng": 86.33315283029151}, "southwest": {"lat": 23.5291424697085, "lng": 86.33045486970849}}}, "icon": "https://maps.gstatic.com/mapfiles/place_api/icons/v1/png_71/school-71.png", "icon_background_color": "#7B9EB0", "icon_mask_base_uri": "https://maps.gstatic.com/mapfiles/place_api/icons/v2/school_pinlet", "name": "Middil School Nodiha", "place_id": "ChIJh2_psKyc9jkR8OPFLkJf7oc", "reference": "ChIJh2_psKyc9jkR8OPFLkJf7oc", "scope": "GOOGLE", "types": ["school", "point_of_interest", "establishment"], "vicinity": "G8JJ+5MH, Nadiha"}, {"business_status": "OPERATIONAL", "geometry": {"location": {"lat": 23.5344815, "lng": 86.325499}, "viewport": {"northeast": {"lat": 23.5359128302915, "lng": 86.32687208029151}, "southwest": {"lat": 23.5332148697085, "lng": 86.3241741197085}}}, "icon": "https://maps.gstatic.com/mapfiles/place_api/icons/v1/png_71/school-71.png", "icon_background_color": "#7B9EB0", "icon_mask_base_uri": "https://maps.gstatic.com/mapfiles/place_api/icons/v2/school_pinlet", "name": "Madarsa Baharul Uloom Nodiha", "photos": [{"height": 1260, "html_attributions": ["<a href=\"https://maps.google.com/maps/contrib/113163712385192386913\">Md Irfan</a>"], "photo_reference": "Aap_uECEoviaM3Yn3ZRlz5JuB6jEoRF7S1E7BZ2zvBxICZhSp8TOOCcjjMIS0Ngkqy9kDPzQjZ8bHaA2pgA3m3c0c-9SFwKAaf9Ac2XGZFtYp8O37xSRgepwhmBqc2kTrCIMfd7aMfejCZZZUAQS4CWvI_0gseFQfUkHgXmAuB-G8Gx1luoT", "width": 720}], "place_id": "ChIJYYwsN7Kc9jkRvwtCo1iH7JA", "reference": "ChIJYYwsN7Kc9jkRvwtCo1iH7JA", "scope": "GOOGLE", "types": ["school", "point_of_interest", "establishment"], "vicinity": "G8MG+Q5X, Nadiha"}, {"business_status": "OPERATIONAL", "geometry": {"location": {"lat": 23.5347846, "lng": 86.32728379999999}, "viewport": {"northeast": {"lat": 23.5358742302915, "lng": 86.3284720802915}, "southwest": {"lat": 23.5331762697085, "lng": 86.32577411970848}}}, "icon": "https://maps.gstatic.com/mapfiles/place_api/icons/v1/png_71/school-71.png", "icon_background_color": "#7B9EB0", "icon_mask_base_uri": "https://maps.gstatic.com/mapfiles/place_api/icons/v2/school_pinlet", "name": "Nadiha Madarsa", "place_id": "ChIJI4iFFcWd9jkRaKNbml4izfQ", "plus_code": {"compound_code": "G8MG+WW Nadiha, Jharkhand, India", "global_code": "7MM8G8MG+WW"}, "reference": "ChIJI4iFFcWd9jkRaKNbml4izfQ", "scope": "GOOGLE", "types": ["school", "point_of_interest", "establishment"], "vicinity": "Nadiha"}, {"business_status": "OPERATIONAL", "geometry": {"location": {"lat": 23.5308441, "lng": 86.3338296}, "viewport": {"northeast": {"lat": 23.5322121802915, "lng": 86.33517638029151}, "southwest": {"lat": 23.5295142197085, "lng": 86.33247841970851}}}, "icon": "https://maps.gstatic.com/mapfiles/place_api/icons/v1/png_71/school-71.png", "icon_background_color": "#7B9EB0", "icon_mask_base_uri": "https://maps.gstatic.com/mapfiles/place_api/icons/v2/school_pinlet", "name": "Masjid Rahimdih", "photos": [{"height": 1280, "html_attributions": ["<a href=\"https://maps.google.com/maps/contrib/100878339643233756700\">mdrizwan ansari</a>"], "photo_reference": "Aap_uECzIvYkzZTVpmqxkwda94m2Cvu2gUCWKBlB0yxrky7fkce73fM-MWPDMZjbkZWBw-W2vwQKW-IMikL2Wrj4DOg7FDJ921Us3LSDbnbgojYQipxapu1p6uLA4b75fHsyLgMUmpX9ua7PrTKlidbH4N98KsCCRd_sT_vMw-q7V5bHg64f", "width": 960}], "place_id": "ChIJO510R6uc9jkRwO8jGW1myfE", "plus_code": {"compound_code": "G8JM+8G Banshtora, Jharkhand, India", "global_code": "7MM8G8JM+8G"}, "rating": 3.6, "reference": "ChIJO510R6uc9jkRwO8jGW1myfE", "scope": "GOOGLE", "types": ["school", "point_of_interest", "establishment"], "user_ratings_total": 13, "vicinity": "Basntora"}, {"business_status": "OPERATIONAL", "geometry": {"location": {"lat": 23.5364361, "lng": 86.3242415}, "viewport": {"northeast": {"lat": 23.5377465802915, "lng": 86.3254467802915}, "southwest": {"lat": 23.5350486197085, "lng": 86.3227488197085}}}, "icon": "https://maps.gstatic.com/mapfiles/place_api/icons/v1/png_71/school-71.png", "icon_background_color": "#7B9EB0", "icon_mask_base_uri": "https://maps.gstatic.com/mapfiles/place_api/icons/v2/school_pinlet", "name": "Aftab mobil shop", "opening_hours": {"open_now": true}, "photos": [{"height": 1440, "html_attributions": ["<a href=\"https://maps.google.com/maps/contrib/110922061317119581832\">A A</a>"], "photo_reference": "Aap_uECwaWUrlBlQ6rM9QfV0rBCE6HxrHSC_8Ph9GxljFvKDfz-l6f0P5qu0lPR4oVHt1j-BjHHs00Budxv07oSrMGI7redoJa38KTCsW2CY8THUrNHLKZWlDgi4AgTEjzTjX9QUorvYdrydVLP3VuDjhwPoQh0e5PM9x0lch_KmfeZv1vUi", "width": 2560}], "place_id": "ChIJhV1CGpGd9jkRFwq-6QtxicY", "plus_code": {"compound_code": "G8PF+HM Nadiha, Jharkhand, India", "global_code": "7MM8G8PF+HM"}, "rating": 5, "reference": "ChIJhV1CGpGd9jkRFwq-6QtxicY", "scope": "GOOGLE", "types": ["school", "point_of_interest", "establishment"], "user_ratings_total": 1, "vicinity": "rahimdih, Nadiha"}, {"business_status": "OPERATIONAL", "geometry": {"location": {"lat": 23.5303867, "lng": 86.3350641}, "viewport": {"northeast": {"lat": 23.5320454802915, "lng": 86.33637843029149}, "southwest": {"lat": 23.5293475197085, "lng": 86.33368046970848}}}, "icon": "https://maps.gstatic.com/mapfiles/place_api/icons/v1/png_71/school-71.png", "icon_background_color": "#7B9EB0", "icon_mask_base_uri": "https://maps.gstatic.com/mapfiles/place_api/icons/v2/school_pinlet", "name": "Madarsa Jamiya Aaisha Lilbanaat Girls Academy", "place_id": "ChIJL4PHKauc9jkRISYJtNQ_6b8", "plus_code": {"compound_code": "G8JP+52 Banshtora, Jharkhand, India", "global_code": "7MM8G8JP+52"}, "rating": 5, "reference": "ChIJL4PHKauc9jkRISYJtNQ_6b8", "scope": "GOOGLE", "types": ["school", "point_of_interest", "establishment"], "user_ratings_total": 1, "vicinity": "Masjid Rahimdih,, Banshtora"}, {"business_status": "OPERATIONAL", "geometry": {"location": {"lat": 23.5340903, "lng": 86.3140858}, "viewport": {"northeast": {"lat": 23.53548613029151, "lng": 86.31537758029151}, "southwest": {"lat": 23.5327881697085, "lng": 86.31267961970849}}}, "icon": "https://maps.gstatic.com/mapfiles/place_api/icons/v1/png_71/school-71.png", "icon_background_color": "#7B9EB0", "icon_mask_base_uri": "https://maps.gstatic.com/mapfiles/place_api/icons/v2/school_pinlet", "name": "Bhuiyabahal Primeary.School", "place_id": "ChIJUbFcxsuc9jkRhc-9RHwh3W8", "reference": "ChIJUbFcxsuc9jkRhc-9RHwh3W8", "scope": "GOOGLE", "types": ["school", "point_of_interest", "establishment"], "vicinity": "G8M7+JJP, Kanria"}], "status": "OK"}