{"html_attributions": [], "results": [{"business_status": "OPERATIONAL", "geometry": {"location": {"lat": 23.5459672, "lng": 86.32997499999999}, "viewport": {"northeast": {"lat": 23.5473469802915, "lng": 86.33124598029151}, "southwest": {"lat": 23.5446490197085, "lng": 86.3285480197085}}}, "icon": "https://maps.gstatic.com/mapfiles/place_api/icons/v1/png_71/school-71.png", "icon_background_color": "#7B9EB0", "icon_mask_base_uri": "https://maps.gstatic.com/mapfiles/place_api/icons/v2/school_pinlet", "name": "Ialamic Arbi Madarsa Husendih", "place_id": "ChIJ4-kN9aSc9jkRhWNL3bXm8VQ", "reference": "ChIJ4-kN9aSc9jkRhWNL3bXm8VQ", "scope": "GOOGLE", "types": ["school", "point_of_interest", "establishment"], "vicinity": "G8WH+9XQ, Nadiha"}, {"business_status": "OPERATIONAL", "geometry": {"location": {"lat": 23.552476, "lng": 86.337583}, "viewport": {"northeast": {"lat": 23.5537455302915, "lng": 86.33891063029151}, "southwest": {"lat": 23.55104756970849, "lng": 86.33621266970849}}}, "icon": "https://maps.gstatic.com/mapfiles/place_api/icons/v1/png_71/school-71.png", "icon_background_color": "#7B9EB0", "icon_mask_base_uri": "https://maps.gstatic.com/mapfiles/place_api/icons/v2/school_pinlet", "name": "PRIMARY SCHOOL,NUNIADIH", "opening_hours": {"open_now": false}, "place_id": "ChIJyw1DCqCc9jkRlvPrAMPNGVA", "rating": 4.5, "reference": "ChIJyw1DCqCc9jkRlvPrAMPNGVA", "scope": "GOOGLE", "types": ["school", "point_of_interest", "establishment"], "user_ratings_total": 2, "vicinity": "H82Q+X2W, Purulia"}, {"business_status": "OPERATIONAL", "geometry": {"location": {"lat": 23.5364361, "lng": 86.3242415}, "viewport": {"northeast": {"lat": 23.5377465802915, "lng": 86.3254467802915}, "southwest": {"lat": 23.5350486197085, "lng": 86.3227488197085}}}, "icon": "https://maps.gstatic.com/mapfiles/place_api/icons/v1/png_71/school-71.png", "icon_background_color": "#7B9EB0", "icon_mask_base_uri": "https://maps.gstatic.com/mapfiles/place_api/icons/v2/school_pinlet", "name": "Aftab mobil shop", "opening_hours": {"open_now": true}, "photos": [{"height": 1440, "html_attributions": ["<a href=\"https://maps.google.com/maps/contrib/110922061317119581832\">A A</a>"], "photo_reference": "Aap_uEDZDzaG4rBIa2eGmQgWttk-lh0vmVqsTY1KUxPRq3MyLsSneL_01VECnnreeey0urYB1-hAFzfFVcJo649Iq8hyPTQ3OZxRy6hFBK5kj4yVK8mbBC_Bi27Dp8KZms_uNqvQTF_oZ3pKM0xMUqLYhcr2SQlumv69P2bVJ0WVqD3LiPrP", "width": 2560}], "place_id": "ChIJhV1CGpGd9jkRFwq-6QtxicY", "plus_code": {"compound_code": "G8PF+HM Nadiha, Jharkhand, India", "global_code": "7MM8G8PF+HM"}, "rating": 5, "reference": "ChIJhV1CGpGd9jkRFwq-6QtxicY", "scope": "GOOGLE", "types": ["school", "point_of_interest", "establishment"], "user_ratings_total": 1, "vicinity": "rahimdih, Nadiha"}], "status": "OK"}