{"html_attributions": [], "results": [{"business_status": "OPERATIONAL", "geometry": {"location": {"lat": 23.6704864, "lng": 86.3685844}, "viewport": {"northeast": {"lat": 23.6718728802915, "lng": 86.36995473029151}, "southwest": {"lat": 23.6691749197085, "lng": 86.36725676970849}}}, "icon": "https://maps.gstatic.com/mapfiles/place_api/icons/v1/png_71/school-71.png", "icon_background_color": "#7B9EB0", "icon_mask_base_uri": "https://maps.gstatic.com/mapfiles/place_api/icons/v2/school_pinlet", "name": "New Primary School Amlabad", "place_id": "ChIJHZmzXKWZ9jkRCqjCcFd47ok", "plus_code": {"compound_code": "M9C9+5C Birubandh, Jharkhand, India", "global_code": "7MM8M9C9+5C"}, "reference": "ChIJHZmzXKWZ9jkRCqjCcFd47ok", "scope": "GOOGLE", "types": ["school", "point_of_interest", "establishment"], "vicinity": "Amlabad Basti Road, Birubandh"}, {"business_status": "OPERATIONAL", "geometry": {"location": {"lat": 23.6648503, "lng": 86.36893409999999}, "viewport": {"northeast": {"lat": 23.6661263302915, "lng": 86.3702319302915}, "southwest": {"lat": 23.6634283697085, "lng": 86.36753396970849}}}, "icon": "https://maps.gstatic.com/mapfiles/place_api/icons/v1/png_71/school-71.png", "icon_background_color": "#7B9EB0", "icon_mask_base_uri": "https://maps.gstatic.com/mapfiles/place_api/icons/v2/school_pinlet", "name": "Middel School Birubandh", "opening_hours": {"open_now": false}, "place_id": "ChIJQTQQtpSZ9jkRDV3zVPQESeQ", "reference": "ChIJQTQQtpSZ9jkRDV3zVPQESeQ", "scope": "GOOGLE", "types": ["school", "point_of_interest", "establishment"], "vicinity": "M979+WHV, Birubandh"}, {"business_status": "OPERATIONAL", "geometry": {"location": {"lat": 23.6688995, "lng": 86.37152139999999}, "viewport": {"northeast": {"lat": 23.6702707302915, "lng": 86.37288778029149}, "southwest": {"lat": 23.6675727697085, "lng": 86.37018981970849}}}, "icon": "https://maps.gstatic.com/mapfiles/place_api/icons/v1/png_71/school-71.png", "icon_background_color": "#7B9EB0", "icon_mask_base_uri": "https://maps.gstatic.com/mapfiles/place_api/icons/v2/school_pinlet", "name": "Bela Bhandari Gram, Amlabad", "place_id": "ChIJJ_UclgOZ9jkR8Yy5IRXYc4s", "reference": "ChIJJ_UclgOZ9jkR8Yy5IRXYc4s", "scope": "GOOGLE", "types": ["school", "point_of_interest", "establishment"], "vicinity": "M99C+HJ2, Amlabad Basti, Birubandh"}, {"business_status": "OPERATIONAL", "geometry": {"location": {"lat": 23.6625503, "lng": 86.3651015}, "viewport": {"northeast": {"lat": 23.6635857302915, "lng": 86.3665762302915}, "southwest": {"lat": 23.6608877697085, "lng": 86.3638782697085}}}, "icon": "https://maps.gstatic.com/mapfiles/place_api/icons/v1/png_71/school-71.png", "icon_background_color": "#7B9EB0", "icon_mask_base_uri": "https://maps.gstatic.com/mapfiles/place_api/icons/v2/school_pinlet", "name": "Madarsa Azim Bhandaribandh", "place_id": "ChIJ6XNPz6GZ9jkR1nsL-Np4IyM", "reference": "ChIJ6XNPz6GZ9jkR1nsL-Np4IyM", "scope": "GOOGLE", "types": ["school", "point_of_interest", "establishment"], "vicinity": "M978+22H, Bhandaribandh, Mahal"}, {"business_status": "CLOSED_TEMPORARILY", "geometry": {"location": {"lat": 23.6703556, "lng": 86.3735287}, "viewport": {"northeast": {"lat": 23.6717517302915, "lng": 86.37489018029152}, "southwest": {"lat": 23.6690537697085, "lng": 86.37219221970851}}}, "icon": "https://maps.gstatic.com/mapfiles/place_api/icons/v1/png_71/school-71.png", "icon_background_color": "#7B9EB0", "icon_mask_base_uri": "https://maps.gstatic.com/mapfiles/place_api/icons/v2/school_pinlet", "name": "Model School of Learning (Closed)", "permanently_closed": true, "place_id": "ChIJ5VkRTQuZ9jkRjoZ2fTxQUKA", "plus_code": {"compound_code": "M9CF+4C Karadi, Jharkhand, India", "global_code": "7MM8M9CF+4C"}, "reference": "ChIJ5VkRTQuZ9jkRjoZ2fTxQUKA", "scope": "GOOGLE", "types": ["school", "point_of_interest", "establishment"], "vicinity": "Karadi"}, {"business_status": "OPERATIONAL", "geometry": {"location": {"lat": 23.6684717, "lng": 86.35772039999999}, "viewport": {"northeast": {"lat": 23.6697863802915, "lng": 86.35912508029149}, "southwest": {"lat": 23.6670884197085, "lng": 86.35642711970848}}}, "icon": "https://maps.gstatic.com/mapfiles/place_api/icons/v1/png_71/school-71.png", "icon_background_color": "#7B9EB0", "icon_mask_base_uri": "https://maps.gstatic.com/mapfiles/place_api/icons/v2/school_pinlet", "name": "Joshi Bhawan", "place_id": "ChIJh2vzga-Z9jkRqac5J6NMLuE", "rating": 2.5, "reference": "ChIJh2vzga-Z9jkRqac5J6NMLuE", "scope": "GOOGLE", "types": ["school", "point_of_interest", "establishment"], "user_ratings_total": 2, "vicinity": "M995+93Q, Debgram"}, {"business_status": "OPERATIONAL", "geometry": {"location": {"lat": 23.6614428, "lng": 86.36376179999999}, "viewport": {"northeast": {"lat": 23.6627832302915, "lng": 86.3651237802915}, "southwest": {"lat": 23.6600852697085, "lng": 86.36242581970849}}}, "icon": "https://maps.gstatic.com/mapfiles/place_api/icons/v1/png_71/school-71.png", "icon_background_color": "#7B9EB0", "icon_mask_base_uri": "https://maps.gstatic.com/mapfiles/place_api/icons/v2/school_pinlet", "name": "Aaganbari Candra Bhandaribandh", "place_id": "ChIJseRjCBqZ9jkRn0q_4fDj0Qo", "plus_code": {"compound_code": "M967+HG Mahal, Jharkhand, India", "global_code": "7MM8M967+HG"}, "reference": "ChIJseRjCBqZ9jkRn0q_4fDj0Qo", "scope": "GOOGLE", "types": ["school", "point_of_interest", "establishment"], "vicinity": "Bhandaribandh, Mahal"}, {"business_status": "OPERATIONAL", "geometry": {"location": {"lat": 23.6585157, "lng": 86.36090689999999}, "viewport": {"northeast": {"lat": 23.6599184302915, "lng": 86.3622706302915}, "southwest": {"lat": 23.6572204697085, "lng": 86.3595726697085}}}, "icon": "https://maps.gstatic.com/mapfiles/place_api/icons/v1/png_71/school-71.png", "icon_background_color": "#7B9EB0", "icon_mask_base_uri": "https://maps.gstatic.com/mapfiles/place_api/icons/v2/school_pinlet", "name": "praimary school Bhandaribandh", "place_id": "ChIJwbe7AxeZ9jkRdYXRaAkVNqg", "rating": 5, "reference": "ChIJwbe7AxeZ9jkRdYXRaAkVNqg", "scope": "GOOGLE", "types": ["school", "point_of_interest", "establishment"], "user_ratings_total": 1, "vicinity": "M956+C93, Bhandaribandh, Mahal"}, {"business_status": "OPERATIONAL", "geometry": {"location": {"lat": 23.6584119, "lng": 86.3609401}, "viewport": {"northeast": {"lat": 23.6598598802915, "lng": 86.3623162802915}, "southwest": {"lat": 23.6571619197085, "lng": 86.35961831970847}}}, "icon": "https://maps.gstatic.com/mapfiles/place_api/icons/v1/png_71/school-71.png", "icon_background_color": "#7B9EB0", "icon_mask_base_uri": "https://maps.gstatic.com/mapfiles/place_api/icons/v2/school_pinlet", "name": "Prathamik Vidayalay Bhandaribandh", "photos": [{"height": 720, "html_attributions": ["<a href=\"https://maps.google.com/maps/contrib/108864038944778632710\">Krishnkant Rajwar</a>"], "photo_reference": "Aap_uEBb5q7AMTCMtl5cNQCtRN8lAAU5eLEOkB7GwxSOymb2UaDHrhtvZmDURh2nYNYPmlpCyJwKZqKT9Un4m0vg842qPlVuwTQMIkLM-J7GFrZTIAni_ZV5ECyaiAWg89x0In9SIsqgCuIbMlPKVDaorxgKqb6yRRgkAXNg0wfB8L-iePJT", "width": 1280}], "place_id": "ChIJ261QAheZ9jkRWk3As7PG67E", "rating": 4, "reference": "ChIJ261QAheZ9jkRWk3As7PG67E", "scope": "GOOGLE", "types": ["school", "point_of_interest", "establishment"], "user_ratings_total": 2, "vicinity": "M956+998, Bhandaribandh, Mahal"}], "status": "OK"}