{"html_attributions": [], "results": [{"business_status": "OPERATIONAL", "geometry": {"location": {"lat": 23.7506618, "lng": 86.3647314}, "viewport": {"northeast": {"lat": 23.7520295802915, "lng": 86.3661574802915}, "southwest": {"lat": 23.7493316197085, "lng": 86.3634595197085}}}, "icon": "https://maps.gstatic.com/mapfiles/place_api/icons/v1/png_71/school-71.png", "icon_background_color": "#7B9EB0", "icon_mask_base_uri": "https://maps.gstatic.com/mapfiles/place_api/icons/v2/school_pinlet", "name": "Alargoria Middle School", "place_id": "ChIJA6f5dkSi9jkRDmGvE2993jk", "plus_code": {"compound_code": "Q927+7V Dhanbad, Jharkhand, India", "global_code": "7MM8Q927+7V"}, "reference": "ChIJA6f5dkSi9jkRDmGvE2993jk", "scope": "GOOGLE", "types": ["school", "point_of_interest", "establishment"], "vicinity": "Aralgoria, Dhanbad"}, {"business_status": "OPERATIONAL", "geometry": {"location": {"lat": 23.7507762, "lng": 86.3646871}, "viewport": {"northeast": {"lat": 23.7521593302915, "lng": 86.36607438029151}, "southwest": {"lat": 23.7494613697085, "lng": 86.3633764197085}}}, "icon": "https://maps.gstatic.com/mapfiles/place_api/icons/v1/png_71/school-71.png", "icon_background_color": "#7B9EB0", "icon_mask_base_uri": "https://maps.gstatic.com/mapfiles/place_api/icons/v2/school_pinlet", "name": "Primary School, Sarkardih", "place_id": "ChIJN5XRd0Si9jkR09o0VYVk_3Q", "plus_code": {"compound_code": "Q927+8V Loyabad, Jharkhand, India", "global_code": "7MM8Q927+8V"}, "reference": "ChIJN5XRd0Si9jkR09o0VYVk_3Q", "scope": "GOOGLE", "types": ["school", "point_of_interest", "establishment"], "vicinity": "Aralgaria Basti, Loyabad"}, {"business_status": "OPERATIONAL", "geometry": {"location": {"lat": 23.7450967, "lng": 86.3722526}, "viewport": {"northeast": {"lat": 23.7468478302915, "lng": 86.37733039999999}, "southwest": {"lat": 23.7441498697085, "lng": 86.37056}}}, "icon": "https://maps.gstatic.com/mapfiles/place_api/icons/v1/png_71/school-71.png", "icon_background_color": "#7B9EB0", "icon_mask_base_uri": "https://maps.gstatic.com/mapfiles/place_api/icons/v2/school_pinlet", "name": "Shishu. Gyan. Mandir", "place_id": "ChIJ3T1TICmj9jkRu39Hq-HxlVw", "plus_code": {"compound_code": "P9WC+2W Kenduadih, Jharkhand, India", "global_code": "7MM8P9WC+2W"}, "reference": "ChIJ3T1TICmj9jkRu39Hq-HxlVw", "scope": "GOOGLE", "types": ["school", "point_of_interest", "establishment"], "vicinity": "South Balihari, Kenduadih"}, {"business_status": "OPERATIONAL", "geometry": {"location": {"lat": 23.7532264, "lng": 86.373127}, "viewport": {"northeast": {"lat": 23.75462568029151, "lng": 86.3746345302915}, "southwest": {"lat": 23.7519277197085, "lng": 86.3719365697085}}}, "icon": "https://maps.gstatic.com/mapfiles/place_api/icons/v1/png_71/school-71.png", "icon_background_color": "#7B9EB0", "icon_mask_base_uri": "https://maps.gstatic.com/mapfiles/place_api/icons/v2/school_pinlet", "name": "Middle school Kachhi Baliari", "photos": [{"height": 1920, "html_attributions": ["<a href=\"https://maps.google.com/maps/contrib/107906863493694125138\">Rupesh Ranjan</a>"], "photo_reference": "Aap_uEBcvHJ0r_27zTOvSGxpbJRb023QG0hMPsHM0FyzF7TMJUHL68GQwUx8tWQOmM4BmBgx0L4LCvGDmZ-Sfy3Tx2RwVE1mhky6aA2ksiVvqQbKOfKlULKihrkNT1_dGXMq61UylWRsS79DxX67JtFC9ZixVwTgVHDILUfV0qWnaenkQ-KN", "width": 1080}], "place_id": "ChIJhUyunmCj9jkRzVy6l84b9Ds", "plus_code": {"compound_code": "Q93F+77 Baliari, Jharkhand, India", "global_code": "7MM8Q93F+77"}, "rating": 5, "reference": "ChIJhUyunmCj9jkRzVy6l84b9Ds", "scope": "GOOGLE", "types": ["school", "point_of_interest", "establishment"], "user_ratings_total": 1, "vicinity": "South Baliari Basti Road, Baliari"}, {"business_status": "OPERATIONAL", "geometry": {"location": {"lat": 23.755906, "lng": 86.3723955}, "viewport": {"northeast": {"lat": 23.7572447302915, "lng": 86.37381428029151}, "southwest": {"lat": 23.75454676970849, "lng": 86.3711163197085}}}, "icon": "https://maps.gstatic.com/mapfiles/place_api/icons/v1/png_71/school-71.png", "icon_background_color": "#7B9EB0", "icon_mask_base_uri": "https://maps.gstatic.com/mapfiles/place_api/icons/v2/school_pinlet", "name": "Mangra School", "place_id": "ChIJRzfPD1qi9jkR-Mvcl0gJyMw", "reference": "ChIJRzfPD1qi9jkR-Mvcl0gJyMw", "scope": "GOOGLE", "types": ["school", "point_of_interest", "establishment"], "vicinity": "Q94C+9X6, Baliari"}, {"business_status": "OPERATIONAL", "geometry": {"location": {"lat": 23.7577628, "lng": 86.3699785}, "viewport": {"northeast": {"lat": 23.7589491802915, "lng": 86.3712538302915}, "southwest": {"lat": 23.7562512197085, "lng": 86.36855586970849}}}, "icon": "https://maps.gstatic.com/mapfiles/place_api/icons/v1/png_71/school-71.png", "icon_background_color": "#7B9EB0", "icon_mask_base_uri": "https://maps.gstatic.com/mapfiles/place_api/icons/v2/school_pinlet", "name": "S.S.N.M. smarak high school", "photos": [{"height": 720, "html_attributions": ["<a href=\"https://maps.google.com/maps/contrib/104499878924501609157\">Atibiswas Charan</a>"], "photo_reference": "Aap_uEDEAutaDQ7gVN-oPKtRXWxQrVWBBJcCvklD9GxMuO4t9cZM8Ok5eUvwOIOQwfmv-FvdSPoPWf70E2tv6p2Bo9HDGvv8LMyngdobTDX2mSd6IZb1nq4W0NkR1Tf791aBy_CXroEhSwCeB9h8APuDtk2FMc9AmntWEIPTr7Iwfa69v4Nh", "width": 1032}], "place_id": "ChIJZ7GdaFCi9jkRYd6SWeOzIcM", "rating": 3.4, "reference": "ChIJZ7GdaFCi9jkRYd6SWeOzIcM", "scope": "GOOGLE", "types": ["school", "point_of_interest", "establishment"], "user_ratings_total": 14, "vicinity": "Q959+4X5, Baliari"}, {"business_status": "OPERATIONAL", "geometry": {"location": {"lat": 23.7581068, "lng": 86.36261309999999}, "viewport": {"northeast": {"lat": 23.7594873302915, "lng": 86.36398963029151}, "southwest": {"lat": 23.7567893697085, "lng": 86.36129166970849}}}, "icon": "https://maps.gstatic.com/mapfiles/place_api/icons/v1/png_71/school-71.png", "icon_background_color": "#7B9EB0", "icon_mask_base_uri": "https://maps.gstatic.com/mapfiles/place_api/icons/v2/school_pinlet", "name": "Lowadih High School", "place_id": "ChIJzYmR4lKj9jkRM2MlT_wMFhE", "plus_code": {"compound_code": "Q957+62 Loyabad, Jharkhand, India", "global_code": "7MM8Q957+62"}, "reference": "ChIJzYmR4lKj9jkRM2MlT_wMFhE", "scope": "GOOGLE", "types": ["school", "point_of_interest", "establishment"], "vicinity": "Unnamed Road, Loyabad"}, {"business_status": "OPERATIONAL", "geometry": {"location": {"lat": 23.7536878, "lng": 86.3756867}, "viewport": {"northeast": {"lat": 23.7550512802915, "lng": 86.37681898029152}, "southwest": {"lat": 23.7523533197085, "lng": 86.37412101970851}}}, "icon": "https://maps.gstatic.com/mapfiles/place_api/icons/v1/png_71/school-71.png", "icon_background_color": "#7B9EB0", "icon_mask_base_uri": "https://maps.gstatic.com/mapfiles/place_api/icons/v2/school_pinlet", "name": "Swami Vivekananda Saraswati Shishu Mandir", "place_id": "ChIJq6qqqlmi9jkRRNlTg6Ti2lc", "reference": "ChIJq6qqqlmi9jkRRNlTg6Ti2lc", "scope": "GOOGLE", "types": ["school", "point_of_interest", "establishment"], "vicinity": "Q93G+F7F, Baliari"}, {"business_status": "OPERATIONAL", "geometry": {"location": {"lat": 23.7591047, "lng": 86.3686068}, "viewport": {"northeast": {"lat": 23.7604497802915, "lng": 86.3699330802915}, "southwest": {"lat": 23.7577518197085, "lng": 86.36723511970848}}}, "icon": "https://maps.gstatic.com/mapfiles/place_api/icons/v1/png_71/school-71.png", "icon_background_color": "#7B9EB0", "icon_mask_base_uri": "https://maps.gstatic.com/mapfiles/place_api/icons/v2/school_pinlet", "name": "Balihari saraswati mandir", "photos": [{"height": 1080, "html_attributions": ["<a href=\"https://maps.google.com/maps/contrib/105102759298225500032\">Kamal Mahato</a>"], "photo_reference": "Aap_uEABxbpQK_bMVZg0cONKlxjDoT8cKn72PbrjC625bH5riyc2LgjVFSvU7I_THi6u6ksETuewRe39VqlGrFgggNGVkv9HZNd2MoAPdB9QoTa1S4ooLjpOCdW1WhPFBvSj0Kp4KpSiGQKQTb2gAYjqD-uRIBgZTwrwUOM2Bo4NkPx8t50U", "width": 1920}], "place_id": "ChIJU8jDJVyj9jkRdrN2_BO7r_M", "plus_code": {"compound_code": "Q959+JC Baliari, Jharkhand, India", "global_code": "7MM8Q959+JC"}, "reference": "ChIJU8jDJVyj9jkRdrN2_BO7r_M", "scope": "GOOGLE", "types": ["school", "point_of_interest", "establishment"], "vicinity": "Baliari"}, {"business_status": "OPERATIONAL", "geometry": {"location": {"lat": 23.759712, "lng": 86.36256}, "viewport": {"northeast": {"lat": 23.7610020302915, "lng": 86.3638464302915}, "southwest": {"lat": 23.7583040697085, "lng": 86.3611484697085}}}, "icon": "https://maps.gstatic.com/mapfiles/place_api/icons/v1/png_71/school-71.png", "icon_background_color": "#7B9EB0", "icon_mask_base_uri": "https://maps.gstatic.com/mapfiles/place_api/icons/v2/school_pinlet", "name": "K.B.C. Play School", "photos": [{"height": 4128, "html_attributions": ["<a href=\"https://maps.google.com/maps/contrib/103758501565344895722\">pappu soni</a>"], "photo_reference": "Aap_uEBxq2JOBS2E-FpTmP9WBUahsNrw1B2_AcbeZntPvJSaLLwZHVhF18LDyR5gHgiCYK7EHiE1qMV49Bu94os_gWa8C4CCg1zHsqRnHDx3GuHKc4htv7W2vdQBWmu8cgl8Vj8ZCJ50p54RUJq-EQ2nbuLqtEmxTgaFCnzwx3F8J2inpZ6H", "width": 2322}], "place_id": "ChIJyRXULkmi9jkR9ZzWzrbPcb4", "plus_code": {"compound_code": "Q957+V2 Dhanbad, Jharkhand, India", "global_code": "7MM8Q957+V2"}, "reference": "ChIJyRXULkmi9jkR9ZzWzrbPcb4", "scope": "GOOGLE", "types": ["school", "point_of_interest", "establishment"], "vicinity": "Near Putki SBI, Pukti Main Road, Dhanbad"}, {"business_status": "OPERATIONAL", "geometry": {"location": {"lat": 23.7436982, "lng": 86.3772699}, "viewport": {"northeast": {"lat": 23.7449756302915, "lng": 86.3783255302915}, "southwest": {"lat": 23.7422776697085, "lng": 86.3756275697085}}}, "icon": "https://maps.gstatic.com/mapfiles/place_api/icons/v1/png_71/school-71.png", "icon_background_color": "#7B9EB0", "icon_mask_base_uri": "https://maps.gstatic.com/mapfiles/place_api/icons/v2/school_pinlet", "name": "Basir More", "photos": [{"height": 1920, "html_attributions": ["<a href=\"https://maps.google.com/maps/contrib/115027362565486938099\">Subhan Khan</a>"], "photo_reference": "Aap_uECAg0zM1e3-5iaJa41TaL34a6BML6b0ht6pnCMTCPVQBxELZKDzHnLLwN2HdhsTNpm7_SZsJTcAz8CW92AVujqJT0O-gdyTlSYjQpyBl5nvbhAksluBBjhFxGsAcoJ3b-wbAqgqw1y2I-K7aldWS9SQTSCv6sFF1WdK3epUIygD1gPI", "width": 1080}], "place_id": "ChIJq6qqFmCi9jkRDf9u_tYu7uw", "rating": 5, "reference": "ChIJq6qqFmCi9jkRDf9u_tYu7uw", "scope": "GOOGLE", "types": ["school", "point_of_interest", "establishment"], "user_ratings_total": 4, "vicinity": "P9VG+FWC, Bhagabandh Basti, Kenduadih"}, {"business_status": "OPERATIONAL", "geometry": {"location": {"lat": 23.7436981, "lng": 86.3772699}, "viewport": {"northeast": {"lat": 23.7449755802915, "lng": 86.3783255302915}, "southwest": {"lat": 23.7422776197085, "lng": 86.3756275697085}}}, "icon": "https://maps.gstatic.com/mapfiles/place_api/icons/v1/png_71/school-71.png", "icon_background_color": "#7B9EB0", "icon_mask_base_uri": "https://maps.gstatic.com/mapfiles/place_api/icons/v2/school_pinlet", "name": "Nooria Qadria Masjid Bhagabndh Basti", "opening_hours": {"open_now": true}, "place_id": "ChIJzZm3lvKj9jkRMEjRw5mzJ1E", "rating": 5, "reference": "ChIJzZm3lvKj9jkRMEjRw5mzJ1E", "scope": "GOOGLE", "types": ["school", "point_of_interest", "establishment"], "user_ratings_total": 1, "vicinity": "P9VG+FWC, Bhagabandh Basti, Kenduadih"}, {"business_status": "OPERATIONAL", "geometry": {"location": {"lat": 23.7365089, "lng": 86.3633167}, "viewport": {"northeast": {"lat": 23.7377766802915, "lng": 86.3646854302915}, "southwest": {"lat": 23.7350787197085, "lng": 86.3619874697085}}}, "icon": "https://maps.gstatic.com/mapfiles/place_api/icons/v1/png_71/school-71.png", "icon_background_color": "#7B9EB0", "icon_mask_base_uri": "https://maps.gstatic.com/mapfiles/place_api/icons/v2/school_pinlet", "name": "Middle School, LALPUR", "photos": [{"height": 3120, "html_attributions": ["<a href=\"https://maps.google.com/maps/contrib/100666362529406703427\">SAPAN KUMAR</a>"], "photo_reference": "Aap_uECF09I-Lk6ZmAciFrGNzMLn0NCKMXq5FU59e4Ilqk_rSVr3-qhDe9R3nBlblco8YSEw3B0qtPL3tsQWxkfQhnK4hBKOSEFY-Xh_zHg3FbrPBz5URPjIuFVZS6lVocWKMufK6tP_pXsAtLm9olywBu8M2t076U0wx8MZl99q0YLegP4O", "width": 4160}], "place_id": "ChIJw4t2nG6i9jkRTZvNdF2ICG0", "rating": 4.8, "reference": "ChIJw4t2nG6i9jkRTZvNdF2ICG0", "scope": "GOOGLE", "types": ["school", "point_of_interest", "establishment"], "user_ratings_total": 5, "vicinity": "P9P7+J84, Kenduadih"}], "status": "OK"}