{"html_attributions": [], "results": [{"business_status": "OPERATIONAL", "geometry": {"location": {"lat": 23.6400376, "lng": 86.185159}, "viewport": {"northeast": {"lat": 23.6413787302915, "lng": 86.1865298802915}, "southwest": {"lat": 23.6386807697085, "lng": 86.1838319197085}}}, "icon": "https://maps.gstatic.com/mapfiles/place_api/icons/v1/png_71/school-71.png", "icon_background_color": "#7B9EB0", "icon_mask_base_uri": "https://maps.gstatic.com/mapfiles/place_api/icons/v2/school_pinlet", "name": "Government Primary School", "place_id": "ChIJI9hMhn8h9DkRhZF8vpnv-z4", "plus_code": {"compound_code": "J5RP+23 Chas, Jharkhand, India", "global_code": "7MM8J5RP+23"}, "reference": "ChIJI9hMhn8h9DkRhZF8vpnv-z4", "scope": "GOOGLE", "types": ["primary_school", "school", "point_of_interest", "establishment"], "vicinity": "Defence Colony Nandua Ashthan, Chas"}, {"business_status": "OPERATIONAL", "geometry": {"location": {"lat": 23.6461704, "lng": 86.1759944}, "viewport": {"northeast": {"lat": 23.6475302302915, "lng": 86.1773473302915}, "southwest": {"lat": 23.64483226970849, "lng": 86.17464936970849}}}, "icon": "https://maps.gstatic.com/mapfiles/place_api/icons/v1/png_71/school-71.png", "icon_background_color": "#7B9EB0", "icon_mask_base_uri": "https://maps.gstatic.com/mapfiles/place_api/icons/v2/school_pinlet", "name": "NPS Sultan Nagar Chas", "place_id": "ChIJmT5SXDMh9DkRYivuJL7nt9Y", "rating": 5, "reference": "ChIJmT5SXDMh9DkRYivuJL7nt9Y", "scope": "GOOGLE", "types": ["primary_school", "school", "point_of_interest", "establishment"], "user_ratings_total": 1, "vicinity": "J5WG+F99, Sultan Nagar, Ansari Colony, Bokaro Steel City"}, {"business_status": "OPERATIONAL", "geometry": {"location": {"lat": 23.6523742, "lng": 86.1750948}, "viewport": {"northeast": {"lat": 23.6538333302915, "lng": 86.1764129302915}, "southwest": {"lat": 23.6511353697085, "lng": 86.17371496970848}}}, "icon": "https://maps.gstatic.com/mapfiles/place_api/icons/v1/png_71/school-71.png", "icon_background_color": "#7B9EB0", "icon_mask_base_uri": "https://maps.gstatic.com/mapfiles/place_api/icons/v2/school_pinlet", "name": "Happy Children School", "photos": [{"height": 3096, "html_attributions": ["<a href=\"https://maps.google.com/maps/contrib/103083351456691663421\">Neelabh Sharma</a>"], "photo_reference": "Aap_uECQEZSQa7S7sotjaonoAc8JSselHuuoITlDgFWL0KyfXGxG7wcsjpv_19lGPXWcrD-kZJ_njEiLYchcRS7Cox12PYedSctKYrVnse9qqJZBQZ1LtzuGbyCjXzMOpKDUJWv-MIJe1DqmRb4-cCkAOeQ93Jb7Bkuf75iKNrK-ZoZoP1_L", "width": 4128}], "place_id": "ChIJPVGNn9gj9DkRyvPt7LROS00", "reference": "ChIJPVGNn9gj9DkRyvPt7LROS00", "scope": "GOOGLE", "types": ["primary_school", "school", "point_of_interest", "establishment"], "vicinity": "M52G+W2X, Ghous Nagar Colony, Bokaro Steel City"}, {"geometry": {"location": {"lat": 23.6592472, "lng": 86.1921802}, "viewport": {"northeast": {"lat": 23.66069318975905, "lng": 86.19345572962615}, "southwest": {"lat": 23.65799522917604, "lng": 86.19075776904315}}}, "icon": "https://maps.gstatic.com/mapfiles/place_api/icons/v1/png_71/school-71.png", "icon_background_color": "#7B9EB0", "icon_mask_base_uri": "https://maps.gstatic.com/mapfiles/place_api/icons/v2/school_pinlet", "name": "Government Primary School", "place_id": "ChIJM8rtRXIh9DkRmG3-7e2G500", "reference": "ChIJM8rtRXIh9DkRmG3-7e2G500", "scope": "GOOGLE", "types": ["primary_school", "premise", "school", "establishment"], "vicinity": "Gandhajore"}], "status": "OK"}