{"html_attributions": [], "results": [{"business_status": "OPERATIONAL", "geometry": {"location": {"lat": 23.7755075, "lng": 86.4176671}, "viewport": {"northeast": {"lat": 23.7768128302915, "lng": 86.4190158802915}, "southwest": {"lat": 23.7741148697085, "lng": 86.41631791970849}}}, "icon": "https://maps.gstatic.com/mapfiles/place_api/icons/v1/png_71/school-71.png", "icon_background_color": "#7B9EB0", "icon_mask_base_uri": "https://maps.gstatic.com/mapfiles/place_api/icons/v2/school_pinlet", "name": "Primary School Chandmari", "place_id": "ChIJdRKQoCyj9jkRdd6dfE5ZwTM", "plus_code": {"compound_code": "QCG9+63 Dhanbad, Jharkhand, India", "global_code": "7MM8QCG9+63"}, "rating": 3.7, "reference": "ChIJdRKQoCyj9jkRdd6dfE5ZwTM", "scope": "GOOGLE", "types": ["primary_school", "school", "point_of_interest", "establishment"], "user_ratings_total": 3, "vicinity": "Purana Bazar Main Road, Anugrah Nagar, Dhanbad"}, {"business_status": "OPERATIONAL", "geometry": {"location": {"lat": 23.7790469, "lng": 86.4338136}, "viewport": {"northeast": {"lat": 23.7804601302915, "lng": 86.4350824802915}, "southwest": {"lat": 23.7777621697085, "lng": 86.43238451970849}}}, "icon": "https://maps.gstatic.com/mapfiles/place_api/icons/v1/png_71/school-71.png", "icon_background_color": "#7B9EB0", "icon_mask_base_uri": "https://maps.gstatic.com/mapfiles/place_api/icons/v2/school_pinlet", "name": "Government Primary School", "place_id": "ChIJW7Urftu89jkRlw2UBD7ce8w", "rating": 5, "reference": "ChIJW7Urftu89jkRlw2UBD7ce8w", "scope": "GOOGLE", "types": ["primary_school", "school", "point_of_interest", "establishment"], "user_ratings_total": 1, "vicinity": "QCHM+JG8, Dhanbad"}, {"business_status": "OPERATIONAL", "geometry": {"location": {"lat": 23.7794507, "lng": 86.41815760000001}, "viewport": {"northeast": {"lat": 23.7808793302915, "lng": 86.41941728029153}, "southwest": {"lat": 23.77818136970849, "lng": 86.41671931970852}}}, "icon": "https://maps.gstatic.com/mapfiles/place_api/icons/v1/png_71/school-71.png", "icon_background_color": "#7B9EB0", "icon_mask_base_uri": "https://maps.gstatic.com/mapfiles/place_api/icons/v2/school_pinlet", "name": "Lakshmi Shishu Niketan", "place_id": "ChIJU_tZ0tK89jkRRQfo4p3TBdo", "plus_code": {"compound_code": "QCH9+Q7 Dhanbad, Jharkhand, India", "global_code": "7MM8QCH9+Q7"}, "reference": "ChIJU_tZ0tK89jkRRQfo4p3TBdo", "scope": "GOOGLE", "types": ["primary_school", "school", "point_of_interest", "establishment"], "vicinity": "Chandmari Road, Joraphatak, Dhanbad"}], "status": "OK"}