{"html_attributions": [], "results": [{"business_status": "OPERATIONAL", "geometry": {"location": {"lat": 23.6729958, "lng": 86.4877233}, "viewport": {"northeast": {"lat": 23.6743267802915, "lng": 86.4891082802915}, "southwest": {"lat": 23.67162881970849, "lng": 86.4864103197085}}}, "icon": "https://maps.gstatic.com/mapfiles/place_api/icons/v1/png_71/atm-71.png", "name": "Axis Bank ATM", "opening_hours": {"open_now": true}, "photos": [{"height": 558, "html_attributions": ["<a href=\"https://maps.google.com/maps/contrib/101728343985062876591\">Axis Bank ATM</a>"], "photo_reference": "ATtYBwKi35O8KaRmo5n3yVatZQvMe6euVvwPdoB-Dcd-H2XejCBTVy-WCNLdOqZeK6t_crml0Kadd3FEzks9X2h6zIjZJHzQB9Fbu9H_d4rn9F1NmpYMWx8BlRqOfJ384UdCtGBEPUbiJDNSgIUzAqcp3rh5QsUqo83XUPA_VuC0mSxQC1a2", "width": 992}], "place_id": "ChIJczi5-Y-79jkRl5FQxpnEzrI", "plus_code": {"compound_code": "MFFQ+53 Dhanbad, Jharkhand, India", "global_code": "7MM8MFFQ+53"}, "rating": 3, "reference": "ChIJczi5-Y-79jkRl5FQxpnEzrI", "scope": "GOOGLE", "types": ["atm", "bank", "finance", "point_of_interest", "establishment"], "user_ratings_total": 4, "vicinity": "Ground, Premises House No 26, near Old Gurudwara, Dhanbad - Sindri Road, Dhanbad"}, {"business_status": "OPERATIONAL", "geometry": {"location": {"lat": 23.6798662, "lng": 86.4924406}, "viewport": {"northeast": {"lat": 23.6812487802915, "lng": 86.49377038029151}, "southwest": {"lat": 23.6785508197085, "lng": 86.49107241970849}}}, "icon": "https://maps.gstatic.com/mapfiles/place_api/icons/v1/png_71/bank-71.png", "name": "SBI CSP SINDRI", "photos": [{"height": 2304, "html_attributions": ["<a href=\"https://maps.google.com/maps/contrib/118211764642517006753\">shammi kumar</a>"], "photo_reference": "ATtYBwLoTA8nvNfAH-4AUybEoL8amz0dcv6U72fWx7NfH4oEe8KvKlYeMMDhBaf90_3j7VCcn-lr3OYzUIqVUku7lP7GMClVlzdJppV9sYsqV_0qf3_0QlS9xrd_8zXuPlKXLWhtq1TCcpTCZkZ3azU2PKEe4D5Bs7BhpWlN2NG_2ELMACfi", "width": 3072}], "place_id": "ChIJI8B0WnyW9jkRUWVB71cU_ns", "plus_code": {"compound_code": "MFHR+WX Sindri, Jharkhand, India", "global_code": "7MM8MFHR+WX"}, "rating": 3.3, "reference": "ChIJI8B0WnyW9jkRUWVB71cU_ns", "scope": "GOOGLE", "types": ["bank", "atm", "finance", "point_of_interest", "establishment"], "user_ratings_total": 3, "vicinity": "Sindri"}, {"business_status": "OPERATIONAL", "geometry": {"location": {"lat": 23.6798611, "lng": 86.4924431}, "viewport": {"northeast": {"lat": 23.6812461802915, "lng": 86.4937714302915}, "southwest": {"lat": 23.6785482197085, "lng": 86.4910734697085}}}, "icon": "https://maps.gstatic.com/mapfiles/place_api/icons/v1/png_71/bank-71.png", "name": "Sindri CSP", "place_id": "ChIJHwWgUHyW9jkRNCtG1SKVc_k", "plus_code": {"compound_code": "MFHR+WX Sindri, Jharkhand, India", "global_code": "7MM8MFHR+WX"}, "rating": 5, "reference": "ChIJHwWgUHyW9jkRNCtG1SKVc_k", "scope": "GOOGLE", "types": ["bank", "atm", "finance", "point_of_interest", "establishment"], "user_ratings_total": 1, "vicinity": "Sindri"}, {"business_status": "OPERATIONAL", "geometry": {"location": {"lat": 23.67382850000001, "lng": 86.4883232}, "viewport": {"northeast": {"lat": 23.6751661802915, "lng": 86.48969488029151}, "southwest": {"lat": 23.6724682197085, "lng": 86.4869969197085}}}, "icon": "https://maps.gstatic.com/mapfiles/place_api/icons/v1/png_71/bank-71.png", "name": "Axis Bank", "opening_hours": {"open_now": true}, "place_id": "ChIJi1qI15CX9jkRNNebpR5jE38", "plus_code": {"compound_code": "MFFQ+G8 Pathardih, Jharkhand, India", "global_code": "7MM8MFFQ+G8"}, "reference": "ChIJi1qI15CX9jkRNNebpR5jE38", "scope": "GOOGLE", "types": ["bank", "finance", "point_of_interest", "establishment"], "vicinity": "near Old Gurdwara, Premises House No 26, Ground Floor, near Old Gurdwara, Dhanbad - Sindri Road, Pathardih"}, {"business_status": "OPERATIONAL", "geometry": {"location": {"lat": 23.6893916, "lng": 86.4859625}, "viewport": {"northeast": {"lat": 23.6908045302915, "lng": 86.48735823029149}, "southwest": {"lat": 23.6881065697085, "lng": 86.48466026970848}}}, "icon": "https://maps.gstatic.com/mapfiles/place_api/icons/v1/png_71/bank-71.png", "name": "Bank Of India, Sindri", "opening_hours": {"open_now": true}, "place_id": "ChIJtTLMFG-W9jkRThjQ2Gg2bYc", "plus_code": {"compound_code": "MFQP+Q9 Sindri, Jharkhand, India", "global_code": "7MM8MFQP+Q9"}, "rating": 3.1, "reference": "ChIJtTLMFG-W9jkRThjQ2Gg2bYc", "scope": "GOOGLE", "types": ["bank", "atm", "finance", "point_of_interest", "establishment"], "user_ratings_total": 7, "vicinity": "P. O. Rehrabandh, Fi-21, Sindri Road, Moti Nagar, Sindri"}, {"business_status": "OPERATIONAL", "geometry": {"location": {"lat": 23.6885717, "lng": 86.4960286}, "viewport": {"northeast": {"lat": 23.6899206802915, "lng": 86.49737758029151}, "southwest": {"lat": 23.6872227197085, "lng": 86.4946796197085}}}, "icon": "https://maps.gstatic.com/mapfiles/place_api/icons/v1/png_71/bank-71.png", "name": "Bank of India", "place_id": "ChIJQ8ffZneW9jkRehXko6vY0eU", "reference": "ChIJQ8ffZneW9jkRehXko6vY0eU", "scope": "GOOGLE", "types": ["bank", "finance", "point_of_interest", "establishment"], "vicinity": "Dhanbad - Sindri Road, Moti Nagar, P. O, Kandra"}, {"business_status": "OPERATIONAL", "geometry": {"location": {"lat": 23.6691481, "lng": 86.4971911}, "viewport": {"northeast": {"lat": 23.6704813302915, "lng": 86.49854623029151}, "southwest": {"lat": 23.6677833697085, "lng": 86.4958482697085}}}, "icon": "https://maps.gstatic.com/mapfiles/place_api/icons/v1/png_71/bank-71.png", "name": "Bank of India", "place_id": "ChIJJ7S8NIKW9jkRKFXiqN7QwHQ", "reference": "ChIJJ7S8NIKW9jkRKFXiqN7QwHQ", "scope": "GOOGLE", "types": ["bank", "finance", "point_of_interest", "establishment"], "vicinity": "ACC Colony, P. O, Khalari"}], "status": "OK"}