{"html_attributions": [], "results": [{"business_status": "OPERATIONAL", "geometry": {"location": {"lat": 23.90374259999999, "lng": 86.5155017}, "viewport": {"northeast": {"lat": 23.9051607302915, "lng": 86.5169339802915}, "southwest": {"lat": 23.90246276970849, "lng": 86.51423601970849}}}, "icon": "https://maps.gstatic.com/mapfiles/place_api/icons/v1/png_71/bank-71.png", "name": "Bank Of India", "opening_hours": {"open_now": true}, "place_id": "ChIJOy5iEua59jkR3gFLA5tQE9k", "plus_code": {"compound_code": "WG38+F6 Dhanbad, Jharkhand, India", "global_code": "7MM8WG38+F6"}, "rating": 4.3, "reference": "ChIJOy5iEua59jkR3gFLA5tQE9k", "scope": "GOOGLE", "types": ["bank", "finance", "point_of_interest", "establishment"], "user_ratings_total": 4, "vicinity": "Maharajganj Market, Dhanbad"}, {"business_status": "OPERATIONAL", "geometry": {"location": {"lat": 23.9053669, "lng": 86.5144492}, "viewport": {"northeast": {"lat": 23.9067406802915, "lng": 86.5158603302915}, "southwest": {"lat": 23.9040427197085, "lng": 86.51316236970848}}}, "icon": "https://maps.gstatic.com/mapfiles/place_api/icons/v1/png_71/bank-71.png", "name": "Primary Co-Operative Maharajganj PACS Ltd", "opening_hours": {"open_now": true}, "place_id": "ChIJOVdO0-W59jkRucCTx6TyHj4", "plus_code": {"compound_code": "WG47+4Q Dhanbad, Jharkhand, India", "global_code": "7MM8WG47+4Q"}, "rating": 5, "reference": "ChIJOVdO0-W59jkRucCTx6TyHj4", "scope": "GOOGLE", "types": ["bank", "finance", "point_of_interest", "establishment"], "user_ratings_total": 1, "vicinity": "Maharajganj Market, Dhanbad"}, {"business_status": "OPERATIONAL", "geometry": {"location": {"lat": 23.9051204, "lng": 86.5149558}, "viewport": {"northeast": {"lat": 23.9064361302915, "lng": 86.5163741302915}, "southwest": {"lat": 23.90373816970849, "lng": 86.51367616970849}}}, "icon": "https://maps.gstatic.com/mapfiles/place_api/icons/v1/png_71/bank-71.png", "name": "State Bank Of India", "opening_hours": {"open_now": true}, "photos": [{"height": 3120, "html_attributions": ["<a href=\"https://maps.google.com/maps/contrib/113794235827710621652\">SR editing</a>"], "photo_reference": "ATtYBwJsuoN6eZisxmhY0Y4XxdndjFOoAvpSz7zr-XZkWWCLsfCU2E4AKy7bE_AAtV6tXbwv2XVqa_kLOiT3A7gio-x5rQsbm7m84oJgbK8Vtqa2neTt7DY2u6E1W_sf7-n5xQYPl2uM5eM9n-Ad8bWhkn7k25yVDpd-ia0kOC-VE8czJOUZ", "width": 4160}], "place_id": "ChIJcXUhf-a59jkRBJvP4iTYdIQ", "plus_code": {"compound_code": "WG47+2X Dhanbad, Jharkhand, India", "global_code": "7MM8WG47+2X"}, "rating": 3.2, "reference": "ChIJcXUhf-a59jkRBJvP4iTYdIQ", "scope": "GOOGLE", "types": ["bank", "finance", "point_of_interest", "establishment"], "user_ratings_total": 12, "vicinity": "Maharajganj Market, Dhanbad"}], "status": "OK"}