{"html_attributions": [], "results": [{"business_status": "OPERATIONAL", "geometry": {"location": {"lat": 23.811114, "lng": 86.577231}, "viewport": {"northeast": {"lat": 23.8125139302915, "lng": 86.5785940302915}, "southwest": {"lat": 23.8098159697085, "lng": 86.57589606970849}}}, "icon": "https://maps.gstatic.com/mapfiles/place_api/icons/v1/png_71/bank-71.png", "name": "State Bank of India", "opening_hours": {"open_now": true}, "photos": [{"height": 1920, "html_attributions": ["<a href=\"https://maps.google.com/maps/contrib/104566977970954905857\">Raju Dey</a>"], "photo_reference": "ATtYBwIjH-yO3hL98t3P1bZu0rPc6oZcQ06DsYZfe1isKRaYIRO7oDOYfONruz3pyMuJuqHn6gMTajgyVKpfvcqj5fg2y4ZkRAsIHw9GWChD4LV0pRtA93oRMh-cs-TxbFtVJQs2kIUslHjoHsXZzIrbZCWakIYH7ulixtsO8f6Wa91-kijg", "width": 1080}], "place_id": "ChIJh1vBGle_9jkR9XQDb6K1l_4", "plus_code": {"compound_code": "RH6G+CV Deuli, Jharkhand, India", "global_code": "7MM8RH6G+CV"}, "rating": 4.5, "reference": "ChIJh1vBGle_9jkR9XQDb6K1l_4", "scope": "GOOGLE", "types": ["bank", "finance", "point_of_interest", "establishment"], "user_ratings_total": 2, "vicinity": "Tola Deoli, Dhanbad, NH-2, Delhi Kolata Highway, Dhanbad, Dhanbad"}, {"business_status": "OPERATIONAL", "geometry": {"location": {"lat": 23.8116578, "lng": 86.57657329999999}, "viewport": {"northeast": {"lat": 23.8129350802915, "lng": 86.57790168029149}, "southwest": {"lat": 23.8102371197085, "lng": 86.57520371970848}}}, "icon": "https://maps.gstatic.com/mapfiles/place_api/icons/v1/png_71/bank-71.png", "name": "Bank of India - Customer Service Point", "photos": [{"height": 1014, "html_attributions": ["<a href=\"https://maps.google.com/maps/contrib/116113652067620119806\">BHOLANATH</a>"], "photo_reference": "ATtYBwIyIrIjrs21ztWj-mvRfFjiYnjqHf42lLwkPCK2P4_fBFvRto290QZN-67FeoKEGTngHjKn_J_QAE9fR3GaFQHAnuovCCouN_sAfqpxc7cylEZG1wOgdOmw7Nwknd_XGu9Z9PVWFaYZu-iSqh6JnAB0Og3KmLuwnTN-GrnmjEhJjl3g", "width": 1802}], "place_id": "ChIJJ4FrIFe_9jkRhq0z3OypB1U", "plus_code": {"compound_code": "RH6G+MJ Deuli, Jharkhand, India", "global_code": "7MM8RH6G+MJ"}, "rating": 3, "reference": "ChIJJ4FrIFe_9jkRhq0z3OypB1U", "scope": "GOOGLE", "types": ["bank", "finance", "point_of_interest", "establishment"], "user_ratings_total": 1, "vicinity": "Deuli"}, {"business_status": "OPERATIONAL", "geometry": {"location": {"lat": 23.8251348, "lng": 86.5813982}, "viewport": {"northeast": {"lat": 23.8264836802915, "lng": 86.58274713029151}, "southwest": {"lat": 23.8237857197085, "lng": 86.58004916970849}}}, "icon": "https://maps.gstatic.com/mapfiles/place_api/icons/v1/png_71/bank-71.png", "name": "State Bank Of India Jangalpur", "photos": [{"height": 3120, "html_attributions": ["<a href=\"https://maps.google.com/maps/contrib/109770517552731737278\">Anish Kumar</a>"], "photo_reference": "ATtYBwJhwyksEN_tAi-ZS6WQvcFyGawkrKkgWJbdPatHMnU8v2meU9fR6bR137nvuw8M8hXzGTEVSuIoZJtUIE0Q5RH4kOmOD8bxJYIjD4EK9KRftn69JXTA54dKUgJQ3dkzGd96Kqtpz0LoH-5bKd1bQLcW4QW4mp_fb3KPjjP6NYTRTbY", "width": 4160}], "place_id": "ChIJgUqnlFXH9jkRTvuj0qQBqg8", "plus_code": {"compound_code": "RHGJ+3H Jangalpur, Jharkhand, India", "global_code": "7MM8RHGJ+3H"}, "rating": 4.3, "reference": "ChIJgUqnlFXH9jkRTvuj0qQBqg8", "scope": "GOOGLE", "types": ["bank", "finance", "point_of_interest", "establishment"], "user_ratings_total": 4, "vicinity": "Jangalpur"}], "status": "OK"}