{"html_attributions": [], "results": [{"business_status": "OPERATIONAL", "geometry": {"location": {"lat": 24.0420337, "lng": 86.7267054}, "viewport": {"northeast": {"lat": 24.0434402302915, "lng": 86.72819023029152}, "southwest": {"lat": 24.0407422697085, "lng": 86.72549226970851}}}, "icon": "https://maps.gstatic.com/mapfiles/place_api/icons/v1/png_71/bank-71.png", "name": "Fino Payments Bank", "place_id": "ChIJUR1huqnN9jkRMxjEVzxpuaE", "plus_code": {"compound_code": "2PRG+RM Karmatar, Jharkhand, India", "global_code": "7MP82PRG+RM"}, "reference": "ChIJUR1huqnN9jkRMxjEVzxpuaE", "scope": "GOOGLE", "types": ["bank", "finance", "insurance_agency", "point_of_interest", "establishment"], "vicinity": "BIRAJPUR POST- PATRODIH, Karmatar"}, {"business_status": "OPERATIONAL", "geometry": {"location": {"lat": 24.0355917, "lng": 86.7350503}, "viewport": {"northeast": {"lat": 24.0370130302915, "lng": 86.7364335802915}, "southwest": {"lat": 24.0343150697085, "lng": 86.7337356197085}}}, "icon": "https://maps.gstatic.com/mapfiles/place_api/icons/v1/png_71/bank-71.png", "name": "SBI CSP Kalajharia", "opening_hours": {"open_now": false}, "photos": [{"height": 683, "html_attributions": ["<a href=\"https://maps.google.com/maps/contrib/110321589020496563654\">SBI CSP Kalajharia</a>"], "photo_reference": "ATtYBwII_UhSL7R5mm9m3QnhDaDxLK6vq6I8XvjY_J7fuZ8vt97B1vBNIeGFzXMBHU5Fttld4Apz1UwtH5Tb0lsZoUij-AKVJHkV5_0EYwIjzENMqmbxhCBVURiYvBLo8Do8saS6Hct8liGuA9feZ_PAdCUvNkPv5JcjDW1Ru0FDbJBb6p3D", "width": 1024}], "place_id": "ChIJQRTZDfPN9jkR_sA9RVDfThs", "plus_code": {"compound_code": "2PPP+62 Kalajharia, Jharkhand, India", "global_code": "7MP82PPP+62"}, "rating": 4.2, "reference": "ChIJQRTZDfPN9jkR_sA9RVDfThs", "scope": "GOOGLE", "types": ["bank", "finance", "point_of_interest", "establishment"], "user_ratings_total": 5, "vicinity": "Kalajharia"}, {"business_status": "OPERATIONAL", "geometry": {"location": {"lat": 24.0316621, "lng": 86.7373616}, "viewport": {"northeast": {"lat": 24.0325455802915, "lng": 86.7384250802915}, "southwest": {"lat": 24.0298476197085, "lng": 86.7357271197085}}}, "icon": "https://maps.gstatic.com/mapfiles/place_api/icons/v1/png_71/bank-71.png", "name": "Tara Mabato", "opening_hours": {"open_now": false}, "photos": [{"height": 4000, "html_attributions": ["<a href=\"https://maps.google.com/maps/contrib/105029786501631441796\">Pappu Mandal</a>"], "photo_reference": "ATtYBwIQAmSimsJ6dxjGP6FljX8QnmcuEgjvNRiB1mcPMm-aNGBR1ps0EGN84yGGKXka7ufTNFjyHiWdVwuc68U6G5gSEPGwImb4Nk7bYwh0MLmy-Zg7J8H8a6nnbAEpKC7JBY1je_H8yOsDwyxdymuo9-xToIJBOymIEx3bbW4Eqq-DOxHI", "width": 3000}], "place_id": "ChIJDT3XpfbN9jkRJ5ahRzxHwhQ", "plus_code": {"compound_code": "2PJP+MW Kalajharia, Jharkhand, India", "global_code": "7MP82PJP+MW"}, "rating": 2.7, "reference": "ChIJDT3XpfbN9jkRJ5ahRzxHwhQ", "scope": "GOOGLE", "types": ["bank", "finance", "point_of_interest", "establishment"], "user_ratings_total": 3, "vicinity": "Kalajharia"}, {"business_status": "OPERATIONAL", "geometry": {"location": {"lat": 24.0364481, "lng": 86.74181779999999}, "viewport": {"northeast": {"lat": 24.0377276802915, "lng": 86.7431841302915}, "southwest": {"lat": 24.0350297197085, "lng": 86.74048616970848}}}, "icon": "https://maps.gstatic.com/mapfiles/place_api/icons/v1/png_71/bank-71.png", "name": "Fino Payments Bank", "place_id": "ChIJ51vI18TT9jkRhW3sA3f-cKU", "plus_code": {"compound_code": "2PPR+HP Jamtara, Jharkhand, India", "global_code": "7MP82PPR+HP"}, "reference": "ChIJ51vI18TT9jkRhW3sA3f-cKU", "scope": "GOOGLE", "types": ["bank", "finance", "insurance_agency", "point_of_interest", "establishment"], "vicinity": "Hno19 vill navadih,Po shitalpur,Dist dumka, Jamtara"}], "status": "OK"}