{"html_attributions": [], "results": [{"business_status": "OPERATIONAL", "geometry": {"location": {"lat": 23.7980242, "lng": 86.3019285}, "viewport": {"northeast": {"lat": 23.79937523029151, "lng": 86.30323193029152}, "southwest": {"lat": 23.7966772697085, "lng": 86.3005339697085}}}, "icon": "https://maps.gstatic.com/mapfiles/place_api/icons/v1/png_71/atm-71.png", "name": "Axis Bank ATM", "opening_hours": {"open_now": true}, "photos": [{"height": 558, "html_attributions": ["<a href=\"https://maps.google.com/maps/contrib/107464353574839342413\">Axis Bank ATM</a>"], "photo_reference": "ATtYBwJnOzLDE_M35QD5RF8D31gRMxg5JwlUyjMrgjAr7Qotk6IPreGLPQfLTd5uBAak8xfdvCppEiIOLrYinbGfbgms3bMJUjGSc5FTNRQw9J2q8JH-zq5hozpxBWdpTLPZfLaUfN9mIMFilL9_wnI_lGF5mwIUtrdSo6kmdw1wMMNyahUa", "width": 992}], "place_id": "ChIJB2yyWAWn9jkR0OcodJi9LR4", "plus_code": {"compound_code": "Q8X2+6Q Katrasgarh, Katras, Jharkhand, India", "global_code": "7MM8Q8X2+6Q"}, "rating": 4, "reference": "ChIJB2yyWAWn9jkR0OcodJi9LR4", "scope": "GOOGLE", "types": ["atm", "bank", "finance", "point_of_interest", "establishment"], "user_ratings_total": 2, "vicinity": "Khata No 51, Plot No 220, Ward No 02, Katrasgarh"}, {"business_status": "OPERATIONAL", "geometry": {"location": {"lat": 23.8102326, "lng": 86.2955545}, "viewport": {"northeast": {"lat": 23.8115247802915, "lng": 86.29682988029151}, "southwest": {"lat": 23.8088268197085, "lng": 86.2941319197085}}}, "icon": "https://maps.gstatic.com/mapfiles/place_api/icons/v1/png_71/bank-71.png", "name": "Union Bank Of India", "opening_hours": {"open_now": true}, "place_id": "ChIJs4wrpdWg9jkRg3E1sBNMQGI", "plus_code": {"compound_code": "R76W+36 Dhanbad, Jharkhand, India", "global_code": "7MM8R76W+36"}, "rating": 3.8, "reference": "ChIJs4wrpdWg9jkRg3E1sBNMQGI", "scope": "GOOGLE", "types": ["bank", "finance", "point_of_interest", "establishment"], "user_ratings_total": 10, "vicinity": "Main Road, Katrasgarh Market, Dhanbad"}, {"business_status": "OPERATIONAL", "geometry": {"location": {"lat": 23.8117789, "lng": 86.2941383}, "viewport": {"northeast": {"lat": 23.81307573029151, "lng": 86.2954144302915}, "southwest": {"lat": 23.8103777697085, "lng": 86.2927164697085}}}, "icon": "https://maps.gstatic.com/mapfiles/place_api/icons/v1/png_71/bank-71.png", "name": "Andhra Bank", "opening_hours": {"open_now": true}, "photos": [{"height": 3696, "html_attributions": ["<a href=\"https://maps.google.com/maps/contrib/100118675306577693525\">Eternal Slayer</a>"], "photo_reference": "ATtYBwJQ7rNr_glejJ09cIuz6-ZccUCEYZmlFDBobioQiTQ53m299MnhklEgfpyF5CrKe_v6z3d5SxvmnV5m-2GHsfDnfm61oqvZj-P9LNxs0_2s6i_TLunCNqQ4AHejFGLwdfuSR2i80oHuxt2ucUA3lB_FNSSTNETH3bhYhf3RLe41fNRm", "width": 3120}], "place_id": "ChIJkbYF-9Sg9jkRxBisIM1--VQ", "plus_code": {"compound_code": "R76V+PM Katrasgarh, Katras, Jharkhand, India", "global_code": "7MM8R76V+PM"}, "rating": 4.2, "reference": "ChIJkbYF-9Sg9jkRxBisIM1--VQ", "scope": "GOOGLE", "types": ["bank", "finance", "point_of_interest", "establishment"], "user_ratings_total": 9, "vicinity": "rajgarh road near lic office katras bazar, Katrasgarh"}, {"business_status": "OPERATIONAL", "geometry": {"location": {"lat": 23.7987984, "lng": 86.2918092}, "viewport": {"northeast": {"lat": 23.8001959302915, "lng": 86.29317463029149}, "southwest": {"lat": 23.7974979697085, "lng": 86.29047666970848}}}, "icon": "https://maps.gstatic.com/mapfiles/place_api/icons/v1/png_71/bank-71.png", "name": "STATE BANK ATM", "place_id": "ChIJs13CSa2h9jkRv0oifogqhJs", "plus_code": {"compound_code": "Q7XR+GP Gobindpur, Jharkhand, India", "global_code": "7MM8Q7XR+GP"}, "reference": "ChIJs13CSa2h9jkRv0oifogqhJs", "scope": "GOOGLE", "types": ["bank", "finance", "point_of_interest", "establishment"], "vicinity": "Gobindpur"}, {"business_status": "OPERATIONAL", "geometry": {"location": {"lat": 23.7982502, "lng": 86.2978363}, "viewport": {"northeast": {"lat": 23.79959983029151, "lng": 86.2991853802915}, "southwest": {"lat": 23.7969018697085, "lng": 86.2964874197085}}}, "icon": "https://maps.gstatic.com/mapfiles/place_api/icons/v1/png_71/atm-71.png", "name": "Axis Bank ATM", "opening_hours": {"open_now": true}, "photos": [{"height": 558, "html_attributions": ["<a href=\"https://maps.google.com/maps/contrib/102362021432640144280\">Axis Bank ATM</a>"], "photo_reference": "ATtYBwIkXDx6tMfbdbjiRFCVgutTVpCRY7XYcronSzzQhRy1U4uToVw_PhuSzdAo7Vnhxp0OOg81WQBM381mMvRKSKOvhyJYzNzA8anv5kELPlRIb3e0VZCbCqWBl9hq7wJLz2HX0Bgb7KH9dVUsAd6ImM6Wa-xDsq5GepaNeTZSonn-4RNq", "width": 992}], "place_id": "ChIJXwlMT_Sh9jkR0Ic_MxLORqg", "plus_code": {"compound_code": "Q7XX+84 Katras, Jharkhand, India", "global_code": "7MM8Q7XX+84"}, "reference": "ChIJXwlMT_Sh9jkR0Ic_MxLORqg", "scope": "GOOGLE", "types": ["atm", "bank", "finance", "point_of_interest", "establishment"], "vicinity": "near LIC Office, Ground Floor, Balaji Enclave Katras, near LIC Office"}, {"business_status": "OPERATIONAL", "geometry": {"location": {"lat": 23.7980373, "lng": 86.2982893}, "viewport": {"northeast": {"lat": 23.7994642302915, "lng": 86.29964338029151}, "southwest": {"lat": 23.7967662697085, "lng": 86.29694541970849}}}, "icon": "https://maps.gstatic.com/mapfiles/place_api/icons/v1/png_71/bank-71.png", "name": "Bank Of India Grahak Sewa Kendra", "opening_hours": {"open_now": true}, "photos": [{"height": 502, "html_attributions": ["<a href=\"https://maps.google.com/maps/contrib/111803392652665051424\">Pinki Sharma</a>"], "photo_reference": "ATtYBwLhlQYAc4_Wspt7mpvUaYodu0yQCkvlyUE2wdjlGSk-Hdxi_wwXOePLh7l4DhpDxkZz2drUn7DeZokVIryxkvQe3_emryjIjL7BcohlRqV47NjqG556w4Ei5B3XcvRGTjDeaUhCvi3dqCUAJf-0y5lIJlYUu64pMapJAOMDL7GY3ncp", "width": 1032}], "place_id": "ChIJFaDCaieh9jkRCSqECtRIypA", "plus_code": {"compound_code": "Q7XX+68 Dhanbad, Jharkhand, India", "global_code": "7MM8Q7XX+68"}, "reference": "ChIJFaDCaieh9jkRCSqECtRIypA", "scope": "GOOGLE", "types": ["bank", "finance", "point_of_interest", "establishment"], "vicinity": "Swastik Cinema Road, Katras, Dhanbad"}, {"business_status": "OPERATIONAL", "geometry": {"location": {"lat": 23.8081498, "lng": 86.2920255}, "viewport": {"northeast": {"lat": 23.8092719802915, "lng": 86.2936263302915}, "southwest": {"lat": 23.8065740197085, "lng": 86.2909283697085}}}, "icon": "https://maps.gstatic.com/mapfiles/place_api/icons/v1/png_71/bank-71.png", "name": "Ujjivan Small Finance Bank", "place_id": "ChIJW9YR5wuh9jkRYgOv_qkcBJU", "plus_code": {"compound_code": "R75R+7R Katras, Jharkhand, India", "global_code": "7MM8R75R+7R"}, "reference": "ChIJW9YR5wuh9jkRYgOv_qkcBJU", "scope": "GOOGLE", "types": ["bank", "finance", "point_of_interest", "establishment"], "vicinity": "Keshri Complex, Ground floor Bhagat Singh Chowk, Near Bank Of India Raigunj Road, Katras Bazar, Katras"}, {"business_status": "OPERATIONAL", "geometry": {"location": {"lat": 23.792947, "lng": 86.2965201}, "viewport": {"northeast": {"lat": 23.7943385302915, "lng": 86.2978667302915}, "southwest": {"lat": 23.7916405697085, "lng": 86.29516876970848}}}, "icon": "https://maps.gstatic.com/mapfiles/place_api/icons/v1/png_71/bank-71.png", "name": "Mukesh Dashoundhi", "place_id": "ChIJ37-4hN-g9jkRk_AEs8znHsk", "plus_code": {"compound_code": "Q7VW+5J Katras, Jharkhand, India", "global_code": "7MM8Q7VW+5J"}, "reference": "ChIJ37-4hN-g9jkRk_AEs8znHsk", "scope": "GOOGLE", "types": ["bank", "finance", "point_of_interest", "establishment"], "vicinity": "Bhatmurna"}, {"business_status": "OPERATIONAL", "geometry": {"location": {"lat": 23.8044388, "lng": 86.2992563}, "viewport": {"northeast": {"lat": 23.8057835802915, "lng": 86.30060663029151}, "southwest": {"lat": 23.8030856197085, "lng": 86.29790866970849}}}, "icon": "https://maps.gstatic.com/mapfiles/place_api/icons/v1/png_71/bank-71.png", "name": "Allahabad Bank", "opening_hours": {"open_now": true}, "place_id": "ChIJp2g0Wiih9jkRj7vYAzVDxwU", "plus_code": {"compound_code": "R73X+QP Dhanbad, Jharkhand, India", "global_code": "7MM8R73X+QP"}, "rating": 3.8, "reference": "ChIJp2g0Wiih9jkRj7vYAzVDxwU", "scope": "GOOGLE", "types": ["bank", "finance", "point_of_interest", "establishment"], "user_ratings_total": 4, "vicinity": "Main Road, Katrasgarh Market, Dhanbad"}, {"business_status": "OPERATIONAL", "geometry": {"location": {"lat": 23.8080312, "lng": 86.2829967}, "viewport": {"northeast": {"lat": 23.8093873802915, "lng": 86.2843338302915}, "southwest": {"lat": 23.8066894197085, "lng": 86.2816358697085}}}, "icon": "https://maps.gstatic.com/mapfiles/place_api/icons/v1/png_71/bank-71.png", "name": "Bank Of India", "opening_hours": {"open_now": true}, "place_id": "ChIJ0561H8yg9jkRNptbwoivPH0", "plus_code": {"compound_code": "R75M+65 Katras, Jharkhand, India", "global_code": "7MM8R75M+65"}, "rating": 3.3, "reference": "ChIJ0561H8yg9jkRNptbwoivPH0", "scope": "GOOGLE", "types": ["bank", "finance", "point_of_interest", "establishment"], "user_ratings_total": 3, "vicinity": "New Akashkinari Colliery, Katras, Dhanbad"}, {"business_status": "OPERATIONAL", "geometry": {"location": {"lat": 23.8089941, "lng": 86.29540779999999}, "viewport": {"northeast": {"lat": 23.8103267802915, "lng": 86.2967909802915}, "southwest": {"lat": 23.8076288197085, "lng": 86.29409301970848}}}, "icon": "https://maps.gstatic.com/mapfiles/place_api/icons/v1/png_71/bank-71.png", "name": "ICICI BANK ATM", "opening_hours": {"open_now": true}, "place_id": "ChIJyaHVcBqh9jkRzAJ0MA-HS0s", "plus_code": {"compound_code": "R75W+H5 Katras, Jharkhand, India", "global_code": "7MM8R75W+H5"}, "reference": "ChIJyaHVcBqh9jkRzAJ0MA-HS0s", "scope": "GOOGLE", "types": ["bank", "finance", "point_of_interest", "establishment"], "vicinity": "opposite Choudhry Nursing Home, Katras Ghar, Main Road, opposite Choudhry Nursing Home, Katras"}, {"business_status": "OPERATIONAL", "geometry": {"location": {"lat": 23.8081146, "lng": 86.29707359999999}, "viewport": {"northeast": {"lat": 23.8095058802915, "lng": 86.29847843029151}, "southwest": {"lat": 23.8068079197085, "lng": 86.29578046970849}}}, "icon": "https://maps.gstatic.com/mapfiles/place_api/icons/v1/png_71/bank-71.png", "name": "Bank of Baroda", "place_id": "ChIJiewuANag9jkRN_D4-nQGjwc", "plus_code": {"compound_code": "R75W+6R Dhanbad, Jharkhand, India", "global_code": "7MM8R75W+6R"}, "rating": 5, "reference": "ChIJiewuANag9jkRN_D4-nQGjwc", "scope": "GOOGLE", "types": ["bank", "finance", "point_of_interest", "establishment"], "user_ratings_total": 5, "vicinity": "Main Road, Katrasgarh, Market, Dhanbad"}, {"business_status": "OPERATIONAL", "geometry": {"location": {"lat": 23.8081428, "lng": 86.29704009999999}, "viewport": {"northeast": {"lat": 23.8095358802915, "lng": 86.29844733029148}, "southwest": {"lat": 23.8068379197085, "lng": 86.29574936970847}}}, "icon": "https://maps.gstatic.com/mapfiles/place_api/icons/v1/png_71/bank-71.png", "name": "Bandhan Bank", "opening_hours": {"open_now": true}, "photos": [{"height": 1080, "html_attributions": ["<a href=\"https://maps.google.com/maps/contrib/111329886741631814951\">Tik Tech Triks</a>"], "photo_reference": "ATtYBwLdF50jcuMicWMNAeoeK31spsvvXTOg5rYKj08EKlSr6EZa2eGFhgn90Bx411-d1w3ZBC8gO5Sh2CJyedt3WG1fbm5p_1o3EhSJ-wjRNzz9XEQnESUeeLUC-zzS2dFF4_9aupG_xF995pUnpDphBPzKfqyPKau0d9V9VnpSGTUWDx2H", "width": 1920}], "place_id": "ChIJy385ANag9jkRR7XXeeLsQB0", "plus_code": {"compound_code": "R75W+7R Dhanbad, Jharkhand, India", "global_code": "7MM8R75W+7R"}, "rating": 4.2, "reference": "ChIJy385ANag9jkRR7XXeeLsQB0", "scope": "GOOGLE", "types": ["bank", "finance", "point_of_interest", "establishment"], "user_ratings_total": 15, "vicinity": "Main Road, Katrasgarh Market, Dhanbad"}, {"business_status": "OPERATIONAL", "geometry": {"location": {"lat": 23.7976591, "lng": 86.3019284}, "viewport": {"northeast": {"lat": 23.7990076302915, "lng": 86.3032289802915}, "southwest": {"lat": 23.7963096697085, "lng": 86.30053101970849}}}, "icon": "https://maps.gstatic.com/mapfiles/place_api/icons/v1/png_71/bank-71.png", "name": "Canara Bank", "opening_hours": {"open_now": true}, "photos": [{"height": 2231, "html_attributions": ["<a href=\"https://maps.google.com/maps/contrib/101306289675803432117\">Vikash Kumar</a>"], "photo_reference": "ATtYBwI8iSDzxpHpjzxwiPsGhtFINiDONZl2h9GtWxLeZN5Q6w2R3yuJqcEn7BqeNzP0NGrf2_v5d6kEsZyuGsBiCo6nPJYEwNfDKPWYCI6T2Vw8QXxXKcbzpcIBbqfdloggNwon6oSekjJny-OzjO3379RjJ2BLaTtbFBs1aRfNvJzXCvFT", "width": 2340}], "place_id": "ChIJ00JIoSah9jkRMcbeL9XMj2k", "plus_code": {"compound_code": "Q8X2+3Q Katras, Jharkhand, India", "global_code": "7MM8Q8X2+3Q"}, "rating": 3.8, "reference": "ChIJ00JIoSah9jkRMcbeL9XMj2k", "scope": "GOOGLE", "types": ["bank", "finance", "point_of_interest", "establishment"], "user_ratings_total": 8, "vicinity": "Prem Tower, Station Road, Katras"}, {"business_status": "OPERATIONAL", "geometry": {"location": {"lat": 23.7973313, "lng": 86.30185809999999}, "viewport": {"northeast": {"lat": 23.7986803802915, "lng": 86.30321838029151}, "southwest": {"lat": 23.7959824197085, "lng": 86.3005204197085}}}, "icon": "https://maps.gstatic.com/mapfiles/place_api/icons/v1/png_71/bank-71.png", "name": "CANARA BANK - DHANBAD KATRAS", "photos": [{"height": 1536, "html_attributions": ["<a href=\"https://maps.google.com/maps/contrib/109954770159709844239\">CANARA BANK - DHANBAD KATRAS</a>"], "photo_reference": "ATtYBwJElIsZ45GeiEaXYb6VvDJR_KEcGGXusx7FVjJ9RelF7NmSrDrELtcDo2HHy7gsWB_ZuzIsf77L6S9RCrPYRn4ksWQI0sB61iFew4Y4S6pokfu9QPEWrskiIdwnNg2vYrKclGWhDz3xCzLsRgpWEVHFjmnZxNQObKobzMSxDe4w4fAa", "width": 2048}], "place_id": "ChIJU5uFp5ah9jkRLPMQt70KLdU", "plus_code": {"compound_code": "Q8W2+WP Dhanbad, Jharkhand, India", "global_code": "7MM8Q8W2+WP"}, "reference": "ChIJU5uFp5ah9jkRLPMQt70KLdU", "scope": "GOOGLE", "types": ["bank", "finance", "point_of_interest", "establishment"], "vicinity": "PREM TOWER, STATION ROAD KATRAS, Katrasgarh, Dhanbad"}, {"business_status": "OPERATIONAL", "geometry": {"location": {"lat": 23.7977618, "lng": 86.302255}, "viewport": {"northeast": {"lat": 23.79914803029151, "lng": 86.30360798029149}, "southwest": {"lat": 23.7964500697085, "lng": 86.30091001970848}}}, "icon": "https://maps.gstatic.com/mapfiles/place_api/icons/v1/png_71/bank-71.png", "name": "State Bank Of India", "opening_hours": {"open_now": true}, "photos": [{"height": 2340, "html_attributions": ["<a href=\"https://maps.google.com/maps/contrib/101306289675803432117\">Vikash Kumar</a>"], "photo_reference": "ATtYBwIMUeMVTnnXzOKSYUFl-4OsRtHgDyHpFWEtwfBE29ODLKwy6ZMGLwUtcmAzbQQ4neBXlVfRvErWQ6RAhEDsc3AJ6TrRgUgUqWhMpgKiZjwGa91UKWpcG0FqvWw2oozwYit-wp-xqXxBDFscmzWNcrucdWtite0zZmXZg2DYM5Aqdv3z", "width": 4160}], "place_id": "ChIJifFHHiSh9jkRZInw47QwdJQ", "plus_code": {"compound_code": "Q8X2+4W Dhanbad, Jharkhand, India", "global_code": "7MM8Q8X2+4W"}, "rating": 2.2, "reference": "ChIJifFHHiSh9jkRZInw47QwdJQ", "scope": "GOOGLE", "types": ["bank", "atm", "finance", "point_of_interest", "establishment"], "user_ratings_total": 9, "vicinity": "Main Road, Katrasgarh, Dhanbad"}, {"business_status": "OPERATIONAL", "geometry": {"location": {"lat": 23.8102575, "lng": 86.2956035}, "viewport": {"northeast": {"lat": 23.8115334302915, "lng": 86.2968578302915}, "southwest": {"lat": 23.8088354697085, "lng": 86.2941598697085}}}, "icon": "https://maps.gstatic.com/mapfiles/place_api/icons/v1/png_71/bank-71.png", "name": "IDBI BANK", "photos": [{"height": 2448, "html_attributions": ["<a href=\"https://maps.google.com/maps/contrib/104648729153171118766\">Om Pandey 12 7 D</a>"], "photo_reference": "ATtYBwKpTFES5msA0GIK1YM_397HZau5HbYZDy3l0VgdXbRU5EBt78434CWNSidDq_Po-m00RJtshcKEeBAfMiaqlnzP69usiXjlLEc1vlzOjckBBGHwtJp4iPRglkjWlb81huACM_F4HofB73x1U7BONzKMrRikPMkJPLhAyji87MwdGfPJ", "width": 3264}], "place_id": "ChIJGYhevNWg9jkROGD9GAsoZDc", "plus_code": {"compound_code": "R76W+46 Katras, Jharkhand, India", "global_code": "7MM8R76W+46"}, "rating": 5, "reference": "ChIJGYhevNWg9jkROGD9GAsoZDc", "scope": "GOOGLE", "types": ["bank", "finance", "point_of_interest", "establishment"], "user_ratings_total": 2, "vicinity": "Katras"}, {"business_status": "OPERATIONAL", "geometry": {"location": {"lat": 23.8112411, "lng": 86.2940979}, "viewport": {"northeast": {"lat": 23.8126558802915, "lng": 86.2955251802915}, "southwest": {"lat": 23.80995791970849, "lng": 86.29282721970849}}}, "icon": "https://maps.gstatic.com/mapfiles/place_api/icons/v1/png_71/bank-71.png", "name": "ICICI BANK ATM", "opening_hours": {"open_now": true}, "place_id": "ChIJDZx5khah9jkREI9BqRMKJ4c", "plus_code": {"compound_code": "R76V+FJ Dhanbad, Jharkhand, India", "global_code": "7MM8R76V+FJ"}, "reference": "ChIJDZx5khah9jkREI9BqRMKJ4c", "scope": "GOOGLE", "types": ["bank", "finance", "point_of_interest", "establishment"], "vicinity": "Rajganj Road, Old Topachanchi Rd Katras Bazar, Dhanbad"}, {"business_status": "OPERATIONAL", "geometry": {"location": {"lat": 23.8029661, "lng": 86.27683329999999}, "viewport": {"northeast": {"lat": 23.80428168029151, "lng": 86.2781109802915}, "southwest": {"lat": 23.8015837197085, "lng": 86.2754130197085}}}, "icon": "https://maps.gstatic.com/mapfiles/place_api/icons/v1/png_71/bank-71.png", "name": "STATE BANK OF INDIA", "opening_hours": {"open_now": true}, "place_id": "ChIJNbkHHsig9jkRaao60ZJVTxI", "plus_code": {"compound_code": "R73G+5P Bhatmurna, Jharkhand, India", "global_code": "7MM8R73G+5P"}, "rating": 3.5, "reference": "ChIJNbkHHsig9jkRaao60ZJVTxI", "scope": "GOOGLE", "types": ["bank", "atm", "finance", "point_of_interest", "establishment"], "user_ratings_total": 8, "vicinity": "Bhatmurna, More, Katras, Dhanbad"}], "status": "OK"}