{"html_attributions": [], "next_page_token": "ATtYBwJ-boILG_RIxmwoQflHSuATE8eVTySkBPXEHvw9RW4FIZDtjcSeG34KB16drVDXZW1SSsQjnVYmIfU5GIVEct2D5AXuL09PERKpRSIhvHu9T2yWJfhkVKAbb8WXm-Bgl9bObm8uW8DW-1VRT_yF2wtfRXgcXFKx4f1aHOaIwKP24LBPg5XBtfTS37hWVC6zA77OCjb1rNSk33qWqFrBA02iestqb6ZrErB4e2BwHaF195n3u6BBLXMPU9rkSv5oBKmjlCVN2RYhblGsg4lF5TGQqUSKHm8V2JxU17tF4oto6pihpNdRiBo63r28p_kXLYCfLERUa3NutQNK6x9JvbAX044vaFby_HNla3GzRCGU8Oz46uEeGz0p58TLslJKtzY6wOtL7PukyfAtSIp-sZzal3gWPj4lby1R-Cz8xzFjp3Y0", "results": [{"business_status": "OPERATIONAL", "geometry": {"location": {"lat": 23.8024695, "lng": 86.4426606}, "viewport": {"northeast": {"lat": 23.8037528802915, "lng": 86.4440862302915}, "southwest": {"lat": 23.8010549197085, "lng": 86.44138826970848}}}, "icon": "https://maps.gstatic.com/mapfiles/place_api/icons/v1/png_71/bank-71.png", "name": "Union Bank of India", "opening_hours": {"open_now": true}, "photos": [{"height": 2368, "html_attributions": ["<a href=\"https://maps.google.com/maps/contrib/112940162953941679037\">Maaz Rahman</a>"], "photo_reference": "ATtYBwIFvD9aXH3CFDoGosXgHjvZO2-4nYwlK_cLdi7qZ9ohVOOQWMeXV9hU_u5slC4Flsr18z_vYIRW3hKCqqsre4RkGwsalpv_WPEfomr_ORoIRKiFdTpy4qgN5tBBUcsWk-nlaKlcg5mzeUJI6J3slsSh3qi8fgoTVbDdi3pRFGcKPPGO", "width": 4224}], "place_id": "ChIJ-1k9YZa89jkRExLNojYpEFE", "plus_code": {"compound_code": "RC2V+X3 Dhanbad, Jharkhand, India", "global_code": "7MM8RC2V+X3"}, "rating": 3.9, "reference": "ChIJ-1k9YZa89jkRExLNojYpEFE", "scope": "GOOGLE", "types": ["bank", "finance", "point_of_interest", "establishment"], "user_ratings_total": 16, "vicinity": "NH 32, Sardar Patel Nagar, Dhanbad"}, {"business_status": "OPERATIONAL", "geometry": {"location": {"lat": 23.7990724, "lng": 86.44244599999999}, "viewport": {"northeast": {"lat": 23.8004626302915, "lng": 86.4438203802915}, "southwest": {"lat": 23.7977646697085, "lng": 86.44112241970849}}}, "icon": "https://maps.gstatic.com/mapfiles/place_api/icons/v1/png_71/bank-71.png", "name": "Punjab National Bank - Chiragora-Dhanbad Branch", "opening_hours": {"open_now": true}, "photos": [{"height": 4032, "html_attributions": ["<a href=\"https://maps.google.com/maps/contrib/107038342346679182049\">Pranshu Suraj</a>"], "photo_reference": "ATtYBwLMMzgx8TfZBsduTJ8DV8gZ_7DhTWeftz30_bB_1NRHBmPBHh_CSBnGegXP3l-Uzu1fJZUfFT7STx4Q7QQSWuv2tjmHqV7s6G2f2bqCgbdVSGyU-4vqYG6Ssh4HRm8uwcVYkdLhHT-PKY-GFuicASOzWujeeqTLyfXsEyuHx7CX-QAx", "width": 3024}], "place_id": "ChIJxySqJJS89jkRiCFYRvMg60o", "plus_code": {"compound_code": "QCXR+JX Dhanbad, Jharkhand, India", "global_code": "7MM8QCXR+JX"}, "rating": 3.8, "reference": "ChIJxySqJJS89jkRiCFYRvMg60o", "scope": "GOOGLE", "types": ["bank", "finance", "point_of_interest", "establishment"], "user_ratings_total": 13, "vicinity": "Jharna Para Road Near Park Market"}, {"business_status": "OPERATIONAL", "geometry": {"location": {"lat": 23.8013104, "lng": 86.442137}, "viewport": {"northeast": {"lat": 23.8026629802915, "lng": 86.44348103029152}, "southwest": {"lat": 23.79996501970849, "lng": 86.4407830697085}}}, "icon": "https://maps.gstatic.com/mapfiles/place_api/icons/v1/png_71/bank-71.png", "name": "Allahabad Bank - Hirapur Branch", "place_id": "ChIJUbPq8pa89jkRPNEUeUGhd6U", "plus_code": {"compound_code": "RC2R+GV Dhanbad, Jharkhand, India", "global_code": "7MM8RC2R+GV"}, "rating": 2.5, "reference": "ChIJUbPq8pa89jkRPNEUeUGhd6U", "scope": "GOOGLE", "types": ["bank", "finance", "point_of_interest", "establishment"], "user_ratings_total": 2, "vicinity": "Jamtara - Dhanbad Road, Hirapur, Pandey Muhalla, Dhanbad"}, {"business_status": "OPERATIONAL", "geometry": {"location": {"lat": 23.804667, "lng": 86.4421519}, "viewport": {"northeast": {"lat": 23.8060109302915, "lng": 86.4434357302915}, "southwest": {"lat": 23.8033129697085, "lng": 86.44073776970849}}}, "icon": "https://maps.gstatic.com/mapfiles/place_api/icons/v1/png_71/bank-71.png", "name": "HDFC Bank", "opening_hours": {"open_now": true}, "photos": [{"height": 3120, "html_attributions": ["<a href=\"https://maps.google.com/maps/contrib/117263162040512412143\">Raj Gourav</a>"], "photo_reference": "ATtYBwL1uI9rVdKEbE14nnQbeHwtCKeYfqgBXbGMaMVm7R3ktQY9r07moBmppYBNlJHwJ3RzcFc6Y56DTrXdIUVfv9zZpwjLkHezQVaFn7ee452EsoGj1AAq-_m9etNw9hkySiZutxFABkhGkl8ql0dp9VAi-kCkotyJNmU5ZCVw2Jv8CjMc", "width": 4160}], "place_id": "ChIJGWsZOJe89jkRS7xruk9WNkQ", "plus_code": {"compound_code": "RC3R+VV Dhanbad, Jharkhand, India", "global_code": "7MM8RC3R+VV"}, "rating": 4.4, "reference": "ChIJGWsZOJe89jkRS7xruk9WNkQ", "scope": "GOOGLE", "types": ["bank", "finance", "point_of_interest", "establishment"], "user_ratings_total": 13, "vicinity": "1st Flr, Vaikuntham, Hirapur, CMPF Colony, Dhanbad"}, {"business_status": "OPERATIONAL", "geometry": {"location": {"lat": 23.8091342, "lng": 86.450394}, "viewport": {"northeast": {"lat": 23.8105347302915, "lng": 86.4516931802915}, "southwest": {"lat": 23.80783676970849, "lng": 86.4489952197085}}}, "icon": "https://maps.gstatic.com/mapfiles/place_api/icons/v1/png_71/bank-71.png", "name": "State Bank Of India", "opening_hours": {"open_now": true}, "photos": [{"height": 3024, "html_attributions": ["<a href=\"https://maps.google.com/maps/contrib/117381709356695938100\">Mohammad Saqib</a>"], "photo_reference": "ATtYBwKmHcemnpIalKcHuuiSZznDRyopt6yx-1embbsHtUsmXsuyZTCbGqy1r0_Ov7DPcfw3LDdWxajDe5uSdYR1A6s7XpmreA9NZ2O-kRWhh_BDw_LZWQPqzl81ScFf7am8jbO8Ge5baO4eKe7IncT7LzjB3mjdCkcbq2daitHt3KHIgHf1", "width": 4032}], "place_id": "ChIJ-a6f4IS89jkRUQgYyt2XfFg", "plus_code": {"compound_code": "RF52+M5 Dhanbad, Jharkhand, India", "global_code": "7MM8RF52+M5"}, "rating": 2.9, "reference": "ChIJ-a6f4IS89jkRUQgYyt2XfFg", "scope": "GOOGLE", "types": ["bank", "finance", "point_of_interest", "establishment"], "user_ratings_total": 12, "vicinity": "Kalyan Bhawan CMPF Colony, Jagjiwan Nagar, Dhanbad"}, {"business_status": "OPERATIONAL", "geometry": {"location": {"lat": 23.7999596, "lng": 86.4381102}, "viewport": {"northeast": {"lat": 23.8013036802915, "lng": 86.4394357302915}, "southwest": {"lat": 23.7986057197085, "lng": 86.4367377697085}}}, "icon": "https://maps.gstatic.com/mapfiles/place_api/icons/v1/png_71/bank-71.png", "name": "Axis Bank", "opening_hours": {"open_now": true}, "place_id": "ChIJA6aE-P_G9jkRO8NhXnN_POg", "plus_code": {"compound_code": "QCXQ+X6 Dhanbad, Jharkhand, India", "global_code": "7MM8QCXQ+X6"}, "rating": 1, "reference": "ChIJA6aE-P_G9jkRO8NhXnN_POg", "scope": "GOOGLE", "types": ["bank", "finance", "point_of_interest", "establishment"], "user_ratings_total": 1, "vicinity": "Upper Ground Floor Dhanbad Govindpur Main Road, KG Ashram"}, {"business_status": "OPERATIONAL", "geometry": {"location": {"lat": 23.8115155, "lng": 86.44772189999999}, "viewport": {"northeast": {"lat": 23.81283588029151, "lng": 86.4490703302915}, "southwest": {"lat": 23.8101379197085, "lng": 86.44637236970848}}}, "icon": "https://maps.gstatic.com/mapfiles/place_api/icons/v1/png_71/bank-71.png", "name": "State Bank of India I.S.M Campus Branch", "opening_hours": {"open_now": true}, "photos": [{"height": 2448, "html_attributions": ["<a href=\"https://maps.google.com/maps/contrib/103592383096275938299\">sushant kumar</a>"], "photo_reference": "ATtYBwJvemnbZ_ZZfMv1IPgUYis5T9OX0EBzF-3foXQYrTvYniDNVT396JA1Py6X09sEqTe6G4vATbCXZmXyvS_thb9A-hQ3Vlz-Hf5Df4rPHOkYnKN6sxObmbvagmOHVdyg1PCZ6lAnXFPe0TPgO_s8dFpNfb1-ATpTOeFEgGWzrdKhycaC", "width": 3264}], "place_id": "ChIJ1_BEqYS89jkRrtSwSbK8GKA", "plus_code": {"compound_code": "RC6X+J3 Dhanbad, Jharkhand, India", "global_code": "7MM8RC6X+J3"}, "rating": 3.2, "reference": "ChIJ1_BEqYS89jkRrtSwSbK8GKA", "scope": "GOOGLE", "types": ["bank", "atm", "finance", "point_of_interest", "establishment"], "user_ratings_total": 43, "vicinity": "Sarithela Road Opp Pk Roy College, Hirapur, Dhanbad"}, {"business_status": "OPERATIONAL", "geometry": {"location": {"lat": 23.7999322, "lng": 86.4374034}, "viewport": {"northeast": {"lat": 23.80126998029151, "lng": 86.4388328802915}, "southwest": {"lat": 23.7985720197085, "lng": 86.4361349197085}}}, "icon": "https://maps.gstatic.com/mapfiles/place_api/icons/v1/png_71/bank-71.png", "name": "Corporation Bank", "opening_hours": {"open_now": true}, "place_id": "ChIJST_b3r289jkREYOvU8ca_7g", "plus_code": {"compound_code": "QCXP+XX Dhanbad, Jharkhand, India", "global_code": "7MM8QCXP+XX"}, "rating": 1.3, "reference": "ChIJST_b3r289jkREYOvU8ca_7g", "scope": "GOOGLE", "types": ["bank", "finance", "point_of_interest", "establishment"], "user_ratings_total": 3, "vicinity": "Luby Circular Road, Hirapur, Dhanbad"}, {"business_status": "OPERATIONAL", "geometry": {"location": {"lat": 23.7975981, "lng": 86.4374591}, "viewport": {"northeast": {"lat": 23.7989934802915, "lng": 86.43872388029149}, "southwest": {"lat": 23.7962955197085, "lng": 86.43602591970848}}}, "icon": "https://maps.gstatic.com/mapfiles/place_api/icons/v1/png_71/bank-71.png", "name": "Head Office, The Dhanbad Central Co-Operative Bank LTD.", "opening_hours": {"open_now": true}, "photos": [{"height": 551, "html_attributions": ["<a href=\"https://maps.google.com/maps/contrib/109847187293686435228\">Sail Marley</a>"], "photo_reference": "ATtYBwJphvsn8tZoy4gc2l2dY_HCdaNKfYD4RILoNpTSYACxv7DUbnebAC-D86TP2MEc5_fGNWNq5XXsnTAgtbQxq0IVnLAawOGyWzE7e99k_sbWhRVs1Pskc21VHciPNVD4Sd3I5Ty31vWvUiJE8Bb1DovQse9VLRrDNP_K1uef4QFVd2hM", "width": 720}], "place_id": "ChIJ8xQPa7689jkRiLROoihsWdg", "plus_code": {"compound_code": "QCXP+2X Dhanbad, Jharkhand, India", "global_code": "7MM8QCXP+2X"}, "rating": 3.9, "reference": "ChIJ8xQPa7689jkRiLROoihsWdg", "scope": "GOOGLE", "types": ["bank", "atm", "finance", "point_of_interest", "establishment"], "user_ratings_total": 8, "vicinity": "Randhir Verma Chowk, Hirapur, Pandey Muhalla, Dhanbad"}, {"business_status": "OPERATIONAL", "geometry": {"location": {"lat": 23.811447, "lng": 86.453261}, "viewport": {"northeast": {"lat": 23.8127543802915, "lng": 86.4546109802915}, "southwest": {"lat": 23.81005641970849, "lng": 86.4519130197085}}}, "icon": "https://maps.gstatic.com/mapfiles/place_api/icons/v1/png_71/bank-71.png", "name": "ICICI Bank Saraidhela, Dhanbad-Branch & ATM", "opening_hours": {"open_now": true}, "photos": [{"height": 1920, "html_attributions": ["<a href=\"https://maps.google.com/maps/contrib/116988407630262725214\">Pankaj Sharma</a>"], "photo_reference": "ATtYBwJxLfnNWZuj9unZxq0vSXO39-L8W7mQFJgdOOiuAg_wDcLV0x0NtZnNMoa3f9rgNDUXsrTygl12SLUc_HwYPQIJghiVfq-7kEV-OywFxzAZaRx6m9tHA73Nb41atOz6X3UYNt9OBt2OzaPb7j_5XNS3ltXyANCQPFueUNVVl4lYQmxd", "width": 1080}], "place_id": "ChIJDYOWDoS89jkRcltvmmbfUIo", "plus_code": {"compound_code": "RF63+H8 Dhanbad, Jharkhand, India", "global_code": "7MM8RF63+H8"}, "rating": 2.1, "reference": "ChIJDYOWDoS89jkRcltvmmbfUIo", "scope": "GOOGLE", "types": ["bank", "finance", "point_of_interest", "establishment"], "user_ratings_total": 8, "vicinity": "Shri Shyam Bhawan, Saraidhela Road, Dhanbad"}, {"business_status": "OPERATIONAL", "geometry": {"location": {"lat": 23.800559, "lng": 86.443401}, "viewport": {"northeast": {"lat": 23.8020096302915, "lng": 86.4447562802915}, "southwest": {"lat": 23.7993116697085, "lng": 86.4420583197085}}}, "icon": "https://maps.gstatic.com/mapfiles/place_api/icons/v1/png_71/bank-71.png", "name": "SyndicateBank Dhanbad Hirapur Branch", "place_id": "ChIJlZymkNK99jkRZa4qgLc1HBU", "plus_code": {"compound_code": "RC2V+69 Dhanbad, Jharkhand, India", "global_code": "7MM8RC2V+69"}, "reference": "ChIJlZymkNK99jkRZa4qgLc1HBU", "scope": "GOOGLE", "types": ["bank", "finance", "point_of_interest", "establishment"], "vicinity": "Shivam Complex,Steel Gate Sarai Dhela, Hirapur, Dhanbad"}, {"business_status": "OPERATIONAL", "geometry": {"location": {"lat": 23.80223, "lng": 86.442833}, "viewport": {"northeast": {"lat": 23.80355988029151, "lng": 86.4442111802915}, "southwest": {"lat": 23.8008619197085, "lng": 86.44151321970848}}}, "icon": "https://maps.gstatic.com/mapfiles/place_api/icons/v1/png_71/bank-71.png", "name": "Bank Of Baroda", "opening_hours": {"open_now": true}, "photos": [{"height": 288, "html_attributions": ["<a href=\"https://maps.google.com/maps/contrib/100167268202066603275\">Bank Of Baroda</a>"], "photo_reference": "ATtYBwLk76153cbziFWGWm410R-orsV6-5-xclVRFXcifGSGm-wrqEUXrda3PkP0_Mv0362A5TNRXdIxolJ7BOcz93eVQbu5CkcU3RHiv7kREtH7xcwY2lu-2etB7kDqSUpmiaBS-Gmwe64D9X2TYe2oMyK6ZgdF0Q1_M5f11fIp1uZk-Ote", "width": 512}], "place_id": "ChIJU4ue3Za89jkRKBHy5HjP0TM", "plus_code": {"compound_code": "RC2V+V4 Hirapur, Jharkhand, India", "global_code": "7MM8RC2V+V4"}, "rating": 5, "reference": "ChIJU4ue3Za89jkRKBHy5HjP0TM", "scope": "GOOGLE", "types": ["bank", "finance", "point_of_interest", "establishment"], "user_ratings_total": 1, "vicinity": "near Big Saraidhela, HIRAPU, Sahyogi Near Sec-1, near Big Saraidhela, Hirapur"}, {"business_status": "OPERATIONAL", "geometry": {"location": {"lat": 23.8052678, "lng": 86.456035}, "viewport": {"northeast": {"lat": 23.8066038802915, "lng": 86.4573620802915}, "southwest": {"lat": 23.80390591970849, "lng": 86.4546641197085}}}, "icon": "https://maps.gstatic.com/mapfiles/place_api/icons/v1/png_71/bank-71.png", "name": "Coal Board Office", "opening_hours": {"open_now": true}, "place_id": "ChIJ____j4i89jkR6Dz-ahSa12g", "plus_code": {"compound_code": "RF44+4C Dhanbad, Jharkhand, India", "global_code": "7MM8RF44+4C"}, "reference": "ChIJ____j4i89jkR6Dz-ahSa12g", "scope": "GOOGLE", "types": ["bank", "finance", "point_of_interest", "establishment"], "vicinity": "Vikas Nagar, Kusum Vihar, Jagjiwan Nagar, Dhanbad"}, {"business_status": "OPERATIONAL", "geometry": {"location": {"lat": 23.8046311, "lng": 86.44330629999999}, "viewport": {"northeast": {"lat": 23.8059712302915, "lng": 86.44457278029151}, "southwest": {"lat": 23.8032732697085, "lng": 86.4418748197085}}}, "icon": "https://maps.gstatic.com/mapfiles/place_api/icons/v1/png_71/bank-71.png", "name": "BANK OF INDIA", "photos": [{"height": 4128, "html_attributions": ["<a href=\"https://maps.google.com/maps/contrib/104499199891126690019\">Ashwini Anand</a>"], "photo_reference": "ATtYBwLLloIGELum115svyjwnE7-CvLeeBPG2q0ypL5wnbMUsxkQJqijFeEw0uhQ20oo-re2Xtod_PTaSL6skwqTHpAQLqmlQeWpCGsXWUigDUAg-ibaYHHKIdXECTTQqfg8POmIQRrPEVL2bPJ_AxOHDOsUHvXsl3m-atUdRXDqTk1toAtq", "width": 3096}], "place_id": "ChIJ68t1Rpe89jkRiFVzRjVCjDM", "plus_code": {"compound_code": "RC3V+V8 Dhanbad, Jharkhand, India", "global_code": "7MM8RC3V+V8"}, "rating": 4, "reference": "ChIJ68t1Rpe89jkRiFVzRjVCjDM", "scope": "GOOGLE", "types": ["bank", "finance", "point_of_interest", "establishment"], "user_ratings_total": 7, "vicinity": "opp. Police Line, Hirapur, Dhanbad"}, {"business_status": "OPERATIONAL", "geometry": {"location": {"lat": 23.7986932, "lng": 86.4407267}, "viewport": {"northeast": {"lat": 23.8000415302915, "lng": 86.4421143802915}, "southwest": {"lat": 23.7973435697085, "lng": 86.4394164197085}}}, "icon": "https://maps.gstatic.com/mapfiles/place_api/icons/v1/png_71/bank-71.png", "name": "Bank Of India", "opening_hours": {"open_now": true}, "photos": [{"height": 2448, "html_attributions": ["<a href=\"https://maps.google.com/maps/contrib/105381455798770655884\">R\u2c65h\u0e1a Y\u0e2a\u1599\u0e2av</a>"], "photo_reference": "ATtYBwLg6s2CAkbCSRxmc4p5olJ2CBaZoyn04IhkKz5fphwI6_0uYAFsjphAWCpJ8beiWKbPnjm8LtIlT2zYBpWUjMq2mCxtA5DnBZzWhQCCPMs5me_RmwfyidKy18hTnSbLeUQTn2rib7_CUKsVKM-qZ90n2SFDLjwV0BoGfgyyciCBlof_", "width": 3264}], "place_id": "ChIJHZbNxZW89jkRr9CFp8Q5Bmw", "plus_code": {"compound_code": "QCXR+F7 Dhanbad, Jharkhand, India", "global_code": "7MM8QCXR+F7"}, "rating": 2.7, "reference": "ChIJHZbNxZW89jkRr9CFp8Q5Bmw", "scope": "GOOGLE", "types": ["bank", "finance", "point_of_interest", "establishment"], "user_ratings_total": 7, "vicinity": "Hirapur Park Market"}, {"business_status": "OPERATIONAL", "geometry": {"location": {"lat": 23.801136, "lng": 86.4402618}, "viewport": {"northeast": {"lat": 23.8024543302915, "lng": 86.44133578029151}, "southwest": {"lat": 23.7997563697085, "lng": 86.4386378197085}}}, "icon": "https://maps.gstatic.com/mapfiles/place_api/icons/v1/png_71/bank-71.png", "name": "ICICI BANK ATM", "opening_hours": {"open_now": true}, "place_id": "ChIJWZT2sPa99jkRwo939o9Rbqo", "plus_code": {"compound_code": "RC2R+F4 Saraidhella, Jharkhand, India", "global_code": "7MM8RC2R+F4"}, "reference": "ChIJWZT2sPa99jkRwo939o9Rbqo", "scope": "GOOGLE", "types": ["bank", "finance", "point_of_interest", "establishment"], "vicinity": "Shri Shyam Bhawan, Saraidhella"}, {"business_status": "OPERATIONAL", "geometry": {"location": {"lat": 23.7974532, "lng": 86.4397767}, "viewport": {"northeast": {"lat": 23.7987476802915, "lng": 86.4410986802915}, "southwest": {"lat": 23.7960497197085, "lng": 86.4384007197085}}}, "icon": "https://maps.gstatic.com/mapfiles/place_api/icons/v1/png_71/bank-71.png", "name": "Central Bank Of India, Hirapur Branch", "opening_hours": {"open_now": true}, "photos": [{"height": 3120, "html_attributions": ["<a href=\"https://maps.google.com/maps/contrib/115526170123334129293\">Nitish Singh</a>"], "photo_reference": "ATtYBwIXHpkfC_Rc4eRc4IYUxvVv8U_4n5PQ6CBhvMVbKAdc2HaZhCd1XMGkbjlDQdmI8jm3jtiZh3B4wyVY1X_PTCuifRMeBk7WrJmRO3Xwi8hHuj7NMFaBI0u43S9P9QxwYz2gYxi18_0yAPTXHvb_qjEvRgqsIw88VQ9xsavDi9PfoadT", "width": 4160}], "place_id": "ChIJ5cmILc299jkRLr3dNaH0S_I", "plus_code": {"compound_code": "QCWQ+XW Dhanbad, Jharkhand, India", "global_code": "7MM8QCWQ+XW"}, "rating": 4.8, "reference": "ChIJ5cmILc299jkRLr3dNaH0S_I", "scope": "GOOGLE", "types": ["bank", "finance", "point_of_interest", "establishment"], "user_ratings_total": 6, "vicinity": "Sri tower, Gyan Mukherjee Road, Hirapur, Pandey Muhalla, Dhanbad"}, {"business_status": "OPERATIONAL", "geometry": {"location": {"lat": 23.7958467, "lng": 86.4401869}, "viewport": {"northeast": {"lat": 23.7971561302915, "lng": 86.44153203029151}, "southwest": {"lat": 23.79445816970849, "lng": 86.43883406970849}}}, "icon": "https://maps.gstatic.com/mapfiles/place_api/icons/v1/png_71/bank-71.png", "name": "Canara Bank", "opening_hours": {"open_now": true}, "place_id": "ChIJ728nbZW89jkRBKLPuC3hxM0", "plus_code": {"compound_code": "QCWR+83 Dhanbad, Jharkhand, India", "global_code": "7MM8QCWR+83"}, "rating": 3.9, "reference": "ChIJ728nbZW89jkRBKLPuC3hxM0", "scope": "GOOGLE", "types": ["atm", "bank", "finance", "point_of_interest", "establishment"], "user_ratings_total": 7, "vicinity": "Hari Mandir, Hirapur, Dhanbad"}, {"business_status": "OPERATIONAL", "geometry": {"location": {"lat": 23.7922099, "lng": 86.4433098}, "viewport": {"northeast": {"lat": 23.7935322802915, "lng": 86.4446003802915}, "southwest": {"lat": 23.7908343197085, "lng": 86.4419024197085}}}, "icon": "https://maps.gstatic.com/mapfiles/place_api/icons/v1/png_71/atm-71.png", "name": "Axis Bank ATM", "opening_hours": {"open_now": true}, "photos": [{"height": 558, "html_attributions": ["<a href=\"https://maps.google.com/maps/contrib/108305793745509111152\">Axis Bank ATM</a>"], "photo_reference": "ATtYBwKcwU8LPtWEL-nG3q2Bw0ihaujoBDGO7XEhOPorFJuhdcBSbNPdjNP1YHMYd6i9kUUCAjfFs-3nsxVf--xUpTsEb6tC0Pl8dInFSFwM1jfeewgiaar37Y_iRERMgsKha9Si6tSLaPVVbP91omUcXEc-f7azP-IyS6kd-kwRA7KeqCen", "width": 992}], "place_id": "ChIJTx5NBjK99jkRF6YV_Pq2zho", "plus_code": {"compound_code": "QCRV+V8 Dhanbad, Jharkhand, India", "global_code": "7MM8QCRV+V8"}, "reference": "ChIJTx5NBjK99jkRF6YV_Pq2zho", "scope": "GOOGLE", "types": ["atm", "bank", "finance", "point_of_interest", "establishment"], "vicinity": "near Woodland Hotel, Ground Floor, near Woodland Hotel, Hirapur, Dhanbad"}, {"business_status": "OPERATIONAL", "geometry": {"location": {"lat": 23.798052, "lng": 86.4390372}, "viewport": {"northeast": {"lat": 23.7994025302915, "lng": 86.4403892802915}, "southwest": {"lat": 23.7967045697085, "lng": 86.43769131970849}}}, "icon": "https://maps.gstatic.com/mapfiles/place_api/icons/v1/png_71/bank-71.png", "name": "ATM SBI", "place_id": "ChIJT0KJipW89jkR8NloaJO_jPQ", "plus_code": {"compound_code": "QCXQ+6J Dhanbad, Jharkhand, India", "global_code": "7MM8QCXQ+6J"}, "rating": 5, "reference": "ChIJT0KJipW89jkR8NloaJO_jPQ", "scope": "GOOGLE", "types": ["bank", "atm", "finance", "point_of_interest", "establishment"], "user_ratings_total": 1, "vicinity": "Gyan Mukherjee Road, Pandey Muhalla, Dhanbad"}], "status": "OK"}