{"html_attributions": [], "results": [{"business_status": "OPERATIONAL", "geometry": {"location": {"lat": 23.6693386, "lng": 86.0253414}, "viewport": {"northeast": {"lat": 23.6706535802915, "lng": 86.02670288029151}, "southwest": {"lat": 23.6679556197085, "lng": 86.0240049197085}}}, "icon": "https://maps.gstatic.com/mapfiles/place_api/icons/v1/png_71/hospital-71.png", "icon_background_color": "#F88181", "icon_mask_base_uri": "https://maps.gstatic.com/mapfiles/place_api/icons/v2/hospital-H_pinlet", "name": "Life Care Hospital", "photos": [{"height": 3120, "html_attributions": ["<a href=\"https://maps.google.com/maps/contrib/110306549878538388497\">dr.bn mahto</a>"], "photo_reference": "Aap_uEBhwHqvhRmG7eKrPToS6k-TO7vW9LbaXDSlSMvfr8PQ_nTZ3H_eqYKrTv_2K7zZfQYRinf96AU0ArPNdZwhO3kio-pcHoGUUoeOo4XfRjzaoGPSRp3rRqt-0uX8bLth-7k1IfYBEwa0EvEjgiS3yrv4hFm7g13dlpVGWkcPuFrSmRa3", "width": 4160}], "place_id": "ChIJfVHaScw99DkRw543L70tqaM", "plus_code": {"compound_code": "M29G+P4 Jaina, Jharkhand, India", "global_code": "7MM8M29G+P4"}, "rating": 4.3, "reference": "ChIJfVHaScw99DkRw543L70tqaM", "scope": "GOOGLE", "types": ["hospital", "health", "point_of_interest", "establishment"], "user_ratings_total": 3, "vicinity": "Bokaro - Ramgarh - Ranchi Road Jaina More, near, Jaina"}, {"business_status": "OPERATIONAL", "geometry": {"location": {"lat": 23.669872, "lng": 86.0280287}, "viewport": {"northeast": {"lat": 23.67102468029151, "lng": 86.0293695302915}, "southwest": {"lat": 23.6683267197085, "lng": 86.0266715697085}}}, "icon": "https://maps.gstatic.com/mapfiles/place_api/icons/v1/png_71/hospital-71.png", "icon_background_color": "#F88181", "icon_mask_base_uri": "https://maps.gstatic.com/mapfiles/place_api/icons/v2/hospital-H_pinlet", "name": "Sukhushi Children Hospital", "place_id": "ChIJEfrs8cs99DkRwNyQz2cvmnI", "rating": 3, "reference": "ChIJEfrs8cs99DkRwNyQz2cvmnI", "scope": "GOOGLE", "types": ["hospital", "health", "point_of_interest", "establishment"], "user_ratings_total": 2, "vicinity": "M29H+W6R, Jaina"}, {"business_status": "OPERATIONAL", "geometry": {"location": {"lat": 23.6682708, "lng": 86.0228516}, "viewport": {"northeast": {"lat": 23.6695711802915, "lng": 86.0242312302915}, "southwest": {"lat": 23.6668732197085, "lng": 86.02153326970848}}}, "icon": "https://maps.gstatic.com/mapfiles/place_api/icons/v1/png_71/hospital-71.png", "icon_background_color": "#F88181", "icon_mask_base_uri": "https://maps.gstatic.com/mapfiles/place_api/icons/v2/hospital-H_pinlet", "name": "Life Care Hospital", "opening_hours": {"open_now": true}, "place_id": "ChIJsbCLhM099DkRQFyMUBnKeXk", "plus_code": {"compound_code": "M29F+84 Bokaro Steel City, Jharkhand, India", "global_code": "7MM8M29F+84"}, "rating": 4.8, "reference": "ChIJsbCLhM099DkRQFyMUBnKeXk", "scope": "GOOGLE", "types": ["hospital", "health", "point_of_interest", "establishment"], "user_ratings_total": 4, "vicinity": "Main Road, Jena, Bokaro Steel City"}, {"business_status": "OPERATIONAL", "geometry": {"location": {"lat": 23.6738159, "lng": 86.02491169999999}, "viewport": {"northeast": {"lat": 23.6752794302915, "lng": 86.02605258029152}, "southwest": {"lat": 23.6725814697085, "lng": 86.02335461970851}}}, "icon": "https://maps.gstatic.com/mapfiles/place_api/icons/v1/png_71/hospital-71.png", "icon_background_color": "#F88181", "icon_mask_base_uri": "https://maps.gstatic.com/mapfiles/place_api/icons/v2/hospital-H_pinlet", "name": "Life Care Hospital", "place_id": "ChIJVVVVVc499DkRxinMwU9Z8Fc", "plus_code": {"compound_code": "M2FF+GX Jaina, Jharkhand, India", "global_code": "7MM8M2FF+GX"}, "rating": 3.2, "reference": "ChIJVVVVVc499DkRxinMwU9Z8Fc", "scope": "GOOGLE", "types": ["hospital", "health", "point_of_interest", "establishment"], "user_ratings_total": 5, "vicinity": "More, Jaina"}, {"business_status": "OPERATIONAL", "geometry": {"location": {"lat": 23.6677447, "lng": 86.0198103}, "viewport": {"northeast": {"lat": 23.6690943802915, "lng": 86.0211587302915}, "southwest": {"lat": 23.6663964197085, "lng": 86.0184607697085}}}, "icon": "https://maps.gstatic.com/mapfiles/place_api/icons/v1/png_71/hospital-71.png", "icon_background_color": "#F88181", "icon_mask_base_uri": "https://maps.gstatic.com/mapfiles/place_api/icons/v2/hospital-H_pinlet", "name": "Life Care Hospital", "place_id": "ChIJEcGJcdo99DkRvqEmQ7QX-4I", "plus_code": {"compound_code": "M299+3W Jaina, Jharkhand, India", "global_code": "7MM8M299+3W"}, "rating": 5, "reference": "ChIJEcGJcdo99DkRvqEmQ7QX-4I", "scope": "GOOGLE", "types": ["hospital", "health", "point_of_interest", "establishment"], "user_ratings_total": 1, "vicinity": "near jaina more, Jena, Jaina"}, {"business_status": "OPERATIONAL", "geometry": {"location": {"lat": 23.6710806, "lng": 86.018711}, "viewport": {"northeast": {"lat": 23.6724480802915, "lng": 86.0201215802915}, "southwest": {"lat": 23.6697501197085, "lng": 86.0174236197085}}}, "icon": "https://maps.gstatic.com/mapfiles/place_api/icons/v1/png_71/hospital-71.png", "icon_background_color": "#F88181", "icon_mask_base_uri": "https://maps.gstatic.com/mapfiles/place_api/icons/v2/hospital-H_pinlet", "name": "M.M. HOSPITAL JAINAMORE BOKARO", "opening_hours": {"open_now": true}, "photos": [{"height": 809, "html_attributions": ["<a href=\"https://maps.google.com/maps/contrib/106479401196408452135\">M.M. HOSPITAL JAINAMORE BOKARO</a>"], "photo_reference": "Aap_uECK2HzQx7YFW90VtBgoz-OCcE4jE-i-HVHQZ1xDncuZlkmzI9TzteRsYAYVmBF9ffhM1jWsgOA0LtXZdzLtf2qFt8dWu8Tro5Hj974afaSclSHhlVrXlxp60E2Ct_7NF924d-cUG2R_n7SKyHHbzbwV4DP3rq2QMmyCQJJtrBtAxWj4", "width": 1440}], "place_id": "ChIJTxzUZtE99DkRagmKQKOlVNQ", "plus_code": {"compound_code": "M2C9+CF Phusro, Jharkhand, India", "global_code": "7MM8M2C9+CF"}, "rating": 4.7, "reference": "ChIJTxzUZtE99DkRagmKQKOlVNQ", "scope": "GOOGLE", "types": ["hospital", "health", "point_of_interest", "establishment"], "user_ratings_total": 12, "vicinity": "Road, Jena, Phusro"}, {"business_status": "OPERATIONAL", "geometry": {"location": {"lat": 23.6728078, "lng": 86.01862539999999}, "viewport": {"northeast": {"lat": 23.6742243802915, "lng": 86.01994333029151}, "southwest": {"lat": 23.6715264197085, "lng": 86.0172453697085}}}, "icon": "https://maps.gstatic.com/mapfiles/place_api/icons/v1/png_71/hospital-71.png", "icon_background_color": "#F88181", "icon_mask_base_uri": "https://maps.gstatic.com/mapfiles/place_api/icons/v2/hospital-H_pinlet", "name": "G.K Hospital And Research Center", "opening_hours": {"open_now": true}, "place_id": "ChIJW8VHErU99DkRpK8Nvud8ucQ", "plus_code": {"compound_code": "M2F9+4F Tanrmohanpur, Jharkhand, India", "global_code": "7MM8M2F9+4F"}, "rating": 4.6, "reference": "ChIJW8VHErU99DkRpK8Nvud8ucQ", "scope": "GOOGLE", "types": ["hospital", "health", "point_of_interest", "establishment"], "user_ratings_total": 11, "vicinity": "Bhuchung Dih Road, Jena, Tanrmohanpur"}, {"business_status": "OPERATIONAL", "geometry": {"location": {"lat": 23.6632065, "lng": 86.0193872}, "viewport": {"northeast": {"lat": 23.6645052302915, "lng": 86.0206805302915}, "southwest": {"lat": 23.6618072697085, "lng": 86.0179825697085}}}, "icon": "https://maps.gstatic.com/mapfiles/place_api/icons/v1/png_71/hospital-71.png", "icon_background_color": "#F88181", "icon_mask_base_uri": "https://maps.gstatic.com/mapfiles/place_api/icons/v2/hospital-H_pinlet", "name": "double heart Internet", "opening_hours": {"open_now": true}, "photos": [{"height": 2304, "html_attributions": ["<a href=\"https://maps.google.com/maps/contrib/112930147829246653765\">Nilesh Nilayam</a>"], "photo_reference": "Aap_uEB57kyzqBuDZTjsJ2S6uRjYZ0_61l71-AUemXZF94A93J_v8gRZkS9pQ9FneLVXmE82wBsqdFg5EH88ZhLsUuZFcw8_rsCNbs2yF2e88vGFB0BxOBcgtJYbthi-OiKW9seCENJHWImwryYQL2EoH71GteKttHWhknW8xeXyKUQmZ0eQ", "width": 4096}], "place_id": "ChIJXxhs5yw89DkRk-_Th2kqkfA", "plus_code": {"compound_code": "M279+7Q Jaina, Jharkhand, India", "global_code": "7MM8M279+7Q"}, "rating": 4.4, "reference": "ChIJXxhs5yw89DkRk-_Th2kqkfA", "scope": "GOOGLE", "types": ["hospital", "health", "point_of_interest", "establishment"], "user_ratings_total": 10, "vicinity": "Dr, sudha deo street, Jena, Jaina"}, {"business_status": "OPERATIONAL", "geometry": {"location": {"lat": 23.6637028, "lng": 86.01857489999999}, "viewport": {"northeast": {"lat": 23.6650525302915, "lng": 86.0199246802915}, "southwest": {"lat": 23.6623545697085, "lng": 86.01722671970849}}}, "icon": "https://maps.gstatic.com/mapfiles/place_api/icons/v1/png_71/generic_business-71.png", "icon_background_color": "#7B9EB0", "icon_mask_base_uri": "https://maps.gstatic.com/mapfiles/place_api/icons/v2/generic_pinlet", "name": "Bokaro Medical", "opening_hours": {"open_now": true}, "photos": [{"height": 1960, "html_attributions": ["<a href=\"https://maps.google.com/maps/contrib/104038292963419774077\">Bokaro Medical</a>"], "photo_reference": "Aap_uEDi677eLCtPJGPitgW6rSiOI3rZO_dvnrb8neO1xpseQxGdlhRUpaI0dcbAuZtMwtlcIdmDgFwgP67xGlREXifLiVeL8PdI0YyMmZTZl7FibC0bIF--ohI8hHha3XFjWFI5mBlzB3_lwzQ1p7wfRS-nKmrmDESA2pGzYqICm4ucGrHg", "width": 2781}], "place_id": "ChIJqUxDxyw89DkR1pmwzhEJTNU", "plus_code": {"compound_code": "M279+FC Jaina, Jharkhand, India", "global_code": "7MM8M279+FC"}, "rating": 4, "reference": "ChIJqUxDxyw89DkR1pmwzhEJTNU", "scope": "GOOGLE", "types": ["hospital", "health", "point_of_interest", "establishment"], "user_ratings_total": 1, "vicinity": "Jena, Jaina"}, {"business_status": "OPERATIONAL", "geometry": {"location": {"lat": 23.66331, "lng": 86.0175778}, "viewport": {"northeast": {"lat": 23.6645868802915, "lng": 86.0189988802915}, "southwest": {"lat": 23.6618889197085, "lng": 86.0163009197085}}}, "icon": "https://maps.gstatic.com/mapfiles/place_api/icons/v1/png_71/hospital-71.png", "icon_background_color": "#F88181", "icon_mask_base_uri": "https://maps.gstatic.com/mapfiles/place_api/icons/v2/hospital-H_pinlet", "name": "Child In Need Institute", "place_id": "ChIJrwUHvcc99DkRHVa34S7jgWY", "plus_code": {"compound_code": "M279+82 Jaina, Jharkhand, India", "global_code": "7MM8M279+82"}, "reference": "ChIJrwUHvcc99DkRHVa34S7jgWY", "scope": "GOOGLE", "types": ["hospital", "health", "point_of_interest", "establishment"], "vicinity": "Jena, Jaina"}, {"business_status": "OPERATIONAL", "geometry": {"location": {"lat": 23.66, "lng": 86.02}, "viewport": {"northeast": {"lat": 23.66149873029151, "lng": 86.0215045802915}, "southwest": {"lat": 23.6588007697085, "lng": 86.01880661970849}}}, "icon": "https://maps.gstatic.com/mapfiles/place_api/icons/v1/png_71/hospital-71.png", "icon_background_color": "#F88181", "icon_mask_base_uri": "https://maps.gstatic.com/mapfiles/place_api/icons/v2/hospital-H_pinlet", "name": "M M Hospital", "place_id": "ChIJ3dWayy089DkR-2dmRDGr0-Y", "reference": "ChIJ3dWayy089DkR-2dmRDGr0-Y", "scope": "GOOGLE", "types": ["hospital", "health", "point_of_interest", "establishment"], "vicinity": "M259+XXX"}, {"business_status": "OPERATIONAL", "geometry": {"location": {"lat": 23.663037, "lng": 86.0157887}, "viewport": {"northeast": {"lat": 23.6639793802915, "lng": 86.01754128029151}, "southwest": {"lat": 23.6612814197085, "lng": 86.0148433197085}}}, "icon": "https://maps.gstatic.com/mapfiles/place_api/icons/v1/png_71/hospital-71.png", "icon_background_color": "#F88181", "icon_mask_base_uri": "https://maps.gstatic.com/mapfiles/place_api/icons/v2/hospital-H_pinlet", "name": "Community Health Centre, Jaridih", "opening_hours": {"open_now": true}, "photos": [{"height": 1920, "html_attributions": ["<a href=\"https://maps.google.com/maps/contrib/108386097259939606592\">Surendra kr kewat</a>"], "photo_reference": "Aap_uED3pWEIDAz9sXr4TuLEUueXxALVmRVdmn-AwTdHGGdjCWX-e8tS7cqRJk_rkG4TIAZwI6-hfd1Dul3yp0lR8teOw2yOsOGqyOtjI3owNQzBBzXkjZbSTX_HrpH5xnuTSAYVUhOuFeU-Wl8FRUgEZsB2GSzg1bz4oCCweNLAYBoXbfMF", "width": 1080}], "place_id": "ChIJXcmvFSs89DkRUA503-IrMmk", "plus_code": {"compound_code": "M278+68 Jaina, Jharkhand, India", "global_code": "7MM8M278+68"}, "rating": 4.5, "reference": "ChIJXcmvFSs89DkRUA503-IrMmk", "scope": "GOOGLE", "types": ["hospital", "health", "point_of_interest", "establishment"], "user_ratings_total": 2, "vicinity": "More, Jaina,, Jaina"}, {"business_status": "OPERATIONAL", "geometry": {"location": {"lat": 23.6631227, "lng": 86.01483549999999}, "viewport": {"northeast": {"lat": 23.66548115, "lng": 86.01636218029151}, "southwest": {"lat": 23.66233655, "lng": 86.0136642197085}}}, "icon": "https://maps.gstatic.com/mapfiles/place_api/icons/v1/png_71/hospital-71.png", "icon_background_color": "#F88181", "icon_mask_base_uri": "https://maps.gstatic.com/mapfiles/place_api/icons/v2/hospital-H_pinlet", "name": "Referral Hospital Jainamore", "opening_hours": {"open_now": true}, "photos": [{"height": 3008, "html_attributions": ["<a href=\"https://maps.google.com/maps/contrib/115816894168618974530\">Birendra Besra</a>"], "photo_reference": "Aap_uED23s25nEdBNUg0P0O3rPuS4PTKwyGxE__i8leWgP9_L_-uHyfwBljilBg0H2vAPzIAXESkAJDwbbfkuln1B_t0-y_pPBuUUr8jqXI-XS02pC0rqg9mELs8U4_ijtXrwAIIxrySG2eJbxxEHkK9UoPE7qoOgjRIl6rO1_uFTO25-UAZ", "width": 4016}], "place_id": "ChIJARqFHys89DkRScyvvwOK0Tg", "plus_code": {"compound_code": "M277+6W Bandhdih, Jharkhand, India", "global_code": "7MM8M277+6W"}, "rating": 3.7, "reference": "ChIJARqFHys89DkRScyvvwOK0Tg", "scope": "GOOGLE", "types": ["hospital", "health", "point_of_interest", "establishment"], "user_ratings_total": 7, "vicinity": "National Highway 23, Jena, Bandhdih"}, {"business_status": "OPERATIONAL", "geometry": {"location": {"lat": 23.6597044, "lng": 86.0165354}, "viewport": {"northeast": {"lat": 23.6610590302915, "lng": 86.0178296802915}, "southwest": {"lat": 23.65836106970849, "lng": 86.01513171970848}}}, "icon": "https://maps.gstatic.com/mapfiles/place_api/icons/v1/png_71/hospital-71.png", "icon_background_color": "#F88181", "icon_mask_base_uri": "https://maps.gstatic.com/mapfiles/place_api/icons/v2/hospital-H_pinlet", "name": "Ashish Medical", "opening_hours": {"open_now": false}, "photos": [{"height": 1080, "html_attributions": ["<a href=\"https://maps.google.com/maps/contrib/101958983218469081200\">Abhay Rathore</a>"], "photo_reference": "Aap_uEADpLHUQKOuRB3EShgqxYFcoha41Gso7qgmMJ-DOaY-7vE-VUmiZ6-_AUKVgmUXOWr4mOXTFFrYH-WsgmsIqN700ia8ED8JBkZaZIRef0LzQE7vhqTUFnzIG0WDXPm3ekoUDRcMfogSftWy-kSQtnCq3imwUVA4zSeoTvlE708mCh6F", "width": 1920}], "place_id": "ChIJf_vcof899DkRss4uYXdspTU", "plus_code": {"compound_code": "M258+VJ Bandhdih, Jharkhand, India", "global_code": "7MM8M258+VJ"}, "reference": "ChIJf_vcof899DkRss4uYXdspTU", "scope": "GOOGLE", "types": ["hospital", "health", "point_of_interest", "establishment"], "vicinity": "near Bandhan Bank, Teacher's Colony, near Bandhan Bank, Jaina More- Kasmar Road, Teacher's Colony, Jena, Bandhdih"}], "status": "OK"}