{"html_attributions": [], "next_page_token": "Aap_uECIKiQdTN1q9pZPnAbooNwS6KkDl94T5_ORIew5eaNL1ZBoArZkQUqIhpmAUaoOL7sxK6fUTMZbSbYNWoXV-fWLH9nbmJ1I-oCLya6Suwo6P7SlPVvVgkVDkSCusMCGxrJIjOYH6B-9qGHD84fv6xMUT_OqGYLGX3aoMUOQAarVxzsKeJZyAC0VLQ8QwYMXGbOxKxyeJOUSQ365OyFmJbxlpWnqVOo1sIfVT3mXbpgvHX5CoSN3AFUVUL9_YifK-Jn6mmekylnv3DnBcvYx3WWJebZcXM-os698Xibqc4k-B7LfRCBcOR1K_v7izRYMBDMaETtSRx5dZAP04QJ9EHC8j0gHFOPSn4JPAzDCahvUPOk_OvqnXQAC7HgjRBiOOCx-qBU2CY9XtKnrQYgN8K4LqUmjTie1BjnqMkhgIN_-_gW4l4g-Kf8oDZihWeMYWWR0cXfztkxUl6h3mH4zjeT7FESGkiPDWEZ1z69t_FgJRto_gXEPqMiINPPJYG2C1DnysVpcXdyUWPS2IwbXIbGjmUz4HpX2xndpsPI1LNpU-3HUdVFo2znb623Dg7Z8flx3w5zCwuli-mL1JTADvTrJmgvsh6M9i3pRgtsVgjzgFr-Om50fD1BHVzBrTxjZeJfx1Beu9UY", "results": [{"business_status": "OPERATIONAL", "geometry": {"location": {"lat": 23.6654924, "lng": 86.1469456}, "viewport": {"northeast": {"lat": 23.6669238302915, "lng": 86.14828763029149}, "southwest": {"lat": 23.6642258697085, "lng": 86.14558966970849}}}, "icon": "https://maps.gstatic.com/mapfiles/place_api/icons/v1/png_71/hospital-71.png", "icon_background_color": "#F88181", "icon_mask_base_uri": "https://maps.gstatic.com/mapfiles/place_api/icons/v2/hospital-H_pinlet", "name": "Shiv Shakti Hospital", "opening_hours": {"open_now": true}, "photos": [{"height": 4160, "html_attributions": ["<a href=\"https://maps.google.com/maps/contrib/101275444285766795766\">ROHIT RAJWAR</a>"], "photo_reference": "Aap_uEDL9jd7ZZgqWBIL8NQW1Db4AxmssZDl0yjwNTD4DOxV9z8Flf-YvVlsyWycB82dQU3HwKv8q2CEIkTgQau1iBN55Fz87jErWB_EMFEdhdq0LAjrqK_5-_v-jlCb-M3WcRitRg2IuwotrzfVR7xZol0Gid3uzMlWB-_qFMxXmNNzq5_V", "width": 3120}], "place_id": "ChIJ0z1m_LIj9DkRAvlFVT1DB_s", "plus_code": {"compound_code": "M48W+5Q Bokaro Steel City, Jharkhand, India", "global_code": "7MM8M48W+5Q"}, "rating": 4.4, "reference": "ChIJ0z1m_LIj9DkRAvlFVT1DB_s", "scope": "GOOGLE", "types": ["hospital", "health", "point_of_interest", "establishment"], "user_ratings_total": 5, "vicinity": "GG / 13, City Centre, Sector 4, Bokaro Steel City"}, {"business_status": "OPERATIONAL", "geometry": {"location": {"lat": 23.6715847, "lng": 86.14877489999999}, "viewport": {"northeast": {"lat": 23.6729534802915, "lng": 86.1501245302915}, "southwest": {"lat": 23.67025551970849, "lng": 86.1474265697085}}}, "icon": "https://maps.gstatic.com/mapfiles/place_api/icons/v1/png_71/hospital-71.png", "icon_background_color": "#F88181", "icon_mask_base_uri": "https://maps.gstatic.com/mapfiles/place_api/icons/v2/hospital-H_pinlet", "name": "Shivam Hospital", "opening_hours": {"open_now": true}, "photos": [{"height": 1080, "html_attributions": ["<a href=\"https://maps.google.com/maps/contrib/102751863308733822746\">Sandeep Singh</a>"], "photo_reference": "Aap_uEDBERhMgzSX-44Enl1gV6KRHRCWYqJMdWqh1OoknDut3S_-F-l5cTlWXEzS9f_JyqapT93Z1Yn8cZQrQKSKYS8Af2GM-bnLBxfY5fmAh0RAguI2nN_-fMA7bKHkJcNdpNMY7YAUULO5bAwGZJ8aQP4ffwkV4dU5gxtVM1GuykGGR8An", "width": 1920}], "place_id": "ChIJWVJ4Zkwi9DkRd_M88dhwm4U", "plus_code": {"compound_code": "M4CX+JG Bokaro Steel City, Jharkhand, India", "global_code": "7MM8M4CX+JG"}, "rating": 4.2, "reference": "ChIJWVJ4Zkwi9DkRd_M88dhwm4U", "scope": "GOOGLE", "types": ["hospital", "health", "point_of_interest", "establishment"], "user_ratings_total": 52, "vicinity": "Sector 4 Laxmi Market, Bokaro Steel City"}, {"business_status": "OPERATIONAL", "geometry": {"location": {"lat": 23.6718857, "lng": 86.14840819999999}, "viewport": {"northeast": {"lat": 23.6732421802915, "lng": 86.14965778029152}, "southwest": {"lat": 23.6705442197085, "lng": 86.1469598197085}}}, "icon": "https://maps.gstatic.com/mapfiles/place_api/icons/v1/png_71/hospital-71.png", "icon_background_color": "#F88181", "icon_mask_base_uri": "https://maps.gstatic.com/mapfiles/place_api/icons/v2/hospital-H_pinlet", "name": "Poul Healthways", "opening_hours": {"open_now": true}, "photos": [{"height": 4160, "html_attributions": ["<a href=\"https://maps.google.com/maps/contrib/117559374763337664427\">Raj bhushan Mehta</a>"], "photo_reference": "Aap_uEBmO8IbiOwQvEyf3D2U1-bfD8PP-3Fsb8oVdgXysYBJRYXT4PfHwBGjKc6JggpA52fEJxgYJjbnfNyEmv-9oDqwIrswIYZPkzclyX77FS6CZ53aP8xtQ7f_BbRLFxPVYJk9DmdYylhFjkDbUrf_XqvDYT5mEOUzjE-gqiOFnDH-mpMo", "width": 3120}], "place_id": "ChIJW6yOQkwi9DkRzmo7ed0gn74", "rating": 3, "reference": "ChIJW6yOQkwi9DkRzmo7ed0gn74", "scope": "GOOGLE", "types": ["hospital", "health", "point_of_interest", "establishment"], "user_ratings_total": 1, "vicinity": "M4CX+Q93, Sector 4, Bokaro Steel City"}, {"business_status": "OPERATIONAL", "geometry": {"location": {"lat": 23.669, "lng": 86.14999999999999}, "viewport": {"northeast": {"lat": 23.6704415802915, "lng": 86.15138543029151}, "southwest": {"lat": 23.6677436197085, "lng": 86.14868746970849}}}, "icon": "https://maps.gstatic.com/mapfiles/place_api/icons/v1/png_71/hospital-71.png", "icon_background_color": "#F88181", "icon_mask_base_uri": "https://maps.gstatic.com/mapfiles/place_api/icons/v2/hospital-H_pinlet", "name": "Upal Hospital And Trauma Centre", "place_id": "ChIJcbF2WUsi9DkRLv6f-X8wBws", "reference": "ChIJcbF2WUsi9DkRLv6f-X8wBws", "scope": "GOOGLE", "types": ["hospital", "health", "point_of_interest", "establishment"], "vicinity": "M49X+HXX"}, {"business_status": "OPERATIONAL", "geometry": {"location": {"lat": 23.669, "lng": 86.14999999999999}, "viewport": {"northeast": {"lat": 23.6704415802915, "lng": 86.15138543029151}, "southwest": {"lat": 23.6677436197085, "lng": 86.14868746970849}}}, "icon": "https://maps.gstatic.com/mapfiles/place_api/icons/v1/png_71/hospital-71.png", "icon_background_color": "#F88181", "icon_mask_base_uri": "https://maps.gstatic.com/mapfiles/place_api/icons/v2/hospital-H_pinlet", "name": "Sanjeevani Health Care Centre", "place_id": "ChIJcbF2WUsi9DkRppM6j_MKxZ4", "reference": "ChIJcbF2WUsi9DkRppM6j_MKxZ4", "scope": "GOOGLE", "types": ["hospital", "health", "point_of_interest", "establishment"], "vicinity": "M49X+HXX"}, {"business_status": "OPERATIONAL", "geometry": {"location": {"lat": 23.66542470000001, "lng": 86.1470746}, "viewport": {"northeast": {"lat": 23.6666615302915, "lng": 86.1484376302915}, "southwest": {"lat": 23.6639635697085, "lng": 86.14573966970849}}}, "icon": "https://maps.gstatic.com/mapfiles/place_api/icons/v1/png_71/hospital-71.png", "icon_background_color": "#F88181", "icon_mask_base_uri": "https://maps.gstatic.com/mapfiles/place_api/icons/v2/hospital-H_pinlet", "name": "Sai Hospital", "opening_hours": {"open_now": true}, "photos": [{"height": 1920, "html_attributions": ["<a href=\"https://maps.google.com/maps/contrib/111778136705737555764\">Ravi Kumar</a>"], "photo_reference": "Aap_uECyu_S7Ea5dUwKJrELAt76bLF_EarJeRg8MAQaYri945Gdqky1JEdvkg0vQ5tg2k-weQGTtBVK-eRpEtsdEHcB_cPruoFeUQPSzFIuHQmXTAwpyw5vPBcp0YezzJcJHF0jHh89sP9GavtSG_rKeHVHfqvnFgd80XPL9O4MO1OyjwUZS", "width": 1080}], "place_id": "ChIJoUSK_rIj9DkRDGxs6-FSxRM", "plus_code": {"compound_code": "M48W+5R Bokaro Steel City, Jharkhand, India", "global_code": "7MM8M48W+5R"}, "rating": 3.8, "reference": "ChIJoUSK_rIj9DkRDGxs6-FSxRM", "scope": "GOOGLE", "types": ["hospital", "health", "point_of_interest", "establishment"], "user_ratings_total": 14, "vicinity": "Sector 4, Bokaro Steel City"}, {"business_status": "OPERATIONAL", "geometry": {"location": {"lat": 23.6666539, "lng": 86.1493124}, "viewport": {"northeast": {"lat": 23.6680227302915, "lng": 86.1506696302915}, "southwest": {"lat": 23.6653247697085, "lng": 86.14797166970848}}}, "icon": "https://maps.gstatic.com/mapfiles/place_api/icons/v1/png_71/hospital-71.png", "icon_background_color": "#F88181", "icon_mask_base_uri": "https://maps.gstatic.com/mapfiles/place_api/icons/v2/hospital-H_pinlet", "name": "Siddhi Maternity - Hospital in Bokaro", "opening_hours": {"open_now": true}, "photos": [{"height": 4000, "html_attributions": ["<a href=\"https://maps.google.com/maps/contrib/106763853021648083042\">vijay kumar</a>"], "photo_reference": "Aap_uEAL4FRPTebYeuOxYMxpCsrIV6XLFSAuyFPatVP7FHBlQsKGfAa_IRvLkXWs4gFSC7lN8Kf7C3Q_eBjtDkbpcpdXy39y7zR01UglZrf2iJxg9-BJPd6GGrutNKs1q-DcNxmHQGlewdO-MGISg0iZq18FZNK0F1sFdgbbrwpiogaIRkKV", "width": 3000}], "place_id": "ChIJY6y9XbMj9DkRSzF3W1GLlT8", "plus_code": {"compound_code": "M48X+MP Bokaro Steel City, Jharkhand, India", "global_code": "7MM8M48X+MP"}, "rating": 3.2, "reference": "ChIJY6y9XbMj9DkRSzF3W1GLlT8", "scope": "GOOGLE", "types": ["hospital", "health", "point_of_interest", "establishment"], "user_ratings_total": 14, "vicinity": "Plot No JB -18, City Centre, Sector 4, Bokaro Steel City"}, {"business_status": "OPERATIONAL", "geometry": {"location": {"lat": 23.6667106, "lng": 86.14937139999999}, "viewport": {"northeast": {"lat": 23.6680210302915, "lng": 86.1507043302915}, "southwest": {"lat": 23.6653230697085, "lng": 86.1480063697085}}}, "icon": "https://maps.gstatic.com/mapfiles/place_api/icons/v1/png_71/hospital-71.png", "icon_background_color": "#F88181", "icon_mask_base_uri": "https://maps.gstatic.com/mapfiles/place_api/icons/v2/hospital-H_pinlet", "name": "Multi Diagnostic Centre - Best diagnostic Centre in Bokaro", "opening_hours": {"open_now": true}, "photos": [{"height": 3120, "html_attributions": ["<a href=\"https://maps.google.com/maps/contrib/102754349830070885508\">Avinash Ray</a>"], "photo_reference": "Aap_uECaZCfMl5BMZHJ14JAg9L6PYDDDa1vi0QltnFwok8H7EtmIMB8JgW44fufLMpKCLZa-h8O6e5CmZeqloCXEI7mtRnxwGyZf8gZGuFsGCU8vPEXuO2xUVdIWxVe1cUlSPOUj1FTHd2H308SoWqU8Zhnm29JcHZ0qxFc4tQzpE3DIZ-1s", "width": 4160}], "place_id": "ChIJL_XOXbMj9DkROzgLFgyWWv4", "plus_code": {"compound_code": "M48X+MP Bokaro Steel City, Jharkhand, India", "global_code": "7MM8M48X+MP"}, "rating": 3.5, "reference": "ChIJL_XOXbMj9DkROzgLFgyWWv4", "scope": "GOOGLE", "types": ["hospital", "health", "point_of_interest", "establishment"], "user_ratings_total": 23, "vicinity": "Plot No. JB/5, City Centre, Bokaro Steel City"}, {"business_status": "OPERATIONAL", "geometry": {"location": {"lat": 23.66725, "lng": 86.1420966}, "viewport": {"northeast": {"lat": 23.6686234302915, "lng": 86.14338413029151}, "southwest": {"lat": 23.6659254697085, "lng": 86.1406861697085}}}, "icon": "https://maps.gstatic.com/mapfiles/place_api/icons/v1/png_71/hospital-71.png", "icon_background_color": "#F88181", "icon_mask_base_uri": "https://maps.gstatic.com/mapfiles/place_api/icons/v2/hospital-H_pinlet", "name": "Samar Dental Clinic", "opening_hours": {"open_now": true}, "place_id": "ChIJR1zX16wj9DkRM5Y3YuWTPqA", "reference": "ChIJR1zX16wj9DkRM5Y3YuWTPqA", "scope": "GOOGLE", "types": ["hospital", "health", "point_of_interest", "establishment"], "vicinity": "M48R+VRX, Sector 4, Bokaro Steel City"}, {"business_status": "OPERATIONAL", "geometry": {"location": {"lat": 23.666823, "lng": 86.1498556}, "viewport": {"northeast": {"lat": 23.6681894802915, "lng": 86.15114273029151}, "southwest": {"lat": 23.6654915197085, "lng": 86.14844476970849}}}, "icon": "https://maps.gstatic.com/mapfiles/place_api/icons/v1/png_71/hospital-71.png", "icon_background_color": "#F88181", "icon_mask_base_uri": "https://maps.gstatic.com/mapfiles/place_api/icons/v2/hospital-H_pinlet", "name": "Dr. Alka", "opening_hours": {"open_now": false}, "place_id": "ChIJs5nooLQj9DkRWiTZjq5MDqE", "rating": 3, "reference": "ChIJs5nooLQj9DkRWiTZjq5MDqE", "scope": "GOOGLE", "types": ["hospital", "health", "point_of_interest", "establishment"], "user_ratings_total": 1, "vicinity": "M48X+PWH, Sector 4, Bokaro Steel City"}, {"business_status": "OPERATIONAL", "geometry": {"location": {"lat": 23.6692955, "lng": 86.15111200000001}, "viewport": {"northeast": {"lat": 23.6706225302915, "lng": 86.15251103029152}, "southwest": {"lat": 23.6679245697085, "lng": 86.1498130697085}}}, "icon": "https://maps.gstatic.com/mapfiles/place_api/icons/v1/png_71/hospital-71.png", "icon_background_color": "#F88181", "icon_mask_base_uri": "https://maps.gstatic.com/mapfiles/place_api/icons/v2/hospital-H_pinlet", "name": "Ayush Hospital, Bokaro", "opening_hours": {"open_now": true}, "place_id": "ChIJCwvwPbgj9DkRPc1qwjNqW74", "plus_code": {"compound_code": "M592+PC Bokaro Steel City, Jharkhand, India", "global_code": "7MM8M592+PC"}, "reference": "ChIJCwvwPbgj9DkRPc1qwjNqW74", "scope": "GOOGLE", "types": ["hospital", "health", "point_of_interest", "establishment"], "vicinity": "camp 2, D C office, Bokaro Steel City"}, {"business_status": "OPERATIONAL", "geometry": {"location": {"lat": 23.6692955, "lng": 86.15111200000001}, "viewport": {"northeast": {"lat": 23.6706225302915, "lng": 86.15251103029152}, "southwest": {"lat": 23.6679245697085, "lng": 86.1498130697085}}}, "icon": "https://maps.gstatic.com/mapfiles/place_api/icons/v1/png_71/hospital-71.png", "icon_background_color": "#F88181", "icon_mask_base_uri": "https://maps.gstatic.com/mapfiles/place_api/icons/v2/hospital-H_pinlet", "name": "Luprodex Inj. Lonopin Ing", "photos": [{"height": 399, "html_attributions": ["<a href=\"https://maps.google.com/maps/contrib/108688497260724953285\">tarun kumar</a>"], "photo_reference": "Aap_uEDxduCvga7YxYfltrd_7BphKwIE9N9y7xTkAgA0KYfyu7M-g5WwpkLIBOK32Nw_IVfDnWdE3Mkp18QqC5LdutukPxI27_0ymaAliPeMEyhTwcbp472WMStdUEafT6_mpVJtASxtzv_cbDd7PRtYxZ8bO6oXaCHBAA7sGVHIxWszHxge", "width": 720}], "place_id": "ChIJr3CrH3Mj9DkRz-ocPJZaPZA", "plus_code": {"compound_code": "M592+PC Bokaro Steel City, Jharkhand, India", "global_code": "7MM8M592+PC"}, "reference": "ChIJr3CrH3Mj9DkRz-ocPJZaPZA", "scope": "GOOGLE", "types": ["hospital", "health", "point_of_interest", "establishment"], "vicinity": "CO.Operative, Bokaro Steel City"}, {"business_status": "OPERATIONAL", "geometry": {"location": {"lat": 23.6662608, "lng": 86.1502804}, "viewport": {"northeast": {"lat": 23.6676152802915, "lng": 86.15161363029151}, "southwest": {"lat": 23.6649173197085, "lng": 86.14891566970849}}}, "icon": "https://maps.gstatic.com/mapfiles/place_api/icons/v1/png_71/hospital-71.png", "icon_background_color": "#F88181", "icon_mask_base_uri": "https://maps.gstatic.com/mapfiles/place_api/icons/v2/hospital-H_pinlet", "name": "Sri ram hospital and research centre", "photos": [{"height": 1800, "html_attributions": ["<a href=\"https://maps.google.com/maps/contrib/110937198047166498142\">\u09aa\u09c1\u09b0\u09c1\u09b2\u09bf\u09af\u09bc\u09be\u09b0 \u09ac\u09be\u09b8\u09bf\u09a8\u09cd\u09a6\u09be</a>"], "photo_reference": "Aap_uEAH0FeCTVDpAi7xFQU8dgKNv6_hQHTnRTCZDat1VHS0LPrXxWJ-LGJUcs084oyPEOpNstry8dX-_S2IRsIsG92BUEgl7HyM5VT-VK73DTnblquR67_5hdFZNS8LLi7Kz-8vtdAMo5IleoYLK5erd1ucgjYfJj1Zb7d4IhjgvFboNyit", "width": 4000}], "place_id": "ChIJ6Yhj1V8j9DkRgmhCoelbaVQ", "plus_code": {"compound_code": "M582+G4 Bokaro Steel City, Jharkhand, India", "global_code": "7MM8M582+G4"}, "rating": 3.4, "reference": "ChIJ6Yhj1V8j9DkRgmhCoelbaVQ", "scope": "GOOGLE", "types": ["hospital", "health", "point_of_interest", "establishment"], "user_ratings_total": 5, "vicinity": "JB-13, City Centre, Sector-4, Sector 4, Bokaro Steel City"}, {"business_status": "OPERATIONAL", "geometry": {"location": {"lat": 23.666273, "lng": 86.1506589}, "viewport": {"northeast": {"lat": 23.6676119302915, "lng": 86.1520387802915}, "southwest": {"lat": 23.66491396970849, "lng": 86.14934081970848}}}, "icon": "https://maps.gstatic.com/mapfiles/place_api/icons/v1/png_71/hospital-71.png", "icon_background_color": "#F88181", "icon_mask_base_uri": "https://maps.gstatic.com/mapfiles/place_api/icons/v2/hospital-H_pinlet", "name": "Transworld", "opening_hours": {"open_now": true}, "place_id": "ChIJY-uklrQj9DkRLvD-blVhLrw", "plus_code": {"compound_code": "M582+G7 Bokaro Steel City, Jharkhand, India", "global_code": "7MM8M582+G7"}, "reference": "ChIJY-uklrQj9DkRLvD-blVhLrw", "scope": "GOOGLE", "types": ["hospital", "health", "point_of_interest", "establishment"], "vicinity": "JB/28, City Centre, Sector - 4, Bokaro Steel City"}, {"business_status": "OPERATIONAL", "geometry": {"location": {"lat": 23.6742256, "lng": 86.1451944}, "viewport": {"northeast": {"lat": 23.6755338802915, "lng": 86.1466550802915}, "southwest": {"lat": 23.6728359197085, "lng": 86.14395711970847}}}, "icon": "https://maps.gstatic.com/mapfiles/place_api/icons/v1/png_71/hospital-71.png", "icon_background_color": "#F88181", "icon_mask_base_uri": "https://maps.gstatic.com/mapfiles/place_api/icons/v2/hospital-H_pinlet", "name": "Old OPD", "place_id": "ChIJN4-3BuIj9DkRadWgbuxjV-4", "plus_code": {"compound_code": "M4FW+M3 Bokaro Steel City, Jharkhand, India", "global_code": "7MM8M4FW+M3"}, "reference": "ChIJN4-3BuIj9DkRadWgbuxjV-4", "scope": "GOOGLE", "types": ["hospital", "health", "point_of_interest", "establishment"], "vicinity": "Bokaro General Hospital, SAIL / BSL, Sector 4, Bokaro Steel City"}, {"business_status": "OPERATIONAL", "geometry": {"location": {"lat": 23.6654947, "lng": 86.15038}, "viewport": {"northeast": {"lat": 23.66682778029151, "lng": 86.1517734302915}, "southwest": {"lat": 23.6641298197085, "lng": 86.14907546970849}}}, "icon": "https://maps.gstatic.com/mapfiles/place_api/icons/v1/png_71/hospital-71.png", "icon_background_color": "#F88181", "icon_mask_base_uri": "https://maps.gstatic.com/mapfiles/place_api/icons/v2/hospital-H_pinlet", "name": "Health unit", "opening_hours": {"open_now": false}, "photos": [{"height": 3120, "html_attributions": ["<a href=\"https://maps.google.com/maps/contrib/117663360423269472604\">raj kumar</a>"], "photo_reference": "Aap_uECfi7PLCts3h4GP8_LpEC_UscRTvxsn16j2CdzKwQb1gd-ROZSM0clSJHAGwLILeSpm-FykFPMjA1IPG550CLA1qZQzbE9NFq-DB3oiN8qRHzM9eUIgxlSg2-5uq3quAJSke9jN2limH9jdV3FipdVjPnmct3NvnaY_uoi2LsVaSNc", "width": 4160}], "place_id": "ChIJ836qdysj9DkRxlhKiQ6hK-M", "plus_code": {"compound_code": "M582+55 Bokaro Steel City, Jharkhand, India", "global_code": "7MM8M582+55"}, "reference": "ChIJ836qdysj9DkRxlhKiQ6hK-M", "scope": "GOOGLE", "types": ["hospital", "health", "point_of_interest", "establishment"], "vicinity": "Railway colony Road, Hazaribagh road, Suriya"}, {"business_status": "OPERATIONAL", "geometry": {"location": {"lat": 23.6743788, "lng": 86.1448818}, "viewport": {"northeast": {"lat": 23.6756786802915, "lng": 86.1461836802915}, "southwest": {"lat": 23.67298071970849, "lng": 86.1434857197085}}}, "icon": "https://maps.gstatic.com/mapfiles/place_api/icons/v1/png_71/hospital-71.png", "icon_background_color": "#F88181", "icon_mask_base_uri": "https://maps.gstatic.com/mapfiles/place_api/icons/v2/hospital-H_pinlet", "name": "OPD - BGH", "photos": [{"height": 4160, "html_attributions": ["<a href=\"https://maps.google.com/maps/contrib/116871129396821420230\">Jitu Saw</a>"], "photo_reference": "Aap_uEBaHRjPkWSCHQxBQLgNmmDCFa6WImtnVHJRzRxy5Gl8u9EUz9_8iRMgDGF7e9EugMTkJi-no6x4HYuHzqNo6LhI3U7t76QCfeSuxd-CWORITmLfOOVKyPM6yEx36qNGVHjJZNg26UBWuxBfWF01SAbwNxObE4GYQCUsZ-eHSgTmMCT3", "width": 3120}], "place_id": "ChIJe8aiA04i9DkRbicQVDo9VCo", "plus_code": {"compound_code": "M4FV+QX Bokaro Steel City, Jharkhand, India", "global_code": "7MM8M4FV+QX"}, "reference": "ChIJe8aiA04i9DkRbicQVDo9VCo", "scope": "GOOGLE", "types": ["hospital", "health", "point_of_interest", "establishment"], "vicinity": "General Hospital, Steel, Bokaro Steel City"}, {"business_status": "OPERATIONAL", "geometry": {"location": {"lat": 23.674514, "lng": 86.1445913}, "viewport": {"northeast": {"lat": 23.6758677802915, "lng": 86.14588528029151}, "southwest": {"lat": 23.67316981970849, "lng": 86.1431873197085}}}, "icon": "https://maps.gstatic.com/mapfiles/place_api/icons/v1/png_71/hospital-71.png", "icon_background_color": "#F88181", "icon_mask_base_uri": "https://maps.gstatic.com/mapfiles/place_api/icons/v2/hospital-H_pinlet", "name": "SURABHI,MAHILA SAMITI", "place_id": "ChIJRW9A_VEi9DkRGHPmulwbHVc", "plus_code": {"compound_code": "M4FV+RR Bokaro Steel City, Jharkhand, India", "global_code": "7MM8M4FV+RR"}, "reference": "ChIJRW9A_VEi9DkRGHPmulwbHVc", "scope": "GOOGLE", "types": ["hospital", "health", "point_of_interest", "establishment"], "vicinity": "Gumla Colony, Bokaro Steel City"}, {"business_status": "OPERATIONAL", "geometry": {"location": {"lat": 23.66582009999999, "lng": 86.15129929999999}, "viewport": {"northeast": {"lat": 23.6671629302915, "lng": 86.1526652302915}, "southwest": {"lat": 23.6644649697085, "lng": 86.1499672697085}}}, "icon": "https://maps.gstatic.com/mapfiles/place_api/icons/v1/png_71/hospital-71.png", "icon_background_color": "#F88181", "icon_mask_base_uri": "https://maps.gstatic.com/mapfiles/place_api/icons/v2/hospital-H_pinlet", "name": "Sachha Darbar", "place_id": "ChIJJytUsgEj9DkRV_qJn9hLcl4", "plus_code": {"compound_code": "M582+8G Bokaro Steel City, Jharkhand, India", "global_code": "7MM8M582+8G"}, "reference": "ChIJJytUsgEj9DkRV_qJn9hLcl4", "scope": "GOOGLE", "types": ["hospital", "health", "point_of_interest", "establishment"], "vicinity": "city centre, near siddhi maternity, Bokaro Steel City"}, {"business_status": "OPERATIONAL", "geometry": {"location": {"lat": 23.674583, "lng": 86.14807800000001}, "viewport": {"northeast": {"lat": 23.6759031802915, "lng": 86.14945228029151}, "southwest": {"lat": 23.6732052197085, "lng": 86.1467543197085}}}, "icon": "https://maps.gstatic.com/mapfiles/place_api/icons/v1/png_71/hospital-71.png", "icon_background_color": "#F88181", "icon_mask_base_uri": "https://maps.gstatic.com/mapfiles/place_api/icons/v2/hospital-H_pinlet", "name": "Ambulance stand", "place_id": "ChIJZQLFHJQj9DkRozKfMcFYCJo", "plus_code": {"compound_code": "M4FX+R6 Bokaro Steel City, Jharkhand, India", "global_code": "7MM8M4FX+R6"}, "reference": "ChIJZQLFHJQj9DkRozKfMcFYCJo", "scope": "GOOGLE", "types": ["hospital", "health", "point_of_interest", "establishment"], "vicinity": "Sector 4, Bokaro Steel City"}], "status": "OK"}