{"html_attributions": [], "results": [{"business_status": "OPERATIONAL", "geometry": {"location": {"lat": 23.6663811, "lng": 86.1517954}, "viewport": {"northeast": {"lat": 23.6677773802915, "lng": 86.1530244802915}, "southwest": {"lat": 23.6650794197085, "lng": 86.15032651970849}}}, "icon": "https://maps.gstatic.com/mapfiles/place_api/icons/v1/png_71/hospital-71.png", "icon_background_color": "#F88181", "icon_mask_base_uri": "https://maps.gstatic.com/mapfiles/place_api/icons/v2/hospital-H_pinlet", "name": "Maa Vaishnavi Hospital", "opening_hours": {"open_now": true}, "place_id": "ChIJFXZX5rQj9DkRLt7-KGfVCcA", "plus_code": {"compound_code": "M582+HP Bokaro Steel City, Jharkhand, India", "global_code": "7MM8M582+HP"}, "rating": 4, "reference": "ChIJFXZX5rQj9DkRLt7-KGfVCcA", "scope": "GOOGLE", "types": ["hospital", "health", "point_of_interest", "establishment"], "user_ratings_total": 1, "vicinity": "near Maruti Showroom, KD-8, City Centre, Sector 4, near Maruti Showroom, Bokaro Steel City"}, {"business_status": "OPERATIONAL", "geometry": {"location": {"lat": 23.663064, "lng": 86.145749}, "viewport": {"northeast": {"lat": 23.6644028802915, "lng": 86.14709718029151}, "southwest": {"lat": 23.6617049197085, "lng": 86.14439921970849}}}, "icon": "https://maps.gstatic.com/mapfiles/place_api/icons/v1/png_71/hospital-71.png", "icon_background_color": "#F88181", "icon_mask_base_uri": "https://maps.gstatic.com/mapfiles/place_api/icons/v2/hospital-H_pinlet", "name": "Mydentist Bokaro, 3/B,Bokaro", "opening_hours": {"open_now": true}, "photos": [{"height": 4000, "html_attributions": ["<a href=\"https://maps.google.com/maps/contrib/105241059652428041945\">Mydentist Bokaro, 3/B,Bokaro</a>"], "photo_reference": "Aap_uEDP6KGasvKszfYCGuv6T1CPJLm4K0_q7TKxkY2OmbZ8Mn1J4brAJnBlQHvgixv9QB7GOw5jdt1lpzSH2pguL72EX7MvsWVwwmuDmMWpAQU9wgjYqkOIaJyXdRWm3_x7Xys6bgGYH85N0B8RsexuFSTZ_z8xobeint9sS5Cm9oVbILyB", "width": 3000}], "place_id": "ChIJeclykfYj9DkR8GWVhroMOZ4", "plus_code": {"compound_code": "M47W+67 Bokaro Steel City, Jharkhand, India", "global_code": "7MM8M47W+67"}, "reference": "ChIJeclykfYj9DkR8GWVhroMOZ4", "scope": "GOOGLE", "types": ["hospital", "health", "point_of_interest", "establishment"], "vicinity": "Mydentist Road, Sector 3B, Sector 3, Bokaro Steel City"}, {"business_status": "OPERATIONAL", "geometry": {"location": {"lat": 23.673985, "lng": 86.1497383}, "viewport": {"northeast": {"lat": 23.6753951302915, "lng": 86.1510277302915}, "southwest": {"lat": 23.6726971697085, "lng": 86.14832976970848}}}, "icon": "https://maps.gstatic.com/mapfiles/place_api/icons/v1/png_71/hospital-71.png", "icon_background_color": "#F88181", "icon_mask_base_uri": "https://maps.gstatic.com/mapfiles/place_api/icons/v2/hospital-H_pinlet", "name": "Ashvins, Centre for Gastroenterology, Liver Diseases and Endoscopy, Muskan Superspeciality Centre", "place_id": "ChIJpz-wkqIj9DkRHKE6zB2aKTw", "plus_code": {"compound_code": "M4FX+HV Bokaro Steel City, Jharkhand, India", "global_code": "7MM8M4FX+HV"}, "rating": 3, "reference": "ChIJpz-wkqIj9DkRHKE6zB2aKTw", "scope": "GOOGLE", "types": ["hospital", "health", "point_of_interest", "establishment"], "user_ratings_total": 2, "vicinity": "near M Bazar, City Centre, Plot no S-3, near M Bazar, City Centre, Sector 4, Bokaro Steel City"}, {"business_status": "OPERATIONAL", "geometry": {"location": {"lat": 23.6746772, "lng": 86.1436097}, "viewport": {"northeast": {"lat": 23.6760266302915, "lng": 86.1450865802915}, "southwest": {"lat": 23.6733286697085, "lng": 86.1423886197085}}}, "icon": "https://maps.gstatic.com/mapfiles/place_api/icons/v1/png_71/hospital-71.png", "icon_background_color": "#F88181", "icon_mask_base_uri": "https://maps.gstatic.com/mapfiles/place_api/icons/v2/hospital-H_pinlet", "name": "Sanni Mandir Bridh asharam", "photos": [{"height": 1055, "html_attributions": ["<a href=\"https://maps.google.com/maps/contrib/107323404656022706855\">Jitendra singh</a>"], "photo_reference": "Aap_uEAI3YGKTX2T1UspQTpSGI-UJTROoZCogzCduToL9_j01byH_5IsQ6mahd2PlHTyDSfyzchoSzwqiVRbeHYOQ54nOx-hBjjJ3feoNBjT76DB1bdutk03vUOhtQB13yD-FLGuNDQv2L55-mZoW5lRBb0Z_B43voVx-4lKvv4YCjQDEsgQ", "width": 1029}], "place_id": "ChIJSQp-jMoj9DkRpGQQAEb9vYg", "reference": "ChIJSQp-jMoj9DkRpGQQAEb9vYg", "scope": "GOOGLE", "types": ["hospital", "health", "point_of_interest", "establishment"], "vicinity": "M4FV+VCH, Marafari, Bokaro Steel City"}, {"business_status": "OPERATIONAL", "geometry": {"location": {"lat": 23.6666173, "lng": 86.1521308}, "viewport": {"northeast": {"lat": 23.6679955802915, "lng": 86.1534927302915}, "southwest": {"lat": 23.6652976197085, "lng": 86.15079476970848}}}, "icon": "https://maps.gstatic.com/mapfiles/place_api/icons/v1/png_71/hospital-71.png", "icon_background_color": "#F88181", "icon_mask_base_uri": "https://maps.gstatic.com/mapfiles/place_api/icons/v2/hospital-H_pinlet", "name": "Sarvoday Hospital", "place_id": "ChIJGYh_4LQj9DkRsnF2Fs7OGGU", "plus_code": {"compound_code": "M582+JV Bokaro Steel City, Jharkhand, India", "global_code": "7MM8M582+JV"}, "reference": "ChIJGYh_4LQj9DkRsnF2Fs7OGGU", "scope": "GOOGLE", "types": ["hospital", "health", "point_of_interest", "establishment"], "vicinity": "Sector 4, Kd/13, City Centre, Bokaro Steel City"}, {"business_status": "OPERATIONAL", "geometry": {"location": {"lat": 23.6663139, "lng": 86.1520133}, "viewport": {"northeast": {"lat": 23.6676525802915, "lng": 86.15338923029151}, "southwest": {"lat": 23.6649546197085, "lng": 86.1506912697085}}}, "icon": "https://maps.gstatic.com/mapfiles/place_api/icons/v1/png_71/hospital-71.png", "icon_background_color": "#F88181", "icon_mask_base_uri": "https://maps.gstatic.com/mapfiles/place_api/icons/v2/hospital-H_pinlet", "name": "BHARAT HOSPITAL & RESEARCH CENTRE", "opening_hours": {"open_now": true}, "photos": [{"height": 2340, "html_attributions": ["<a href=\"https://maps.google.com/maps/contrib/111378496459455613471\">BHARAT HOSPITAL</a>"], "photo_reference": "Aap_uEAivNocfnRAxTBXwqeDX670ToVkfBSFxI5EWsVyPRhkMKDStGBsTnpUSsfURrl6bCobfiwIpyZ6FHOT-F24FF8nEkGbVUnhVpLCF41-8CEYk1AnbBRJHqBSBq4OLBKi3cdKrZ-qHpEIHCdmWBupiihi0_vJGvoVJmSQFht_FhquNHxe", "width": 4160}], "place_id": "ChIJjxUE5LQj9DkRfEgY5uqPWRA", "plus_code": {"compound_code": "M582+GR Bokaro Steel City, Jharkhand, India", "global_code": "7MM8M582+GR"}, "rating": 4.3, "reference": "ChIJjxUE5LQj9DkRfEgY5uqPWRA", "scope": "GOOGLE", "types": ["hospital", "health", "point_of_interest", "establishment"], "user_ratings_total": 15, "vicinity": "KD-19 City Centre, Bokaro Steel City"}, {"business_status": "OPERATIONAL", "geometry": {"location": {"lat": 23.66470289999999, "lng": 86.1508152}, "viewport": {"northeast": {"lat": 23.6660523802915, "lng": 86.15216438029151}, "southwest": {"lat": 23.6633544197085, "lng": 86.1494664197085}}}, "icon": "https://maps.gstatic.com/mapfiles/place_api/icons/v1/png_71/hospital-71.png", "icon_background_color": "#F88181", "icon_mask_base_uri": "https://maps.gstatic.com/mapfiles/place_api/icons/v2/hospital-H_pinlet", "name": "AADITYA SEVA SADAN HOSPITAL", "opening_hours": {"open_now": true}, "photos": [{"height": 4160, "html_attributions": ["<a href=\"https://maps.google.com/maps/contrib/112827483168424866519\">Bal krishna thakur</a>"], "photo_reference": "Aap_uEC1ClXbqTqaDnIYgtxoSi_LW_sgRmuvMNNMfPz_rWNeWy0fVNJ8Yn5dhsdlSGjIkXG02a7J_v6Bz93I93XnH8z0KxK81J8zi0xSygiBFLU66F_qPd3EeHztUEjkRqRdTc4H_gEWSqci5pL0zBAWtxfDfZ2LAB-aYSuT49ILju98GILV", "width": 1968}], "place_id": "ChIJ4ybC5XQj9DkRyBGXOFxlrgg", "plus_code": {"compound_code": "M572+V8 Bokaro Steel City, Jharkhand, India", "global_code": "7MM8M572+V8"}, "rating": 5, "reference": "ChIJ4ybC5XQj9DkRyBGXOFxlrgg", "scope": "GOOGLE", "types": ["hospital", "health", "point_of_interest", "establishment"], "user_ratings_total": 8, "vicinity": "Mahatma Ghandhi Marg, Sector 4, Bokaro Steel City"}, {"business_status": "OPERATIONAL", "geometry": {"location": {"lat": 23.6663657, "lng": 86.1522679}, "viewport": {"northeast": {"lat": 23.6677409802915, "lng": 86.1535477302915}, "southwest": {"lat": 23.6650430197085, "lng": 86.15084976970849}}}, "icon": "https://maps.gstatic.com/mapfiles/place_api/icons/v1/png_71/generic_business-71.png", "icon_background_color": "#7B9EB0", "icon_mask_base_uri": "https://maps.gstatic.com/mapfiles/place_api/icons/v2/generic_pinlet", "name": "Mamta Nursing Home", "opening_hours": {"open_now": true}, "place_id": "ChIJUTXZ4bQj9DkRuiHkefIBX-E", "plus_code": {"compound_code": "M582+GW Bokaro Steel City, Jharkhand, India", "global_code": "7MM8M582+GW"}, "rating": 5, "reference": "ChIJUTXZ4bQj9DkRuiHkefIBX-E", "scope": "GOOGLE", "types": ["hospital", "health", "point_of_interest", "establishment"], "user_ratings_total": 4, "vicinity": "KE - 11, City Centre, Bokaro Steel City"}, {"business_status": "OPERATIONAL", "geometry": {"location": {"lat": 23.6659936, "lng": 86.15206769999999}, "viewport": {"northeast": {"lat": 23.66736558029151, "lng": 86.1533593802915}, "southwest": {"lat": 23.6646676197085, "lng": 86.1506614197085}}}, "icon": "https://maps.gstatic.com/mapfiles/place_api/icons/v1/png_71/hospital-71.png", "icon_background_color": "#F88181", "icon_mask_base_uri": "https://maps.gstatic.com/mapfiles/place_api/icons/v2/hospital-H_pinlet", "name": "Hope Hospital", "opening_hours": {"open_now": true}, "photos": [{"height": 2448, "html_attributions": ["<a href=\"https://maps.google.com/maps/contrib/118319574411242422298\">rajeev ranjan</a>"], "photo_reference": "Aap_uEAlK6WYum68OEZ7zi73nvc52Kyec3mQ8EXuoGRkZSqcPrNL42fzJfGcm5K_4yNIKPt53zITtvEhFessrKey_RZH6vg1zCgvCDlNFp38e8puVTIJc4V-29tOBvJ9-T7_VhEYH1rlQDxJgOFU_XOtJ1ozjWHlfE1tIA_pet7hkIjk-Evz", "width": 3264}], "place_id": "ChIJp0o04bQj9DkRjT6r4PQe4Kc", "plus_code": {"compound_code": "M582+9R Bokaro Steel City, Jharkhand, India", "global_code": "7MM8M582+9R"}, "rating": 4.2, "reference": "ChIJp0o04bQj9DkRjT6r4PQe4Kc", "scope": "GOOGLE", "types": ["hospital", "health", "point_of_interest", "establishment"], "user_ratings_total": 12, "vicinity": "KD-17, City Center, Sector 4, Bokaro Steel City"}, {"business_status": "OPERATIONAL", "geometry": {"location": {"lat": 23.6654651, "lng": 86.1521009}, "viewport": {"northeast": {"lat": 23.6667963802915, "lng": 86.15349643029151}, "southwest": {"lat": 23.6640984197085, "lng": 86.1507984697085}}}, "icon": "https://maps.gstatic.com/mapfiles/place_api/icons/v1/png_71/hospital-71.png", "icon_background_color": "#F88181", "icon_mask_base_uri": "https://maps.gstatic.com/mapfiles/place_api/icons/v2/hospital-H_pinlet", "name": "New Max Hospital", "opening_hours": {"open_now": true}, "place_id": "ChIJj8-F_rQj9DkR5MCA9lJO77I", "plus_code": {"compound_code": "M582+5R Bokaro Steel City, Jharkhand, India", "global_code": "7MM8M582+5R"}, "rating": 3.7, "reference": "ChIJj8-F_rQj9DkR5MCA9lJO77I", "scope": "GOOGLE", "types": ["hospital", "health", "point_of_interest", "establishment"], "user_ratings_total": 3, "vicinity": "KB-4, City Center, Sector 4, Bokaro Steel City"}, {"business_status": "OPERATIONAL", "geometry": {"location": {"lat": 23.6756392, "lng": 86.1484538}, "viewport": {"northeast": {"lat": 23.6770662302915, "lng": 86.1497360802915}, "southwest": {"lat": 23.67436826970849, "lng": 86.1470381197085}}}, "icon": "https://maps.gstatic.com/mapfiles/place_api/icons/v1/png_71/hospital-71.png", "icon_background_color": "#F88181", "icon_mask_base_uri": "https://maps.gstatic.com/mapfiles/place_api/icons/v2/hospital-H_pinlet", "name": "Arogya Sadan,BGH,Bokaro", "place_id": "ChIJZeV-6k4i9DkRrtbzbNIX2zI", "reference": "ChIJZeV-6k4i9DkRrtbzbNIX2zI", "scope": "GOOGLE", "types": ["hospital", "health", "point_of_interest", "establishment"], "vicinity": "M4GX+794, Gumla Colony, Bokaro Steel City"}, {"business_status": "OPERATIONAL", "geometry": {"location": {"lat": 23.66475849999999, "lng": 86.1521375}, "viewport": {"northeast": {"lat": 23.6661070302915, "lng": 86.1534863302915}, "southwest": {"lat": 23.6634090697085, "lng": 86.1507883697085}}}, "icon": "https://maps.gstatic.com/mapfiles/place_api/icons/v1/png_71/hospital-71.png", "icon_background_color": "#F88181", "icon_mask_base_uri": "https://maps.gstatic.com/mapfiles/place_api/icons/v2/hospital-H_pinlet", "name": "ESIC MEDICAL OFFICE, BOKARO BRACH", "opening_hours": {"open_now": true}, "photos": [{"height": 3120, "html_attributions": ["<a href=\"https://maps.google.com/maps/contrib/102777973708529239178\">Rahul Kumar Mahato</a>"], "photo_reference": "Aap_uEDiZZVGGFErRQaSI8pdEXBWzrIvRXGTUe8_osflGenhP6ZZ7NBQrtojeNsN4CsoMrxTtRpp5AJLJY-YZ87zDi2WnXQJkb9o8By9sk-zaivzY5RMNL9vLUTZVXeM628G8LpqgRptbMZHoruQCEhXqdPjo3UpciNuBWh3j5DSklWvBsKz", "width": 4160}], "place_id": "ChIJX-JkG8Ij9DkRqrvD7O-CHrw", "plus_code": {"compound_code": "M572+WV Bokaro Steel City, Jharkhand, India", "global_code": "7MM8M572+WV"}, "rating": 4.7, "reference": "ChIJX-JkG8Ij9DkRqrvD7O-CHrw", "scope": "GOOGLE", "types": ["hospital", "health", "point_of_interest", "establishment"], "user_ratings_total": 3, "vicinity": "Unnamed Road, Sector 4, Bokaro Steel City"}, {"business_status": "OPERATIONAL", "geometry": {"location": {"lat": 23.6648344, "lng": 86.1522169}, "viewport": {"northeast": {"lat": 23.6661231302915, "lng": 86.1535422302915}, "southwest": {"lat": 23.6634251697085, "lng": 86.1508442697085}}}, "icon": "https://maps.gstatic.com/mapfiles/place_api/icons/v1/png_71/hospital-71.png", "icon_background_color": "#F88181", "icon_mask_base_uri": "https://maps.gstatic.com/mapfiles/place_api/icons/v2/hospital-H_pinlet", "name": "Saviour Hospital", "place_id": "ChIJYZm-VLQj9DkRLI_lk91hiU4", "reference": "ChIJYZm-VLQj9DkRLI_lk91hiU4", "scope": "GOOGLE", "types": ["hospital", "health", "point_of_interest", "establishment"], "vicinity": "M572+WVP, Sector 4, Bokaro Steel City"}, {"business_status": "OPERATIONAL", "geometry": {"location": {"lat": 23.6662084, "lng": 86.1530885}, "viewport": {"northeast": {"lat": 23.6675759802915, "lng": 86.15438323029151}, "southwest": {"lat": 23.6648780197085, "lng": 86.1516852697085}}}, "icon": "https://maps.gstatic.com/mapfiles/place_api/icons/v1/png_71/hospital-71.png", "icon_background_color": "#F88181", "icon_mask_base_uri": "https://maps.gstatic.com/mapfiles/place_api/icons/v2/hospital-H_pinlet", "name": "ESIC HOSPITAL", "opening_hours": {"open_now": true}, "photos": [{"height": 1080, "html_attributions": ["<a href=\"https://maps.google.com/maps/contrib/101479085819162786091\">ASHISH PRAKASH</a>"], "photo_reference": "Aap_uECikZPSJ93kfyrs_KdBW1S-cMU6uPj_NY-1z5sz0c7xSLltHv7XX4PeNWnkaLkEskI8kZOhijsKqFgQQCO6uQf7i1B6FcSZJB-luKD8Wy9-bPAKPvsfEYCkhOsGLgrFK509Jmw0l9QULAaXmjXVx4ALbOo_qEPjNMi1d3X2AH41m5V7", "width": 1920}], "place_id": "ChIJUxNf6kgj9DkRniT4Imexj2o", "plus_code": {"compound_code": "M583+F6 Bokaro Steel City, Jharkhand, India", "global_code": "7MM8M583+F6"}, "rating": 3.6, "reference": "ChIJUxNf6kgj9DkRniT4Imexj2o", "scope": "GOOGLE", "types": ["hospital", "health", "point_of_interest", "establishment"], "user_ratings_total": 5, "vicinity": "Beside FIITJEE, 4E-S8, Sector 4, Bokaro Steel City"}, {"business_status": "OPERATIONAL", "geometry": {"location": {"lat": 23.6653545, "lng": 86.1527249}, "viewport": {"northeast": {"lat": 23.6667196802915, "lng": 86.15402863029149}, "southwest": {"lat": 23.6640217197085, "lng": 86.15133066970849}}}, "icon": "https://maps.gstatic.com/mapfiles/place_api/icons/v1/png_71/hospital-71.png", "icon_background_color": "#F88181", "icon_mask_base_uri": "https://maps.gstatic.com/mapfiles/place_api/icons/v2/hospital-H_pinlet", "name": "Muskan Eye Hospital", "opening_hours": {"open_now": true}, "photos": [{"height": 2352, "html_attributions": ["<a href=\"https://maps.google.com/maps/contrib/105858461358055389690\">sushanta gorai</a>"], "photo_reference": "Aap_uEAXVKuwrkqoUJvUC2MQRnA9qF6uUyAK83878uEMn1BVGbyr2xLR2dcM4-9EHP00Zbn5qVXleSWV23hFTcdSkfBSwtY1rd0QWXftZCddcFcCZzy-cDetoXLFHyRhBMotirOTrItCLLg0LlgqDE8Ln8QVtiyRl3LBNm678SVaExqQQ4Xa", "width": 4160}], "place_id": "ChIJ5RXdBrUj9DkRY8fVhSKaISk", "plus_code": {"compound_code": "M583+43 Bokaro Steel City, Jharkhand, India", "global_code": "7MM8M583+43"}, "rating": 3.2, "reference": "ChIJ5RXdBrUj9DkRY8fVhSKaISk", "scope": "GOOGLE", "types": ["hospital", "health", "point_of_interest", "establishment"], "user_ratings_total": 11, "vicinity": "S-3, Ground Floor, City Centre, Sector 4, Bokaro Steel City"}, {"business_status": "OPERATIONAL", "geometry": {"location": {"lat": 23.6652752, "lng": 86.1527361}, "viewport": {"northeast": {"lat": 23.6666491802915, "lng": 86.15402008029152}, "southwest": {"lat": 23.6639512197085, "lng": 86.15132211970851}}}, "icon": "https://maps.gstatic.com/mapfiles/place_api/icons/v1/png_71/hospital-71.png", "icon_background_color": "#F88181", "icon_mask_base_uri": "https://maps.gstatic.com/mapfiles/place_api/icons/v2/hospital-H_pinlet", "name": "Muskan Superspeciality Centre", "opening_hours": {"open_now": true}, "photos": [{"height": 3456, "html_attributions": ["<a href=\"https://maps.google.com/maps/contrib/104928608992494686435\">Business View India 12</a>"], "photo_reference": "Aap_uECda4zsffbq3uLYr-ZFdu5yl0q-xbkZcWHd108DeOzTej5wClJ8r8Bio-tQmaEYdt0bMNuN7YYsVG9hx1cfdHNZ7lRQjGBDdGZYNEHsneDdN2JOnC46uiyLl8A6A2YFayHBShNpwMxN_LW3lXju3u0Qq_b_QxCJZ5yauOpLs2WIBkYU", "width": 5184}], "place_id": "ChIJ_____zQi9DkR9_eJqHHik3w", "plus_code": {"compound_code": "M583+43 Bokaro Steel City, Jharkhand, India", "global_code": "7MM8M583+43"}, "rating": 3, "reference": "ChIJ_____zQi9DkR9_eJqHHik3w", "scope": "GOOGLE", "types": ["hospital", "health", "point_of_interest", "establishment"], "user_ratings_total": 2, "vicinity": "S-3, City Center, Sector 4, Bokaro Steel City"}, {"business_status": "OPERATIONAL", "geometry": {"location": {"lat": 23.6764296, "lng": 86.1454967}, "viewport": {"northeast": {"lat": 23.6775503802915, "lng": 86.1468258802915}, "southwest": {"lat": 23.6748524197085, "lng": 86.1441279197085}}}, "icon": "https://maps.gstatic.com/mapfiles/place_api/icons/v1/png_71/hospital-71.png", "icon_background_color": "#F88181", "icon_mask_base_uri": "https://maps.gstatic.com/mapfiles/place_api/icons/v2/hospital-H_pinlet", "name": "BGH Radiotherapy Unit", "photos": [{"height": 4312, "html_attributions": ["<a href=\"https://maps.google.com/maps/contrib/107541363491505246295\">Vikash Kushwaha</a>"], "photo_reference": "Aap_uEBUvWAzV_Afoyyl9--ohP0WcNdJMJ2CzUuL1cLA1NPldDrCL6zLluw9bqgUC18dq__JZiIdehByeoHzIpn_ILWNJ8g1wB3ueIK_U0YmRX2z37dmXjPlg43a0NaPNFikVGlhho_TTF64Ij8TW3U_M8SAShIsHZYwWJ4Zdoad6XP6ZjWs", "width": 5760}], "place_id": "ChIJTZ21BA4j9DkRv7O5OagxcqA", "plus_code": {"compound_code": "M4GW+H5 Bokaro Steel City, Jharkhand, India", "global_code": "7MM8M4GW+H5"}, "reference": "ChIJTZ21BA4j9DkRv7O5OagxcqA", "scope": "GOOGLE", "types": ["hospital", "health", "point_of_interest", "establishment"], "vicinity": "Chandrapura Road, Gumla Colony, Bokaro Steel City"}, {"business_status": "OPERATIONAL", "geometry": {"location": {"lat": 23.67641129999999, "lng": 86.1445178}, "viewport": {"northeast": {"lat": 23.6777015302915, "lng": 86.14580653029151}, "southwest": {"lat": 23.67500356970849, "lng": 86.1431085697085}}}, "icon": "https://maps.gstatic.com/mapfiles/place_api/icons/v1/png_71/hospital-71.png", "icon_background_color": "#F88181", "icon_mask_base_uri": "https://maps.gstatic.com/mapfiles/place_api/icons/v2/hospital-H_pinlet", "name": "Morgue room BGH", "place_id": "ChIJye4UC2Ij9DkRR7FQ92zios8", "reference": "ChIJye4UC2Ij9DkRR7FQ92zios8", "scope": "GOOGLE", "types": ["hospital", "health", "point_of_interest", "establishment"], "vicinity": "M4GV+HR6, Gumla Colony, Bokaro Steel City"}, {"business_status": "OPERATIONAL", "geometry": {"location": {"lat": 23.6601414, "lng": 86.1475657}, "viewport": {"northeast": {"lat": 23.6615221802915, "lng": 86.1487458302915}, "southwest": {"lat": 23.6588242197085, "lng": 86.1460478697085}}}, "icon": "https://maps.gstatic.com/mapfiles/place_api/icons/v1/png_71/hospital-71.png", "icon_background_color": "#F88181", "icon_mask_base_uri": "https://maps.gstatic.com/mapfiles/place_api/icons/v2/hospital-H_pinlet", "name": "Health Centre Sector 3", "place_id": "ChIJEzm7DrEj9DkRM1M1AUjZUvc", "reference": "ChIJEzm7DrEj9DkRM1M1AUjZUvc", "scope": "GOOGLE", "types": ["hospital", "health", "point_of_interest", "establishment"], "vicinity": "M46X+324, Sector 3, Bokaro Steel City"}, {"business_status": "OPERATIONAL", "geometry": {"location": {"lat": 23.6601051, "lng": 86.1504025}, "viewport": {"northeast": {"lat": 23.6614435802915, "lng": 86.15170003029151}, "southwest": {"lat": 23.6587456197085, "lng": 86.14900206970849}}}, "icon": "https://maps.gstatic.com/mapfiles/place_api/icons/v1/png_71/hospital-71.png", "icon_background_color": "#F88181", "icon_mask_base_uri": "https://maps.gstatic.com/mapfiles/place_api/icons/v2/hospital-H_pinlet", "name": "Woodland Hospital", "place_id": "ChIJ2TERsosj9DkR5fFOnq4TLag", "plus_code": {"compound_code": "M562+25 Bokaro Steel City, Jharkhand, India", "global_code": "7MM8M562+25"}, "reference": "ChIJ2TERsosj9DkR5fFOnq4TLag", "scope": "GOOGLE", "types": ["hospital", "health", "point_of_interest", "establishment"], "vicinity": "677, Sector 3/C, Bokaro Steel City"}], "status": "OK"}