{"html_attributions": [], "results": [{"business_status": "OPERATIONAL", "geometry": {"location": {"lat": 23.79086689999999, "lng": 86.25268229999999}, "viewport": {"northeast": {"lat": 23.7923582802915, "lng": 86.2544147802915}, "southwest": {"lat": 23.78966031970849, "lng": 86.25171681970849}}}, "icon": "https://maps.gstatic.com/mapfiles/place_api/icons/v1/png_71/hospital-71.png", "icon_background_color": "#F88181", "icon_mask_base_uri": "https://maps.gstatic.com/mapfiles/place_api/icons/v2/hospital-H_pinlet", "name": "\u092e\u0939\u093e\u0915\u093e\u0932\u0940 \u092e\u0902\u0926\u093f\u0930 (\u0916\u093e\u0936 \u091f\u0941\u0928\u094d\u0921\u0942 )", "opening_hours": {"open_now": false}, "place_id": "ChIJ-2vOZs4f9DkRkKOj4PxduPU", "reference": "ChIJ-2vOZs4f9DkRkKOj4PxduPU", "scope": "GOOGLE", "types": ["hospital", "health", "point_of_interest", "establishment"], "vicinity": "Q7R3+83V, khash Tundu, Tundu"}, {"business_status": "OPERATIONAL", "geometry": {"location": {"lat": 23.795399, "lng": 86.25372999999999}, "viewport": {"northeast": {"lat": 23.79653363029151, "lng": 86.25497788029149}, "southwest": {"lat": 23.7938356697085, "lng": 86.25227991970849}}}, "icon": "https://maps.gstatic.com/mapfiles/place_api/icons/v1/png_71/hospital-71.png", "icon_background_color": "#F88181", "icon_mask_base_uri": "https://maps.gstatic.com/mapfiles/place_api/icons/v2/hospital-H_pinlet", "name": "Raj Clinic And Research Centre", "place_id": "ChIJfeltKhwe9DkRWcH2ZuxWG4o", "plus_code": {"compound_code": "Q7W3+5F Tundu, Jharkhand, India", "global_code": "7MM8Q7W3+5F"}, "rating": 5, "reference": "ChIJfeltKhwe9DkRWcH2ZuxWG4o", "scope": "GOOGLE", "types": ["hospital", "health", "point_of_interest", "establishment"], "user_ratings_total": 1, "vicinity": "Jharkhand"}, {"business_status": "OPERATIONAL", "geometry": {"location": {"lat": 23.7797913, "lng": 86.2419979}, "viewport": {"northeast": {"lat": 23.7810786802915, "lng": 86.24324508029152}, "southwest": {"lat": 23.7783807197085, "lng": 86.2405471197085}}}, "icon": "https://maps.gstatic.com/mapfiles/place_api/icons/v1/png_71/hospital-71.png", "icon_background_color": "#F88181", "icon_mask_base_uri": "https://maps.gstatic.com/mapfiles/place_api/icons/v2/hospital-H_pinlet", "name": "BCCL Hospital", "place_id": "ChIJc82RMToe9DkRiZlOsqMDxRA", "plus_code": {"compound_code": "Q6HR+WQ Maheshpur, Jharkhand, India", "global_code": "7MM8Q6HR+WQ"}, "reference": "ChIJc82RMToe9DkRiZlOsqMDxRA", "scope": "GOOGLE", "types": ["hospital", "health", "point_of_interest", "establishment"], "vicinity": "Kharkharee, Maheshpur"}, {"business_status": "OPERATIONAL", "geometry": {"location": {"lat": 23.779903, "lng": 86.2375746}, "viewport": {"northeast": {"lat": 23.7808455302915, "lng": 86.2388823802915}, "southwest": {"lat": 23.7781475697085, "lng": 86.2361844197085}}}, "icon": "https://maps.gstatic.com/mapfiles/place_api/icons/v1/png_71/hospital-71.png", "icon_background_color": "#F88181", "icon_mask_base_uri": "https://maps.gstatic.com/mapfiles/place_api/icons/v2/hospital-H_pinlet", "name": "BCCL Hospital", "opening_hours": {"open_now": false}, "place_id": "ChIJx745XDge9DkR5lH8c9bFpTE", "plus_code": {"compound_code": "Q6HQ+X2 Kharkharee, Jharkhand, India", "global_code": "7MM8Q6HQ+X2"}, "rating": 2.5, "reference": "ChIJx745XDge9DkR5lH8c9bFpTE", "scope": "GOOGLE", "types": ["hospital", "health", "point_of_interest", "establishment"], "user_ratings_total": 2, "vicinity": "Budora Road, Kharkharee"}], "status": "OK"}