{"html_attributions": [], "results": [{"business_status": "OPERATIONAL", "geometry": {"location": {"lat": 23.7494659, "lng": 86.2727159}, "viewport": {"northeast": {"lat": 23.7508032302915, "lng": 86.27406273029152}, "southwest": {"lat": 23.7481052697085, "lng": 86.27136476970851}}}, "icon": "https://maps.gstatic.com/mapfiles/place_api/icons/v1/png_71/hospital-71.png", "icon_background_color": "#F88181", "icon_mask_base_uri": "https://maps.gstatic.com/mapfiles/place_api/icons/v2/hospital-H_pinlet", "name": "Health Care Pathology", "opening_hours": {"open_now": true}, "photos": [{"height": 2592, "html_attributions": ["<a href=\"https://maps.google.com/maps/contrib/114767167911307453360\">subodh mahato</a>"], "photo_reference": "Aap_uEC3Z3iwgumvCh15z13gesIfJbL4XS8-KFs-9LtLdgekr2N7H3mcOfJSoRJe5sW8ej-BjEk4kzFpuQ6VdgGyTCKo4Z_pwxoYwnC3PBRq8GARkuiU7t6GFKHJ_-R9Cd21PmeFue8lT_rEQm5oD5jPQk_Mq3Qo7BGzJ48HRSZ-YEf_XGqF", "width": 1944}], "place_id": "ChIJaRPZkFOh9jkRBDn3t-uc4U8", "reference": "ChIJaRPZkFOh9jkRBDn3t-uc4U8", "scope": "GOOGLE", "types": ["hospital", "health", "point_of_interest", "establishment"], "vicinity": "P7XF+Q3P, Mahuda"}, {"business_status": "OPERATIONAL", "geometry": {"location": {"lat": 23.749987, "lng": 86.2742722}, "viewport": {"northeast": {"lat": 23.7513333802915, "lng": 86.2756323302915}, "southwest": {"lat": 23.7486354197085, "lng": 86.2729343697085}}}, "icon": "https://maps.gstatic.com/mapfiles/place_api/icons/v1/png_71/hospital-71.png", "icon_background_color": "#F88181", "icon_mask_base_uri": "https://maps.gstatic.com/mapfiles/place_api/icons/v2/hospital-H_pinlet", "name": "Area Dispensary", "place_id": "ChIJn9N9Cmmg9jkRPgh_1W-WP8M", "plus_code": {"compound_code": "P7XF+XP Panredi, Jharkhand, India", "global_code": "7MM8P7XF+XP"}, "rating": 3, "reference": "ChIJn9N9Cmmg9jkRPgh_1W-WP8M", "scope": "GOOGLE", "types": ["hospital", "health", "point_of_interest", "establishment"], "user_ratings_total": 1, "vicinity": "India"}, {"business_status": "OPERATIONAL", "geometry": {"location": {"lat": 23.7599093, "lng": 86.2607151}, "viewport": {"northeast": {"lat": 23.7612949302915, "lng": 86.26206993029152}, "southwest": {"lat": 23.7585969697085, "lng": 86.2593719697085}}}, "icon": "https://maps.gstatic.com/mapfiles/place_api/icons/v1/png_71/hospital-71.png", "icon_background_color": "#F88181", "icon_mask_base_uri": "https://maps.gstatic.com/mapfiles/place_api/icons/v2/hospital-H_pinlet", "name": "Pratham Vargiye Pashu Chikatsalay, Mahuda", "photos": [{"height": 3120, "html_attributions": ["<a href=\"https://maps.google.com/maps/contrib/104796349631990404429\">MAKSUD ALAM</a>"], "photo_reference": "Aap_uECXq6fBbIaYpGMaeqU4k9_ZQ0YOEGZ_q8WaNd16Sq52BX1Iq7wfJk04yKsT3FxPZNnOtXD1o-lRg7VxLAZEOHlldGWzlFtGdd35Qz-cPaD92bcoyjmNrW9-Fh-XBWBdU9FiKkZlY71sijrv2zDArjwevZNfhmkcpHT8tAHH_uUtXI4f", "width": 4160}], "place_id": "ChIJ9VU3s36g9jkRflcKfxt9hFs", "reference": "ChIJ9VU3s36g9jkRflcKfxt9hFs", "scope": "GOOGLE", "types": ["hospital", "health", "point_of_interest", "establishment"], "vicinity": "Q756+X78, devghara, AglaPahari"}], "status": "OK"}