{"html_attributions": [], "results": [{"business_status": "OPERATIONAL", "geometry": {"location": {"lat": 23.7891346, "lng": 86.3276934}, "viewport": {"northeast": {"lat": 23.79053873029151, "lng": 86.32907248029152}, "southwest": {"lat": 23.7878407697085, "lng": 86.3263745197085}}}, "icon": "https://maps.gstatic.com/mapfiles/place_api/icons/v1/png_71/hospital-71.png", "icon_background_color": "#F88181", "icon_mask_base_uri": "https://maps.gstatic.com/mapfiles/place_api/icons/v2/hospital-H_pinlet", "name": "Mudidih Bccl Hospital", "photos": [{"height": 3264, "html_attributions": ["<a href=\"https://maps.google.com/maps/contrib/102702695767601131455\">Chandan Gupta</a>"], "photo_reference": "Aap_uECGefL3GttvYDG1KX3Kg1o_91LGWx4rY_UUL7mcLDYMDY_pInvqBGfR-AYmuiRABt2OESAAiu6ADJSqmqOcaRdY12KrnNqQAAjg17wUXQ36Uj1WOZJ6-cgBewFK7QmZcZb5xQt8uelqArP41v2J2G2k67rIGgNkT_vjAXtl9PsLehoR", "width": 2448}], "place_id": "ChIJtxGlLG-h9jkRHmPGAo-KtkQ", "plus_code": {"compound_code": "Q8QH+M3 Bhadrichak, Jharkhand, India", "global_code": "7MM8Q8QH+M3"}, "reference": "ChIJtxGlLG-h9jkRHmPGAo-KtkQ", "scope": "GOOGLE", "types": ["hospital", "health", "point_of_interest", "establishment"], "vicinity": "Hura Mudidih Road"}, {"business_status": "OPERATIONAL", "geometry": {"location": {"lat": 23.7870712, "lng": 86.32702619999999}, "viewport": {"northeast": {"lat": 23.7884360802915, "lng": 86.32837823029149}, "southwest": {"lat": 23.7857381197085, "lng": 86.32568026970849}}}, "icon": "https://maps.gstatic.com/mapfiles/place_api/icons/v1/png_71/hospital-71.png", "icon_background_color": "#F88181", "icon_mask_base_uri": "https://maps.gstatic.com/mapfiles/place_api/icons/v2/hospital-H_pinlet", "name": "new shyam bazar sijua", "place_id": "ChIJvZJ1QjWh9jkRR3N8kll2UBA", "plus_code": {"compound_code": "Q8PG+RR Bhadrichak, Jharkhand, India", "global_code": "7MM8Q8PG+RR"}, "reference": "ChIJvZJ1QjWh9jkRR3N8kll2UBA", "scope": "GOOGLE", "types": ["hospital", "health", "point_of_interest", "establishment"], "vicinity": "maa durga mandir, Dhanbad road sijua modidih near bccl Hospital"}, {"business_status": "OPERATIONAL", "geometry": {"location": {"lat": 23.7797683, "lng": 86.321522}, "viewport": {"northeast": {"lat": 23.7811222302915, "lng": 86.32284733029151}, "southwest": {"lat": 23.7784242697085, "lng": 86.32014936970849}}}, "icon": "https://maps.gstatic.com/mapfiles/place_api/icons/v1/png_71/hospital-71.png", "icon_background_color": "#F88181", "icon_mask_base_uri": "https://maps.gstatic.com/mapfiles/place_api/icons/v2/hospital-H_pinlet", "name": "Tarik Medical Store", "place_id": "ChIJsyugJ_uh9jkRC1lcNRyyYPc", "plus_code": {"compound_code": "Q8HC+WJ Sijua, Jharkhand, India", "global_code": "7MM8Q8HC+WJ"}, "rating": 1, "reference": "ChIJsyugJ_uh9jkRC1lcNRyyYPc", "scope": "GOOGLE", "types": ["hospital", "health", "point_of_interest", "establishment"], "user_ratings_total": 2, "vicinity": "Unnamed Road, Sijua"}, {"business_status": "OPERATIONAL", "geometry": {"location": {"lat": 23.7970731, "lng": 86.3172921}, "viewport": {"northeast": {"lat": 23.7984226802915, "lng": 86.31863348029151}, "southwest": {"lat": 23.7957247197085, "lng": 86.31593551970849}}}, "icon": "https://maps.gstatic.com/mapfiles/place_api/icons/v1/png_71/hospital-71.png", "icon_background_color": "#F88181", "icon_mask_base_uri": "https://maps.gstatic.com/mapfiles/place_api/icons/v2/hospital-H_pinlet", "name": "bccl hospital", "place_id": "ChIJp3TswOGh9jkRvL6jTpc-Y3c", "rating": 5, "reference": "ChIJp3TswOGh9jkRvL6jTpc-Y3c", "scope": "GOOGLE", "types": ["hospital", "health", "point_of_interest", "establishment"], "user_ratings_total": 1, "vicinity": "Q8W8+RWF, Kantapahari"}], "status": "OK"}