{"html_attributions": [], "results": [{"business_status": "OPERATIONAL", "geometry": {"location": {"lat": 23.8094803, "lng": 86.33984319999999}, "viewport": {"northeast": {"lat": 23.8108463802915, "lng": 86.3410573302915}, "southwest": {"lat": 23.80814841970849, "lng": 86.33835936970848}}}, "icon": "https://maps.gstatic.com/mapfiles/place_api/icons/v1/png_71/hospital-71.png", "icon_background_color": "#F88181", "icon_mask_base_uri": "https://maps.gstatic.com/mapfiles/place_api/icons/v2/hospital-H_pinlet", "name": "BCCL", "place_id": "ChIJqz3m0hej9jkRTb-SwN15ekw", "plus_code": {"compound_code": "R85Q+QW Nagri Kalan, Jharkhand, India", "global_code": "7MM8R85Q+QW"}, "rating": 5, "reference": "ChIJqz3m0hej9jkRTb-SwN15ekw", "scope": "GOOGLE", "types": ["hospital", "health", "point_of_interest", "establishment"], "user_ratings_total": 1, "vicinity": "near P.S, Tetulmari Road, Nagri Kalan"}, {"business_status": "OPERATIONAL", "geometry": {"location": {"lat": 23.8085662, "lng": 86.3525018}, "viewport": {"northeast": {"lat": 23.8098472302915, "lng": 86.3539449302915}, "southwest": {"lat": 23.8071492697085, "lng": 86.3512469697085}}}, "icon": "https://maps.gstatic.com/mapfiles/place_api/icons/v1/png_71/hospital-71.png", "icon_background_color": "#F88181", "icon_mask_base_uri": "https://maps.gstatic.com/mapfiles/place_api/icons/v2/hospital-H_pinlet", "name": "BCCL Hospital Mohlidih", "opening_hours": {"open_now": false}, "place_id": "ChIJP9zBW_Gj9jkR7Io0cV2MX4k", "plus_code": {"compound_code": "R953+C2 Mahlidih, Jharkhand, India", "global_code": "7MM8R953+C2"}, "rating": 3, "reference": "ChIJP9zBW_Gj9jkR7Io0cV2MX4k", "scope": "GOOGLE", "types": ["hospital", "health", "point_of_interest", "establishment"], "user_ratings_total": 1, "vicinity": "Mahlidih"}, {"business_status": "OPERATIONAL", "geometry": {"location": {"lat": 23.8075962, "lng": 86.33917029999999}, "viewport": {"northeast": {"lat": 23.8089805802915, "lng": 86.34044668029152}, "southwest": {"lat": 23.80628261970849, "lng": 86.33774871970851}}}, "icon": "https://maps.gstatic.com/mapfiles/place_api/icons/v1/png_71/hospital-71.png", "icon_background_color": "#F88181", "icon_mask_base_uri": "https://maps.gstatic.com/mapfiles/place_api/icons/v2/hospital-H_pinlet", "name": "Daas Clinic", "place_id": "ChIJM8eFu-Wj9jkRLUK0REXeYJI", "reference": "ChIJM8eFu-Wj9jkRLUK0REXeYJI", "scope": "GOOGLE", "types": ["hospital", "health", "point_of_interest", "establishment"], "vicinity": "R85Q+2MM, Nagri Kalan"}, {"business_status": "OPERATIONAL", "geometry": {"location": {"lat": 23.8108551, "lng": 86.35327629999999}, "viewport": {"northeast": {"lat": 23.8121071302915, "lng": 86.3545808802915}, "southwest": {"lat": 23.8094091697085, "lng": 86.35188291970849}}}, "icon": "https://maps.gstatic.com/mapfiles/place_api/icons/v1/png_71/hospital-71.png", "icon_background_color": "#F88181", "icon_mask_base_uri": "https://maps.gstatic.com/mapfiles/place_api/icons/v2/hospital-H_pinlet", "name": "M H Raza Medical", "opening_hours": {"open_now": true}, "place_id": "ChIJv049GfSj9jkR8fb3yq7UwcE", "rating": 4, "reference": "ChIJv049GfSj9jkR8fb3yq7UwcE", "scope": "GOOGLE", "types": ["hospital", "health", "point_of_interest", "establishment"], "user_ratings_total": 1, "vicinity": "R963+88R, Mahlidih"}, {"business_status": "OPERATIONAL", "geometry": {"location": {"lat": 23.80311460000001, "lng": 86.33567169999999}, "viewport": {"northeast": {"lat": 23.8044583802915, "lng": 86.3370131802915}, "southwest": {"lat": 23.80176041970849, "lng": 86.3343152197085}}}, "icon": "https://maps.gstatic.com/mapfiles/place_api/icons/v1/png_71/pharmacy-71.png", "icon_background_color": "#F88181", "icon_mask_base_uri": "https://maps.gstatic.com/mapfiles/place_api/icons/v2/pharmacy_pinlet", "name": "Vikash Medical", "opening_hours": {"open_now": true}, "photos": [{"height": 3120, "html_attributions": ["<a href=\"https://maps.google.com/maps/contrib/109096617410292540796\">Dharmendra prajapati</a>"], "photo_reference": "Aap_uEDm3SsFCuAY6dR-JMteAANw24wkbI9fGnRfrGBVNYsmKr9bpVcCVVDXDe22EpvcRXs6D6Q4j0upt_6TZXAtrDbeRRE7gjJxeTOPCCw_iXrXT6C0MikvJwLlGnYGAoi0X7FW4YE5yzJxPaPYHhv8718cr2zUkZAqHSd1tZ3ywCrDtsrj", "width": 4160}], "place_id": "ChIJwXD0T8qh9jkR7a9q96DaUks", "plus_code": {"compound_code": "R83P+67 Chandaur, Jharkhand, India", "global_code": "7MM8R83P+67"}, "rating": 5, "reference": "ChIJwXD0T8qh9jkR7a9q96DaUks", "scope": "GOOGLE", "types": ["pharmacy", "drugstore", "hospital", "health", "point_of_interest", "store", "establishment"], "user_ratings_total": 5, "vicinity": "3, Tetulmari Road, Chandaur"}, {"business_status": "OPERATIONAL", "geometry": {"location": {"lat": 23.8033799, "lng": 86.3353826}, "viewport": {"northeast": {"lat": 23.8047209302915, "lng": 86.33672538029151}, "southwest": {"lat": 23.8020229697085, "lng": 86.33402741970849}}}, "icon": "https://maps.gstatic.com/mapfiles/place_api/icons/v1/png_71/hospital-71.png", "icon_background_color": "#F88181", "icon_mask_base_uri": "https://maps.gstatic.com/mapfiles/place_api/icons/v2/hospital-H_pinlet", "name": "Gupta Madical", "place_id": "ChIJs7TCgFeh9jkRrATj7sqG5e4", "plus_code": {"compound_code": "R83P+95 Chandaur, Jharkhand, India", "global_code": "7MM8R83P+95"}, "reference": "ChIJs7TCgFeh9jkRrATj7sqG5e4", "scope": "GOOGLE", "types": ["hospital", "health", "point_of_interest", "establishment"], "vicinity": "Tetulmari Road, Chandaur"}, {"business_status": "OPERATIONAL", "geometry": {"location": {"lat": 23.81457929999999, "lng": 86.3571147}, "viewport": {"northeast": {"lat": 23.8159910302915, "lng": 86.35838203029151}, "southwest": {"lat": 23.8132930697085, "lng": 86.3556840697085}}}, "icon": "https://maps.gstatic.com/mapfiles/place_api/icons/v1/png_71/hospital-71.png", "icon_background_color": "#F88181", "icon_mask_base_uri": "https://maps.gstatic.com/mapfiles/place_api/icons/v2/hospital-H_pinlet", "name": "Mohlidih Panchayat Bhawan", "opening_hours": {"open_now": true}, "place_id": "ChIJF81EM-Oj9jkR4OeCmjrCtH0", "reference": "ChIJF81EM-Oj9jkR4OeCmjrCtH0", "scope": "GOOGLE", "types": ["hospital", "health", "point_of_interest", "establishment"], "vicinity": "R974+RRQ, Mahlidih"}, {"business_status": "OPERATIONAL", "geometry": {"location": {"lat": 23.8039091, "lng": 86.3344492}, "viewport": {"northeast": {"lat": 23.8052087802915, "lng": 86.3357590302915}, "southwest": {"lat": 23.80251081970849, "lng": 86.33306106970849}}}, "icon": "https://maps.gstatic.com/mapfiles/place_api/icons/v1/png_71/hospital-71.png", "icon_background_color": "#F88181", "icon_mask_base_uri": "https://maps.gstatic.com/mapfiles/place_api/icons/v2/hospital-H_pinlet", "name": "Dr.K.P.SINGH", "opening_hours": {"open_now": true}, "place_id": "ChIJHZOuHDOh9jkRrU4t-TeejMA", "plus_code": {"compound_code": "R83M+HQ Chandaur, Jharkhand, India", "global_code": "7MM8R83M+HQ"}, "reference": "ChIJHZOuHDOh9jkRrU4t-TeejMA", "scope": "GOOGLE", "types": ["hospital", "health", "point_of_interest", "establishment"], "vicinity": "3, Tetulmari Road, Chandaur"}], "status": "OK"}