{"html_attributions": [], "results": [{"business_status": "OPERATIONAL", "geometry": {"location": {"lat": 23.7915886, "lng": 86.3902938}, "viewport": {"northeast": {"lat": 23.7929456302915, "lng": 86.3916667802915}, "southwest": {"lat": 23.7902476697085, "lng": 86.3889688197085}}}, "icon": "https://maps.gstatic.com/mapfiles/place_api/icons/v1/png_71/hospital-71.png", "icon_background_color": "#F88181", "icon_mask_base_uri": "https://maps.gstatic.com/mapfiles/place_api/icons/v2/hospital-H_pinlet", "name": "BCCL Hospital", "opening_hours": {"open_now": true}, "photos": [{"height": 3264, "html_attributions": ["<a href=\"https://maps.google.com/maps/contrib/106996999363064914195\">Local Village</a>"], "photo_reference": "Aap_uECpEkWWscJVU26Bj1N5Hhw4YR4l0UI_HaD11UdiSH5ukIDv2skmFzUWGs43CbirhIVT5DO_i_wVH91cC2Hwfroi9XNHvdkrT2CJXkjhRz66TMHDPbGAR9Ma8bEsE_AyK1NN12LWJ8BJGW7GdPzHRSyPu9ArOb3s5fjEHSu-m4JVXCvG", "width": 1836}], "place_id": "ChIJgXJF2xKj9jkRCZsbi3Tgcm4", "rating": 3.1, "reference": "ChIJgXJF2xKj9jkRCZsbi3Tgcm4", "scope": "GOOGLE", "types": ["hospital", "health", "point_of_interest", "establishment"], "user_ratings_total": 10, "vicinity": "Q9RR+J4M, Matkuriya, Dhanbad"}, {"business_status": "OPERATIONAL", "geometry": {"location": {"lat": 23.78481, "lng": 86.3901096}, "viewport": {"northeast": {"lat": 23.78620863029151, "lng": 86.39146623029151}, "southwest": {"lat": 23.78351066970851, "lng": 86.3887682697085}}}, "icon": "https://maps.gstatic.com/mapfiles/place_api/icons/v1/png_71/hospital-71.png", "icon_background_color": "#F88181", "icon_mask_base_uri": "https://maps.gstatic.com/mapfiles/place_api/icons/v2/hospital-H_pinlet", "name": "Health Centre", "photos": [{"height": 2448, "html_attributions": ["<a href=\"https://maps.google.com/maps/contrib/105616358441327908127\">Suman Kumar Roy</a>"], "photo_reference": "Aap_uEANbAhehM_PRSpx_ivICc0sEYYKXmwJVBfQkjzXt3Te9OUOLoHGSSpabilKdRH8c1EsISrhV3Fkc8mYQTUxRZbKdgaVsp0_wo12BsuUPFg4NQ_Gor_J1AUbri2ISJ8vEdQgyjLCKx20wl_jLBI8HbldB3_1Hpfm4XS3K85UMkR-TNsf", "width": 3264}], "place_id": "ChIJX4J5uxGj9jkR-mV6GB84OYU", "rating": 3, "reference": "ChIJX4J5uxGj9jkR-mV6GB84OYU", "scope": "GOOGLE", "types": ["hospital", "health", "point_of_interest", "establishment"], "user_ratings_total": 1, "vicinity": "Q9MR+W2H, Godhar"}, {"business_status": "OPERATIONAL", "geometry": {"location": {"lat": 23.7843545, "lng": 86.3901906}, "viewport": {"northeast": {"lat": 23.7856877802915, "lng": 86.3915319302915}, "southwest": {"lat": 23.7829898197085, "lng": 86.3888339697085}}}, "icon": "https://maps.gstatic.com/mapfiles/place_api/icons/v1/png_71/hospital-71.png", "icon_background_color": "#F88181", "icon_mask_base_uri": "https://maps.gstatic.com/mapfiles/place_api/icons/v2/hospital-H_pinlet", "name": "HSC Godhar", "opening_hours": {"open_now": true}, "photos": [{"height": 2470, "html_attributions": ["<a href=\"https://maps.google.com/maps/contrib/117712610703282795677\">Rajeev Kumar</a>"], "photo_reference": "Aap_uECthxjcI56XpJuOQq9dB7WOXwhQX5uVGXoqhMnhY4bmUXIt6OduIO49Wk61oKFYsgfP-SisU_LDYkyTWJtVFGVGdsgOYZX9xoxIAmfQ_W5gxpbgsDgYWbK7IasCt9KANAEvE62_0izs8ib31t3brFkFYntvBkfbDGX5QCVKuiOmB4UX", "width": 2483}], "place_id": "ChIJq-idGfOj9jkRpB9OgAbHnxc", "plus_code": {"compound_code": "Q9MR+P3 Godhar, Jharkhand, India", "global_code": "7MM8Q9MR+P3"}, "rating": 2, "reference": "ChIJq-idGfOj9jkRpB9OgAbHnxc", "scope": "GOOGLE", "types": ["hospital", "health", "point_of_interest", "establishment"], "user_ratings_total": 1, "vicinity": "more, Godhar"}, {"business_status": "OPERATIONAL", "geometry": {"location": {"lat": 23.7843204, "lng": 86.39019290000002}, "viewport": {"northeast": {"lat": 23.7856813802915, "lng": 86.3915476302915}, "southwest": {"lat": 23.7829834197085, "lng": 86.38884966970848}}}, "icon": "https://maps.gstatic.com/mapfiles/place_api/icons/v1/png_71/hospital-71.png", "icon_background_color": "#F88181", "icon_mask_base_uri": "https://maps.gstatic.com/mapfiles/place_api/icons/v2/hospital-H_pinlet", "name": "\u0938\u094d\u0935\u0938\u094d\u0925\u094d\u092f \u0909\u092a \u0915\u0947\u0902\u0926\u094d\u0930 ,\u0917\u094b\u0927\u0930", "photos": [{"height": 4160, "html_attributions": ["<a href=\"https://maps.google.com/maps/contrib/117712610703282795677\">Rajeev Kumar</a>"], "photo_reference": "Aap_uEB2rEJ--0VXyEBu6qjl387Bd5Rsc2RHilij6XdMXvY5KUu0Tovzq6cHfVe-MHBU1_dlTXMKXrSGZUVXeIuNZsREXdAvdWPMi0M9x6HyViM_2b7EzB5uNwEz7UcmqfYdkfd-pzc29fHap4Pv_R2kt6TcstIIqgBxf9f4aSAIQKHbAgy9", "width": 3120}], "place_id": "ChIJYUpA1yej9jkR4ZYgymZq3DM", "reference": "ChIJYUpA1yej9jkR4ZYgymZq3DM", "scope": "GOOGLE", "types": ["hospital", "health", "point_of_interest", "establishment"], "vicinity": "Q9MR+P3G, \u0938\u0926\u0930, Dhanbad"}, {"business_status": "OPERATIONAL", "geometry": {"location": {"lat": 23.78332959999999, "lng": 86.3945117}, "viewport": {"northeast": {"lat": 23.7847048302915, "lng": 86.3958416302915}, "southwest": {"lat": 23.7820068697085, "lng": 86.3931436697085}}}, "icon": "https://maps.gstatic.com/mapfiles/place_api/icons/v1/png_71/hospital-71.png", "icon_background_color": "#F88181", "icon_mask_base_uri": "https://maps.gstatic.com/mapfiles/place_api/icons/v2/hospital-H_pinlet", "name": "DR.ZAFER AQUEEL(M.B.B.S,M.ch)", "opening_hours": {"open_now": true}, "place_id": "ChIJdUecylaj9jkR1KiEKK72x9E", "plus_code": {"compound_code": "Q9MV+8R Godhar, Jharkhand, India", "global_code": "7MM8Q9MV+8R"}, "reference": "ChIJdUecylaj9jkR1KiEKK72x9E", "scope": "GOOGLE", "types": ["hospital", "health", "point_of_interest", "establishment"], "vicinity": "Katras Road, Godhar"}, {"business_status": "OPERATIONAL", "geometry": {"location": {"lat": 23.78386699999999, "lng": 86.3959473}, "viewport": {"northeast": {"lat": 23.7851821302915, "lng": 86.3973196802915}, "southwest": {"lat": 23.7824841697085, "lng": 86.3946217197085}}}, "icon": "https://maps.gstatic.com/mapfiles/place_api/icons/v1/png_71/hospital-71.png", "icon_background_color": "#F88181", "icon_mask_base_uri": "https://maps.gstatic.com/mapfiles/place_api/icons/v2/hospital-H_pinlet", "name": "plastic surgeon in dhanbad", "opening_hours": {"open_now": true}, "photos": [{"height": 720, "html_attributions": ["<a href=\"https://maps.google.com/maps/contrib/109762083194689138058\">plastic surgeon in dhanbad</a>"], "photo_reference": "Aap_uEC66t1AzP0Nt0qjTVDIO9NfMr12_i-4EaDXzgw0J4t-9vTyGPa4iw9zXONaa31OQEfYmOduQIukL9sEp_EWtsD3MSOaVHvbmaABZsVu8PNavp8Y3Q0iCP-3pJZT8h7uMYmevXMdk_7b4NH6kBigvpFLLgsq5mbetTfK4FQfsL2Xid1t", "width": 1280}], "place_id": "ChIJ4VACezij9jkRrI22Sds2WDo", "plus_code": {"compound_code": "Q9MW+G9 Dhanbad, Jharkhand, India", "global_code": "7MM8Q9MW+G9"}, "reference": "ChIJ4VACezij9jkRrI22Sds2WDo", "scope": "GOOGLE", "types": ["hospital", "health", "point_of_interest", "establishment"], "vicinity": "godhar, Dhanbad"}, {"business_status": "OPERATIONAL", "geometry": {"location": {"lat": 23.78386699999999, "lng": 86.3959473}, "viewport": {"northeast": {"lat": 23.7851819302915, "lng": 86.3973192302915}, "southwest": {"lat": 23.78248396970849, "lng": 86.3946212697085}}}, "icon": "https://maps.gstatic.com/mapfiles/place_api/icons/v1/png_71/hospital-71.png", "icon_background_color": "#F88181", "icon_mask_base_uri": "https://maps.gstatic.com/mapfiles/place_api/icons/v2/hospital-H_pinlet", "name": "Galaxy Hospital", "opening_hours": {"open_now": true}, "photos": [{"height": 380, "html_attributions": ["<a href=\"https://maps.google.com/maps/contrib/104000495029690534764\">Galaxy Hospital</a>"], "photo_reference": "Aap_uECvd9owgkfeiFWIGEvlvwkhpURGn9skVidqAOB3d_51pGbxQfqmM2hped0JiVhOHDy-p1DwgdUhJioth8Qe9Pv81hL1unSkFONyAPr0rl-FLZau5LSOXOmFNZ-Wfp8U0en5Hy-5x4nNTRxdjuywC1gl6lLonknq_iVXqjrpXuJat2S_", "width": 596}], "place_id": "ChIJHepQGUaj9jkRPQwoZtKI9jc", "plus_code": {"compound_code": "Q9MW+G9 Matkuria, Jharkhand, India", "global_code": "7MM8Q9MW+G9"}, "rating": 5, "reference": "ChIJHepQGUaj9jkRPQwoZtKI9jc", "scope": "GOOGLE", "types": ["hospital", "health", "point_of_interest", "establishment"], "user_ratings_total": 3, "vicinity": "Power house, Katras Road, Opposite Godhar, Matkuria"}, {"business_status": "OPERATIONAL", "geometry": {"location": {"lat": 23.78386699999999, "lng": 86.3959473}, "viewport": {"northeast": {"lat": 23.7851819302915, "lng": 86.3973192302915}, "southwest": {"lat": 23.78248396970849, "lng": 86.3946212697085}}}, "icon": "https://maps.gstatic.com/mapfiles/place_api/icons/v1/png_71/hospital-71.png", "icon_background_color": "#F88181", "icon_mask_base_uri": "https://maps.gstatic.com/mapfiles/place_api/icons/v2/hospital-H_pinlet", "name": "Bed sore & burn Treatment hospital", "opening_hours": {"open_now": true}, "photos": [{"height": 1280, "html_attributions": ["<a href=\"https://maps.google.com/maps/contrib/102555451282519124090\">Bed sore &amp; burn Treatment hospital</a>"], "photo_reference": "Aap_uEAdZQVpAsaUQonS2xKig-QJWtFE5MkBYinF5MhVm3j3m42c-JrjQw4NnpbGlsuMgDyzfqboGJ-3UdoM235J89J6jT7bqBeDe3dEq3ZWneeISPibyt0ncx0VAbe2guJ-6kC09RAwoju6UtMQIFKve4foohVtwjDlQvjYx7Vhoy0IcZsL", "width": 720}], "place_id": "ChIJsx5Owq-j9jkR71_yKnaU-1w", "plus_code": {"compound_code": "Q9MW+G9 Dhanbad, Jharkhand, India", "global_code": "7MM8Q9MW+G9"}, "rating": 5, "reference": "ChIJsx5Owq-j9jkR71_yKnaU-1w", "scope": "GOOGLE", "types": ["hospital", "health", "point_of_interest", "establishment"], "user_ratings_total": 4, "vicinity": "godhar, Dhanbad"}, {"business_status": "OPERATIONAL", "geometry": {"location": {"lat": 23.7995927, "lng": 86.38992}, "viewport": {"northeast": {"lat": 23.8009659802915, "lng": 86.3912508302915}, "southwest": {"lat": 23.79826801970849, "lng": 86.38855286970849}}}, "icon": "https://maps.gstatic.com/mapfiles/place_api/icons/v1/png_71/hospital-71.png", "icon_background_color": "#F88181", "icon_mask_base_uri": "https://maps.gstatic.com/mapfiles/place_api/icons/v2/hospital-H_pinlet", "name": "Rahul Medical", "place_id": "ChIJa7shbG6j9jkR3xJ-meY8tBw", "reference": "ChIJa7shbG6j9jkR3xJ-meY8tBw", "scope": "GOOGLE", "types": ["hospital", "health", "point_of_interest", "establishment"], "vicinity": "Q9XQ+RXM, Matkuriya, Dhanbad"}, {"business_status": "OPERATIONAL", "geometry": {"location": {"lat": 23.7800567, "lng": 86.37751279999999}, "viewport": {"northeast": {"lat": 23.7814370802915, "lng": 86.37887593029151}, "southwest": {"lat": 23.7787391197085, "lng": 86.3761779697085}}}, "icon": "https://maps.gstatic.com/mapfiles/place_api/icons/v1/png_71/hospital-71.png", "icon_background_color": "#F88181", "icon_mask_base_uri": "https://maps.gstatic.com/mapfiles/place_api/icons/v2/hospital-H_pinlet", "name": "Rahat Medical Center", "place_id": "ChIJNZwbY_Wj9jkRtlWmf4yXp28", "plus_code": {"compound_code": "Q9JH+22 Chhatatanr, Jharkhand, India", "global_code": "7MM8Q9JH+22"}, "reference": "ChIJNZwbY_Wj9jkRtlWmf4yXp28", "scope": "GOOGLE", "types": ["hospital", "health", "point_of_interest", "establishment"], "vicinity": "kendua"}, {"business_status": "OPERATIONAL", "geometry": {"location": {"lat": 23.78485049999999, "lng": 86.398321}, "viewport": {"northeast": {"lat": 23.7862666802915, "lng": 86.3996546802915}, "southwest": {"lat": 23.78356871970849, "lng": 86.39695671970848}}}, "icon": "https://maps.gstatic.com/mapfiles/place_api/icons/v1/png_71/hospital-71.png", "icon_background_color": "#F88181", "icon_mask_base_uri": "https://maps.gstatic.com/mapfiles/place_api/icons/v2/hospital-H_pinlet", "name": "Burn hospital", "opening_hours": {"open_now": true}, "photos": [{"height": 534, "html_attributions": ["<a href=\"https://maps.google.com/maps/contrib/103165952160046708145\">Burn hospital</a>"], "photo_reference": "Aap_uEAz0kBcI5P_oVW9J3tO5zl4zziqeV0-CIW2il1Y_AJRn9xOQ5wnCYf_o6LQD4yJM2-aObK51PqtzFiajVketDn8h7AepKXbWeOAct8jefysF5HMJJvCG0gm_Yrv8s_bxQB1aJS0wHv-w2JTfrrjQ8WwJ_E4znK5fAiwJY2mJVEIR5au", "width": 1156}], "place_id": "ChIJVZwDwGaj9jkRBMcTTBg1tdY", "plus_code": {"compound_code": "Q9MX+W8 Godhar, Jharkhand, India", "global_code": "7MM8Q9MX+W8"}, "rating": 5, "reference": "ChIJVZwDwGaj9jkRBMcTTBg1tdY", "scope": "GOOGLE", "types": ["hospital", "health", "point_of_interest", "establishment"], "user_ratings_total": 4, "vicinity": "Godhar"}], "status": "OK"}