{"html_attributions": [], "next_page_token": "Aap_uEBOOeM4XS2ucwYM01fKDN93Am8izPbkrMybTCxJ50ebIgTIKj2E5ir4CAAHRe9cos99cxcq4rsC0Vc_VWNHxWWOnr1ayLJEq14bgZcPJ0-MqnzKwCSrz-DTKQ-LbMRTxAsNT2M_07L2-jX3pfqhK4CXF8iVvI0tVUpHJ6e2qsWYXiN7bhr-h1ICs4PfOw_OvJOWatbAVQ1qEN4lpv5uIs73HRRdgYENSuYaYTlWtRPjXVHr9p4UzHuXI5UX9ehDWI2dp9u5n__MUH_HdMjIRe1TCEG3ddIXXb8oE5QETyTO_4xBGVoE_pDiJc41B-qqI2LeleIlM6FwshHtCisGxofnAlXn4IBRAs0xH1m7qzxwOWHc9EtMlQMtlPJj2L0pFGwmmdw-bLF8uR1xtzYmaJKX4ujgozjgJ7amhyuyOINXHlgBZI-ZvHLjQeCxyR9zwO0Y6BGXtB2VN-8hz6-Tk3iqs8YgFuS93z6cS7yRH-1e4sr2BC4YCjAdH8i7cWOHaJS7CQ8-1soa6_dCuTca6uykIidkp6UnRTWg2WsCubAfQvblCjjk30bOd2GVFzBqxq8Mlv8sEQcs7cglip5ywWCVB96k8RP2Xn7vdEwWifxxI4Kfv934uBf5iB6b5LuIJ5S06DPMCuc", "results": [{"business_status": "OPERATIONAL", "geometry": {"location": {"lat": 23.7881075, "lng": 86.4189375}, "viewport": {"northeast": {"lat": 23.7895016802915, "lng": 86.42027003029152}, "southwest": {"lat": 23.7868037197085, "lng": 86.41757206970851}}}, "icon": "https://maps.gstatic.com/mapfiles/place_api/icons/v1/png_71/hospital-71.png", "icon_background_color": "#F88181", "icon_mask_base_uri": "https://maps.gstatic.com/mapfiles/place_api/icons/v2/hospital-H_pinlet", "name": "DR.A.K.Sharma", "place_id": "ChIJpcz6q_O99jkRPvnNFvmhPa4", "plus_code": {"compound_code": "QCQ9+6H Dhanbad, Jharkhand, India", "global_code": "7MM8QCQ9+6H"}, "reference": "ChIJpcz6q_O99jkRPvnNFvmhPa4", "scope": "GOOGLE", "types": ["hospital", "health", "point_of_interest", "establishment"], "vicinity": "Dhanbad Chhatabad Road, Bank More, Dhanbad"}, {"business_status": "OPERATIONAL", "geometry": {"location": {"lat": 23.7836889, "lng": 86.4213209}, "viewport": {"northeast": {"lat": 23.7849690302915, "lng": 86.4227587802915}, "southwest": {"lat": 23.7822710697085, "lng": 86.4200608197085}}}, "icon": "https://maps.gstatic.com/mapfiles/place_api/icons/v1/png_71/hospital-71.png", "icon_background_color": "#F88181", "icon_mask_base_uri": "https://maps.gstatic.com/mapfiles/place_api/icons/v2/hospital-H_pinlet", "name": "Raj Clinic & Research centre", "place_id": "ChIJnRRanPC99jkRSWCjt41DpGU", "plus_code": {"compound_code": "QCMC+FG Dhanbad, Jharkhand, India", "global_code": "7MM8QCMC+FG"}, "rating": 2.1, "reference": "ChIJnRRanPC99jkRSWCjt41DpGU", "scope": "GOOGLE", "types": ["hospital", "health", "point_of_interest", "establishment"], "user_ratings_total": 7, "vicinity": "Joraphatak Road, Purana Bazar Main Road, Dhanbad"}, {"business_status": "OPERATIONAL", "geometry": {"location": {"lat": 23.7836889, "lng": 86.4213209}, "viewport": {"northeast": {"lat": 23.7849690302915, "lng": 86.4227587802915}, "southwest": {"lat": 23.7822710697085, "lng": 86.4200608197085}}}, "icon": "https://maps.gstatic.com/mapfiles/place_api/icons/v1/png_71/hospital-71.png", "icon_background_color": "#F88181", "icon_mask_base_uri": "https://maps.gstatic.com/mapfiles/place_api/icons/v2/hospital-H_pinlet", "name": "SINGHANIA DISTRIBURORS", "place_id": "ChIJjeFJx1S99jkRXNiUtziMXdY", "plus_code": {"compound_code": "QCMC+FG Dhanbad, Jharkhand, India", "global_code": "7MM8QCMC+FG"}, "reference": "ChIJjeFJx1S99jkRXNiUtziMXdY", "scope": "GOOGLE", "types": ["hospital", "health", "point_of_interest", "establishment"], "vicinity": "Joraphatak Road, Purana Bazar Main Road, Dhanbad"}, {"business_status": "OPERATIONAL", "geometry": {"location": {"lat": 23.7825719, "lng": 86.42848719999999}, "viewport": {"northeast": {"lat": 23.7839140802915, "lng": 86.4298351802915}, "southwest": {"lat": 23.7812161197085, "lng": 86.42713721970848}}}, "icon": "https://maps.gstatic.com/mapfiles/place_api/icons/v1/png_71/hospital-71.png", "icon_background_color": "#F88181", "icon_mask_base_uri": "https://maps.gstatic.com/mapfiles/place_api/icons/v2/hospital-H_pinlet", "name": "Sugga Devi Balram Mishra Memorial Trust", "photos": [{"height": 581, "html_attributions": ["<a href=\"https://maps.google.com/maps/contrib/108142360876904899644\">Unbelievable World</a>"], "photo_reference": "Aap_uEAiNV4KKZzyuktaHl-hM1D6lonC4FPvM2DaiF6uREnXmnQcBYFdsOYdFHOSxgj6KLvxKOdYbucrWZPJ3qObbDZ5g1ChzDhujTxr5P_UuuUabi4HdE1xSje17F6GUUO0ejNzk-BBHQD77D2GPXaMni2UZ9V4vCLsgaLsQnLmARRmj_WC", "width": 1032}], "place_id": "ChIJ0YrY8M-89jkRzqh_4vdorEE", "plus_code": {"compound_code": "QCMH+29 Dhanbad, Jharkhand, India", "global_code": "7MM8QCMH+29"}, "rating": 5, "reference": "ChIJ0YrY8M-89jkRzqh_4vdorEE", "scope": "GOOGLE", "types": ["hospital", "health", "point_of_interest", "establishment"], "user_ratings_total": 1, "vicinity": "Dhanbad"}, {"business_status": "OPERATIONAL", "geometry": {"location": {"lat": 23.7881328, "lng": 86.4185196}, "viewport": {"northeast": {"lat": 23.7895149802915, "lng": 86.4198681802915}, "southwest": {"lat": 23.78681701970849, "lng": 86.4171702197085}}}, "icon": "https://maps.gstatic.com/mapfiles/place_api/icons/v1/png_71/hospital-71.png", "icon_background_color": "#F88181", "icon_mask_base_uri": "https://maps.gstatic.com/mapfiles/place_api/icons/v2/hospital-H_pinlet", "name": "Shree shyam medicals", "opening_hours": {"open_now": true}, "photos": [{"height": 4160, "html_attributions": ["<a href=\"https://maps.google.com/maps/contrib/105099439847237204906\">Shree shyam medicals</a>"], "photo_reference": "Aap_uECiK8UgZOFd9F0eujB1qb9XbEbEYRai7Cs1IsVxMwLtVV9Sto5nlS6EwGjGQDy1lxHukL7McRSEtRGpwMXL6owZi2arCV-leaa8BwX5eMEwkLM5FrLdhfLrLHVohmrYHOBIVt6NQ0EAPwKM1087FVFWg3t9JXHwPo1d0mGAYG9cmQLg", "width": 3120}], "place_id": "ChIJ0wocYq2j9jkRayF9S9AgjiM", "plus_code": {"compound_code": "QCQ9+7C Dhanbad, Jharkhand, India", "global_code": "7MM8QCQ9+7C"}, "reference": "ChIJ0wocYq2j9jkRayF9S9AgjiM", "scope": "GOOGLE", "types": ["hospital", "health", "point_of_interest", "establishment"], "vicinity": "Tiwari gali, Bank More, Dhanbad"}, {"business_status": "OPERATIONAL", "geometry": {"location": {"lat": 23.7838117, "lng": 86.4199091}, "viewport": {"northeast": {"lat": 23.78512013029151, "lng": 86.4212386302915}, "southwest": {"lat": 23.7824221697085, "lng": 86.41854066970849}}}, "icon": "https://maps.gstatic.com/mapfiles/place_api/icons/v1/png_71/hospital-71.png", "icon_background_color": "#F88181", "icon_mask_base_uri": "https://maps.gstatic.com/mapfiles/place_api/icons/v2/hospital-H_pinlet", "name": "Dr U N Sahana", "place_id": "ChIJl4BoIs289jkRfs16FNj66fU", "plus_code": {"compound_code": "QCM9+GX Dhanbad, Jharkhand, India", "global_code": "7MM8QCM9+GX"}, "rating": 4, "reference": "ChIJl4BoIs289jkRfs16FNj66fU", "scope": "GOOGLE", "types": ["hospital", "health", "point_of_interest", "establishment"], "user_ratings_total": 1, "vicinity": "telephon exchange road"}, {"business_status": "OPERATIONAL", "geometry": {"location": {"lat": 23.7956531, "lng": 86.43038589999999}, "viewport": {"northeast": {"lat": 23.7970128802915, "lng": 86.4317063302915}, "southwest": {"lat": 23.7943149197085, "lng": 86.4290083697085}}}, "icon": "https://maps.gstatic.com/mapfiles/place_api/icons/v1/png_71/hospital-71.png", "icon_background_color": "#F88181", "icon_mask_base_uri": "https://maps.gstatic.com/mapfiles/place_api/icons/v2/hospital-H_pinlet", "name": "Sunjeevani Nursing Home", "opening_hours": {"open_now": true}, "place_id": "ChIJJQBlRri89jkRi4ZoiiAZTuA", "rating": 5, "reference": "ChIJJQBlRri89jkRi4ZoiiAZTuA", "scope": "GOOGLE", "types": ["hospital", "health", "point_of_interest", "establishment"], "user_ratings_total": 2, "vicinity": "Mukunda, Pandey Muhalla, Dhanbad"}, {"business_status": "OPERATIONAL", "geometry": {"location": {"lat": 23.782671, "lng": 86.4203795}, "viewport": {"northeast": {"lat": 23.7839445302915, "lng": 86.4218254802915}, "southwest": {"lat": 23.7812465697085, "lng": 86.41912751970848}}}, "icon": "https://maps.gstatic.com/mapfiles/place_api/icons/v1/png_71/hospital-71.png", "icon_background_color": "#F88181", "icon_mask_base_uri": "https://maps.gstatic.com/mapfiles/place_api/icons/v2/hospital-H_pinlet", "name": "Jharkhand Diabetic And Eye Centre", "place_id": "ChIJPS5rbM289jkRZESH0wMC4iU", "plus_code": {"compound_code": "QCMC+35 Dhanbad, Jharkhand, India", "global_code": "7MM8QCMC+35"}, "reference": "ChIJPS5rbM289jkRZESH0wMC4iU", "scope": "GOOGLE", "types": ["hospital", "health", "point_of_interest", "establishment"], "vicinity": "Joraphatak Road, Dhanbad"}, {"business_status": "OPERATIONAL", "geometry": {"location": {"lat": 23.79242, "lng": 86.4175028}, "viewport": {"northeast": {"lat": 23.7937552802915, "lng": 86.4188393802915}, "southwest": {"lat": 23.7910573197085, "lng": 86.4161414197085}}}, "icon": "https://maps.gstatic.com/mapfiles/place_api/icons/v1/png_71/hospital-71.png", "icon_background_color": "#F88181", "icon_mask_base_uri": "https://maps.gstatic.com/mapfiles/place_api/icons/v2/hospital-H_pinlet", "name": "Rose Medical Hall (Chemists And Druggists)", "opening_hours": {"open_now": true}, "photos": [{"height": 2592, "html_attributions": ["<a href=\"https://maps.google.com/maps/contrib/107076320419392658440\">Rose Medical Hall (Chemists And Druggists)</a>"], "photo_reference": "Aap_uEC33g2ySop5zit0gZAnAIwqs6WAMd5mV19uVEwJZl98G_0oa2cXlPWYV769Ce5tFfnB-nzbQmw609jufK2UKITNPihh1BaCi1kZtHf3rS1iesy8PhVrIjCy4hwm8qvAtjPwi0Vti_fvw7DMVuKCpetzrpcrdGz_5OUCABm2NJwjVE0t", "width": 4608}], "place_id": "ChIJd_iZQjWj9jkRnh3-e5BT0q8", "plus_code": {"compound_code": "QCR9+X2 Dhanbad, Jharkhand, India", "global_code": "7MM8QCR9+X2"}, "rating": 5, "reference": "ChIJd_iZQjWj9jkRnh3-e5BT0q8", "scope": "GOOGLE", "types": ["hospital", "health", "point_of_interest", "establishment"], "user_ratings_total": 4, "vicinity": "Bhuli Road, Ali Nagar, Wassepur, Dhanbad"}, {"business_status": "OPERATIONAL", "geometry": {"location": {"lat": 23.7820076, "lng": 86.4202627}, "viewport": {"northeast": {"lat": 23.7833714302915, "lng": 86.42165018029151}, "southwest": {"lat": 23.7806734697085, "lng": 86.41895221970849}}}, "icon": "https://maps.gstatic.com/mapfiles/place_api/icons/v1/png_71/generic_business-71.png", "icon_background_color": "#7B9EB0", "icon_mask_base_uri": "https://maps.gstatic.com/mapfiles/place_api/icons/v2/generic_pinlet", "name": "Navjyoti Netralaya", "opening_hours": {"open_now": true}, "photos": [{"height": 3439, "html_attributions": ["<a href=\"https://maps.google.com/maps/contrib/106647004460079097922\">Navjyoti Netralaya</a>"], "photo_reference": "Aap_uECFeVN757Jl9_oPHfRUj7ncCLptYXi0_gmZXCBrjXbmop50sFEO0LJ-UiTNn8C1rr9qc_OX361TnK1j_JhsF1u0gimL09UvbxNel-ZpE6BadTP-I0LWfklHoSz-duY-4s0B4yMB1ZccCRkz4Ny4QVBtIE6UINsh04V2FtuTUZzOQHWO", "width": 4338}], "place_id": "ChIJGRmmZs289jkRwF6vnOLGFtc", "plus_code": {"compound_code": "QCJC+R4 Dhanbad, Jharkhand, India", "global_code": "7MM8QCJC+R4"}, "rating": 3.6, "reference": "ChIJGRmmZs289jkRwF6vnOLGFtc", "scope": "GOOGLE", "types": ["hospital", "doctor", "health", "point_of_interest", "establishment"], "user_ratings_total": 52, "vicinity": "Jora Phatak Road (Near Shakti Mandir), Dhanbad"}, {"business_status": "OPERATIONAL", "geometry": {"location": {"lat": 23.7820807, "lng": 86.4201451}, "viewport": {"northeast": {"lat": 23.7834329302915, "lng": 86.4214898302915}, "southwest": {"lat": 23.78073496970849, "lng": 86.4187918697085}}}, "icon": "https://maps.gstatic.com/mapfiles/place_api/icons/v1/png_71/hospital-71.png", "icon_background_color": "#F88181", "icon_mask_base_uri": "https://maps.gstatic.com/mapfiles/place_api/icons/v2/hospital-H_pinlet", "name": "Prime Opticals", "photos": [{"height": 4248, "html_attributions": ["<a href=\"https://maps.google.com/maps/contrib/110879634524304241940\">Mohan Kanoria</a>"], "photo_reference": "Aap_uEC-OU1SeDW5V9M1IJLMCow7tQ4P3gC2k7tpsi2-8cSiQtWm8sqQyOLsoQ09c_P9ZqMjRZQQICw9QmawFEYJrrSXcjIUGep0Jgvrq062t17xg_Vk64GYlEpnkgPnMNG5gvn2LVPNTuwGUhwvCk6D6v31vQRK6BGuo8AKKu7osFi_00wb", "width": 5664}], "place_id": "ChIJq6PJcZu99jkRB2DqaLbQffs", "plus_code": {"compound_code": "QCJC+R3 Dhanbad, Jharkhand, India", "global_code": "7MM8QCJC+R3"}, "rating": 5, "reference": "ChIJq6PJcZu99jkRB2DqaLbQffs", "scope": "GOOGLE", "types": ["hospital", "health", "point_of_interest", "establishment"], "user_ratings_total": 1, "vicinity": "Shakti Mandir Road, Dhanbad"}, {"business_status": "OPERATIONAL", "geometry": {"location": {"lat": 23.7892208, "lng": 86.4159156}, "viewport": {"northeast": {"lat": 23.7903457302915, "lng": 86.41720258029152}, "southwest": {"lat": 23.7876477697085, "lng": 86.4145046197085}}}, "icon": "https://maps.gstatic.com/mapfiles/place_api/icons/v1/png_71/hospital-71.png", "icon_background_color": "#F88181", "icon_mask_base_uri": "https://maps.gstatic.com/mapfiles/place_api/icons/v2/hospital-H_pinlet", "name": "Dhanbad Nursing Home Pvt. Ltd.", "opening_hours": {"open_now": true}, "photos": [{"height": 1280, "html_attributions": ["<a href=\"https://maps.google.com/maps/contrib/115145336928567524451\">PRINCE PRASAD</a>"], "photo_reference": "Aap_uEA2VfwqDrEoDAZBy6XB3Oc8qupffkrgiMim7Vvo_Va32egTKAKp06AYdY1hIOVxciT3MIdW50Cv6v8TW1408OdZzumuBVJSrdRk3CJTWcbx2F_lg_SNmg16TWQeRUn42YgON5EWCx_cZv2lx7Q3N5uudVjRDx0cvpJRUqhmfaTo4IcC", "width": 720}], "place_id": "ChIJoRJbWTSj9jkRwQLAuL_eQD4", "plus_code": {"compound_code": "QCQ8+M9 Dhanbad, Jharkhand, India", "global_code": "7MM8QCQ8+M9"}, "rating": 4, "reference": "ChIJoRJbWTSj9jkRwQLAuL_eQD4", "scope": "GOOGLE", "types": ["hospital", "health", "point_of_interest", "establishment"], "user_ratings_total": 12, "vicinity": "Beside Bara Gurdwara, 2, Katras Road, Bank More, Dhanbad"}, {"business_status": "OPERATIONAL", "geometry": {"location": {"lat": 23.7886079, "lng": 86.4157312}, "viewport": {"northeast": {"lat": 23.7899168802915, "lng": 86.41706773029149}, "southwest": {"lat": 23.78721891970849, "lng": 86.41436976970849}}}, "icon": "https://maps.gstatic.com/mapfiles/place_api/icons/v1/png_71/hospital-71.png", "icon_background_color": "#F88181", "icon_mask_base_uri": "https://maps.gstatic.com/mapfiles/place_api/icons/v2/hospital-H_pinlet", "name": "THAKUR POLY CLINIC", "photos": [{"height": 4160, "html_attributions": ["<a href=\"https://maps.google.com/maps/contrib/101374374296909478982\">Ishraque Ahmed</a>"], "photo_reference": "Aap_uEB9yx6lfYtZeoKOAoDA_7uUxZEhwSsIOzp_nGizw48Ssz4I1OcE9Bxnm9eQINbDH69j3ZG0jw4yWeeyRLMrIOvW5Ac45svgSsDib1cm34HRAGi5GTO6T9kcGH6708e8G75vMkI4VLLxIC6FucLgcOgU4Jo5bIiM69PMHzxyr738zrOc", "width": 3120}], "place_id": "ChIJCaLO6q6j9jkRdY7dPDrNjKM", "rating": 5, "reference": "ChIJCaLO6q6j9jkRdY7dPDrNjKM", "scope": "GOOGLE", "types": ["hospital", "health", "point_of_interest", "establishment"], "user_ratings_total": 1, "vicinity": "QCQ8+C7X, Bank More, Dhanbad"}, {"business_status": "OPERATIONAL", "geometry": {"location": {"lat": 23.781569, "lng": 86.41950299999999}, "viewport": {"northeast": {"lat": 23.7828680802915, "lng": 86.4209186302915}, "southwest": {"lat": 23.7801701197085, "lng": 86.41822066970849}}}, "icon": "https://maps.gstatic.com/mapfiles/place_api/icons/v1/png_71/hospital-71.png", "icon_background_color": "#F88181", "icon_mask_base_uri": "https://maps.gstatic.com/mapfiles/place_api/icons/v2/hospital-H_pinlet", "name": "POPULAR NURSING HOME", "opening_hours": {"open_now": true}, "photos": [{"height": 1080, "html_attributions": ["<a href=\"https://maps.google.com/maps/contrib/117667807627154768264\">Ravi Kumar</a>"], "photo_reference": "Aap_uEC667Cev6f0PUs8HFPR06XnQwF4DWlo81mITaTvaEF7NLXWuwzizqidH1q4yWTRb9OCZLZM8g-jTRj26oMU4B6l1QytRPd9ZKmHRapM_cQzmEHPxAbQ44RVBNguLcuYKZjTGPZcFZLSfHGszB2uhm8UmP4YD5HSlNUvfBi6GIEdab4z", "width": 1920}], "place_id": "ChIJqdTsXs289jkRzMY4KO1Yz_E", "plus_code": {"compound_code": "QCJ9+JR Dhanbad, Jharkhand, India", "global_code": "7MM8QCJ9+JR"}, "rating": 3.5, "reference": "ChIJqdTsXs289jkRzMY4KO1Yz_E", "scope": "GOOGLE", "types": ["hospital", "health", "point_of_interest", "establishment"], "user_ratings_total": 32, "vicinity": "Near Shakti Mandir, Joraphatak Road, Bank More, Dhanbad"}, {"business_status": "OPERATIONAL", "geometry": {"location": {"lat": 23.7814289, "lng": 86.41964089999999}, "viewport": {"northeast": {"lat": 23.7827761302915, "lng": 86.4209921302915}, "southwest": {"lat": 23.7800781697085, "lng": 86.41829416970849}}}, "icon": "https://maps.gstatic.com/mapfiles/place_api/icons/v1/png_71/hospital-71.png", "icon_background_color": "#F88181", "icon_mask_base_uri": "https://maps.gstatic.com/mapfiles/place_api/icons/v2/hospital-H_pinlet", "name": "AVINASH HOSPITAL", "opening_hours": {"open_now": true}, "photos": [{"height": 810, "html_attributions": ["<a href=\"https://maps.google.com/maps/contrib/112158487874664667523\">AVINASH HOSPITAL</a>"], "photo_reference": "Aap_uEA5iIkD_TcbeXZOWuPZIq0rswndP-BVPB8YUA6xGGp9H99PaQ5xKy_HB77W4txZQHt3Wq5YX0uPlDlS2yCoHi3Cjia-pC7wB6yexiXV_0MH-GM1o1DEp7ZcW7RwMsux_pMp4B6F4__JAeSCxjtgJEddwXAZPZVLyTMhvzWBomG6z3bf", "width": 1440}], "place_id": "ChIJXSKMrF299jkRmT-W24CwJyY", "plus_code": {"compound_code": "QCJ9+HV Dhanbad, Jharkhand, India", "global_code": "7MM8QCJ9+HV"}, "rating": 4.8, "reference": "ChIJXSKMrF299jkRmT-W24CwJyY", "scope": "GOOGLE", "types": ["hospital", "health", "point_of_interest", "establishment"], "user_ratings_total": 25, "vicinity": "Shakti Mandir Road, Dhanbad"}, {"business_status": "OPERATIONAL", "geometry": {"location": {"lat": 23.792233, "lng": 86.435958}, "viewport": {"northeast": {"lat": 23.7934823802915, "lng": 86.4371552802915}, "southwest": {"lat": 23.79078441970849, "lng": 86.4344573197085}}}, "icon": "https://maps.gstatic.com/mapfiles/place_api/icons/v1/png_71/hospital-71.png", "icon_background_color": "#F88181", "icon_mask_base_uri": "https://maps.gstatic.com/mapfiles/place_api/icons/v2/hospital-H_pinlet", "name": "Divisional Hospital", "opening_hours": {"open_now": true}, "photos": [{"height": 3456, "html_attributions": ["<a href=\"https://maps.google.com/maps/contrib/102012752912933757299\">Nitishraj Mahato</a>"], "photo_reference": "Aap_uEDIdTGlwc3pwe0uOFsyc31qdYO-nnJkz6B0x07cAhdOO7ACtCASOxW7GTh4u6rHog-eO-faYy9ekeluWK9KW_7T1F8ivYyJVHNViy5Gr3UxBqtmBcISQuCzsol3P8CxdEwWwTlpuZH-ozML9JpNofRP3YszX31RC3y3jx_RQhn0l9yw", "width": 4608}], "place_id": "ChIJM64rjcC89jkRkMW-qrmb7po", "plus_code": {"compound_code": "QCRP+V9 Dhanbad, Jharkhand, India", "global_code": "7MM8QCRP+V9"}, "rating": 3.8, "reference": "ChIJM64rjcC89jkRkMW-qrmb7po", "scope": "GOOGLE", "types": ["hospital", "health", "point_of_interest", "establishment"], "user_ratings_total": 12, "vicinity": "East Central Railway, Dhanbad"}, {"business_status": "OPERATIONAL", "geometry": {"location": {"lat": 23.784683, "lng": 86.41644939999999}, "viewport": {"northeast": {"lat": 23.78597463029151, "lng": 86.4179167302915}, "southwest": {"lat": 23.7832766697085, "lng": 86.41521876970849}}}, "icon": "https://maps.gstatic.com/mapfiles/place_api/icons/v1/png_71/hospital-71.png", "icon_background_color": "#F88181", "icon_mask_base_uri": "https://maps.gstatic.com/mapfiles/place_api/icons/v2/hospital-H_pinlet", "name": "Kalawati Devi eye Hospita", "opening_hours": {"open_now": true}, "photos": [{"height": 1080, "html_attributions": ["<a href=\"https://maps.google.com/maps/contrib/114889101201431926284\">IDS PVT. LTD.</a>"], "photo_reference": "Aap_uEDXF8XO-L7zMVG7WQsuUc-dDV3mmlGiOBUVS1z1rOeTn9lpIH697s3iKkTcAVOqkhXz3jIQEoDlnPBq9EmLqky2rkWdHianeOmHHZWNpYb1aov5DlK9Gv4a1_Dba9-KPFUhMJavKpX9t1--HKwuIN1DLBQac3KhTtEs2mdz7R7qmMTL", "width": 1920}], "place_id": "ChIJE1CC7Dqj9jkRv6lNafsxJfE", "plus_code": {"compound_code": "QCM8+VH Dhanbad, Jharkhand, India", "global_code": "7MM8QCM8+VH"}, "rating": 5, "reference": "ChIJE1CC7Dqj9jkRv6lNafsxJfE", "scope": "GOOGLE", "types": ["hospital", "health", "point_of_interest", "establishment"], "user_ratings_total": 9, "vicinity": "behinde laxmi petrol pump, Shastri Nagar, Dhanbad"}, {"business_status": "OPERATIONAL", "geometry": {"location": {"lat": 23.7857559, "lng": 86.4156725}, "viewport": {"northeast": {"lat": 23.7871349802915, "lng": 86.41698388029151}, "southwest": {"lat": 23.78443701970849, "lng": 86.41428591970849}}}, "icon": "https://maps.gstatic.com/mapfiles/place_api/icons/v1/png_71/hospital-71.png", "icon_background_color": "#F88181", "icon_mask_base_uri": "https://maps.gstatic.com/mapfiles/place_api/icons/v2/hospital-H_pinlet", "name": "Dr. V. K. Agarwal pediatric", "place_id": "ChIJv3pEYhuj9jkRZSEbJAc7aPA", "plus_code": {"compound_code": "QCP8+87 Dhanbad, Jharkhand, India", "global_code": "7MM8QCP8+87"}, "rating": 3.6, "reference": "ChIJv3pEYhuj9jkRZSEbJAc7aPA", "scope": "GOOGLE", "types": ["hospital", "health", "point_of_interest", "establishment"], "user_ratings_total": 8, "vicinity": "Unnamed Road, Shastri Nagar, Dhanbad"}, {"business_status": "OPERATIONAL", "geometry": {"location": {"lat": 23.7809548, "lng": 86.41894769999999}, "viewport": {"northeast": {"lat": 23.7822515802915, "lng": 86.4203685302915}, "southwest": {"lat": 23.77955361970849, "lng": 86.41767056970849}}}, "icon": "https://maps.gstatic.com/mapfiles/place_api/icons/v1/png_71/hospital-71.png", "icon_background_color": "#F88181", "icon_mask_base_uri": "https://maps.gstatic.com/mapfiles/place_api/icons/v2/hospital-H_pinlet", "name": "Hindustan Medical", "opening_hours": {"open_now": true}, "photos": [{"height": 1440, "html_attributions": ["<a href=\"https://maps.google.com/maps/contrib/115488112825634544522\">Hindustan Medical</a>"], "photo_reference": "Aap_uEAezi1IQvYexFSnUPF9J0j4Cl2Ii5euC0zlUDv6DEvWWhKZaqBSVJMQo4Jc_SE6GORJUJwFK3rZmCtYI5QH4eFIVwifxBRXaG9EkKh31xb376YfK2tgzpLA_Bs6rAxsaI6SrKlIppuy9ThRcesePE5Zc0-DCe0mcI4tjK0e_BND9J8g", "width": 1920}], "place_id": "ChIJewsHrdK89jkRqUH-uAi9_f8", "plus_code": {"compound_code": "QCJ9+9H Dhanbad, Jharkhand, India", "global_code": "7MM8QCJ9+9H"}, "rating": 3.3, "reference": "ChIJewsHrdK89jkRqUH-uAi9_f8", "scope": "GOOGLE", "types": ["hospital", "health", "point_of_interest", "establishment"], "user_ratings_total": 6, "vicinity": "near Shaki Mandir, Joraphatak Road, Dhanbad"}, {"business_status": "OPERATIONAL", "geometry": {"location": {"lat": 23.7830616, "lng": 86.4161748}, "viewport": {"northeast": {"lat": 23.7844412302915, "lng": 86.4175370302915}, "southwest": {"lat": 23.7817432697085, "lng": 86.41483906970849}}}, "icon": "https://maps.gstatic.com/mapfiles/place_api/icons/v1/png_71/generic_business-71.png", "icon_background_color": "#7B9EB0", "icon_mask_base_uri": "https://maps.gstatic.com/mapfiles/place_api/icons/v2/generic_pinlet", "name": "Dr Gaurav Patodia - Plastic Surgeon, Reconstructive and Hand Surgeon, Cosmetic Surgeon", "opening_hours": {"open_now": false}, "photos": [{"height": 750, "html_attributions": ["<a href=\"https://maps.google.com/maps/contrib/114533806774118946743\">Dr Gaurav Patodia - Plastic Surgeon, Reconstructive and Hand Surgeon, Cosmetic Surgeon</a>"], "photo_reference": "Aap_uECblh82-dKkfImGDpxBvL4vkASX5PZ97Tg61-P6hHZO9P0LhDcGtICBCNlvav-WGEr8R60Ec-13QEXiZ3gqNv0zTxrITJ8Ptd98vKrFec9e2eArR-9DNck88F5A0-UFdGlrl-A7RPc8-yGT7EmTpnHhBVFfiYY9Gxc9l6pJmjt8MTJO", "width": 750}], "place_id": "ChIJb-K2fTK99jkRzH7C06cgiVM", "plus_code": {"compound_code": "QCM8+6F Dhanbad, Jharkhand, India", "global_code": "7MM8QCM8+6F"}, "rating": 5, "reference": "ChIJb-K2fTK99jkRzH7C06cgiVM", "scope": "GOOGLE", "types": ["hospital", "doctor", "health", "point_of_interest", "establishment"], "user_ratings_total": 8, "vicinity": "above Karnataka Bank, Dermacure Clinic 1st Floor, above Karnataka Bank, Shastri Nagar, Bank More, Dhanbad"}], "status": "OK"}