{"html_attributions": [], "next_page_token": "Aap_uEBGW5KRgZWpDdbSRpkJFmXvbtQTwQNRUUUkNnuA6_Hb0eRVR4uhmKIUO24DroxKn_jdIjRv3RYAX8ZDmrpJln-jWNgZOSlg00EzqXEW669JkBvfY7QILTkUVyNgPS4y4sAz-NvyXsJ8_tMOAFKHTgJjEcikYpRfy0_zvxsS2dG9ATfOex8EB5bVyzJa-PxwgL_IrkmEYtjoAYcCjwqGi5skuey1cpACI6Jfk1qbZ2mr4Sq4I1rEXgNwo4YiX8uq03S_b3Mt-ICw7mjyFnb0mMgffmQf7T7n4vlLogI-7WUMjnn06qi7oV_OnMcGmRF8qgbxZoItkb_27ry3mCjYU1_rJlAqbICdHJkSVC9gcqjo3f4fEvwBSMtIth-aVCMtg226GyUaoD40oLwcsUDMqInqdQ8c9lHM3jkhCHRWyuKfzKls70g5fE1QGiFhCQy3BbekuTXB09Gc0xq8E2LzkNxRrwMtmDZTitOuU6bwYH8vg9ITQsnvdqMSqO0JsxvJGzXJQtizUYCb4hDbOK2aCB8H2M3bcwEqI-zVd65ecQlT_EV9Qe2Nc8HjupFXrDoMf6KEBhjII-4EO6UsGJknN2WJ8HYqtEhl-WEYo7DBa3WCFfyHsOWbgvM-amNYmlCkPCM9OMkS1E8", "results": [{"business_status": "OPERATIONAL", "geometry": {"location": {"lat": 23.8111127, "lng": 86.4534884}, "viewport": {"northeast": {"lat": 23.8124166802915, "lng": 86.4548261802915}, "southwest": {"lat": 23.8097187197085, "lng": 86.45212821970848}}}, "icon": "https://maps.gstatic.com/mapfiles/place_api/icons/v1/png_71/hospital-71.png", "icon_background_color": "#F88181", "icon_mask_base_uri": "https://maps.gstatic.com/mapfiles/place_api/icons/v2/hospital-H_pinlet", "name": "Drd.kN.mlttal Clinic", "opening_hours": {"open_now": false}, "place_id": "ChIJW8oNEIS89jkRvtFn3Mg2PwI", "plus_code": {"compound_code": "RF63+C9 Dhanbad, Jharkhand, India", "global_code": "7MM8RF63+C9"}, "reference": "ChIJW8oNEIS89jkRvtFn3Mg2PwI", "scope": "GOOGLE", "types": ["hospital", "health", "point_of_interest", "establishment"], "vicinity": "Kusum Vihar, Murli Nagar, Dhanbad"}, {"business_status": "OPERATIONAL", "geometry": {"location": {"lat": 23.8018465, "lng": 86.44466279999999}, "viewport": {"northeast": {"lat": 23.8032382302915, "lng": 86.44593823029149}, "southwest": {"lat": 23.8005402697085, "lng": 86.44324026970848}}}, "icon": "https://maps.gstatic.com/mapfiles/place_api/icons/v1/png_71/hospital-71.png", "icon_background_color": "#F88181", "icon_mask_base_uri": "https://maps.gstatic.com/mapfiles/place_api/icons/v2/hospital-H_pinlet", "name": "Ritu health care Pvt Ltd", "place_id": "ChIJ7-lPsu-99jkRCr4o34mJVt4", "plus_code": {"compound_code": "RC2V+PV Dhanbad, Jharkhand, India", "global_code": "7MM8RC2V+PV"}, "reference": "ChIJ7-lPsu-99jkRCr4o34mJVt4", "scope": "GOOGLE", "types": ["pharmacy", "hospital", "health", "point_of_interest", "store", "establishment"], "vicinity": "101/102, Suryatoran Apartment, JC Mallick Road, CMPF Colony, Dhanbad"}, {"business_status": "OPERATIONAL", "geometry": {"location": {"lat": 23.80176730000001, "lng": 86.44427999999999}, "viewport": {"northeast": {"lat": 23.8030899302915, "lng": 86.4456090802915}, "southwest": {"lat": 23.8003919697085, "lng": 86.4429111197085}}}, "icon": "https://maps.gstatic.com/mapfiles/place_api/icons/v1/png_71/hospital-71.png", "icon_background_color": "#F88181", "icon_mask_base_uri": "https://maps.gstatic.com/mapfiles/place_api/icons/v2/hospital-H_pinlet", "name": "RITU HEALTH CLINIC, Hirapur, Dhanbad, Jharkhand", "opening_hours": {"open_now": false}, "photos": [{"height": 780, "html_attributions": ["<a href=\"https://maps.google.com/maps/contrib/110773063613469534489\">RITU HEALTH CLINIC, Hirapur, Dhanbad, Jharkhand</a>"], "photo_reference": "Aap_uEC-5aaezCkgELggqTeLW9U9rfL_-EYHtjtP8Dy4FfQkvIN1i4O0eWjn08VHaIpUfcYh2Q33O7mjFQ6DDLvASrRcXFIXfr_J-8gLELISubtxJkvfy-g_lUZGtqY8yeot7V7ecv3aHHfn61bx7Ju8BasQoNpnXJwSEjmAXduB6-WRDXj1", "width": 1040}], "place_id": "ChIJ59sB-aG89jkRICpCF1M7d9Q", "plus_code": {"compound_code": "RC2V+PP Dhanbad, Jharkhand, India", "global_code": "7MM8RC2V+PP"}, "rating": 3, "reference": "ChIJ59sB-aG89jkRICpCF1M7d9Q", "scope": "GOOGLE", "types": ["hospital", "health", "point_of_interest", "establishment"], "user_ratings_total": 4, "vicinity": "DURGA MANDIR ROAD NO-2, HIRAPUR PUR, Dhanbad"}, {"business_status": "OPERATIONAL", "geometry": {"location": {"lat": 23.815023, "lng": 86.451307}, "viewport": {"northeast": {"lat": 23.8164527802915, "lng": 86.4526082302915}, "southwest": {"lat": 23.8137548197085, "lng": 86.4499102697085}}}, "icon": "https://maps.gstatic.com/mapfiles/place_api/icons/v1/png_71/hospital-71.png", "icon_background_color": "#F88181", "icon_mask_base_uri": "https://maps.gstatic.com/mapfiles/place_api/icons/v2/hospital-H_pinlet", "name": "Nayan Sukh Netralaya", "place_id": "ChIJiXt__oK89jkR-A-KD8awwsU", "reference": "ChIJiXt__oK89jkR-A-KD8awwsU", "scope": "GOOGLE", "types": ["hospital", "health", "point_of_interest", "establishment"], "vicinity": "RF82+2G3"}, {"business_status": "OPERATIONAL", "geometry": {"location": {"lat": 23.8051079, "lng": 86.4386229}, "viewport": {"northeast": {"lat": 23.80675278029151, "lng": 86.4400245302915}, "southwest": {"lat": 23.8040548197085, "lng": 86.43732656970849}}}, "icon": "https://maps.gstatic.com/mapfiles/place_api/icons/v1/png_71/hospital-71.png", "icon_background_color": "#F88181", "icon_mask_base_uri": "https://maps.gstatic.com/mapfiles/place_api/icons/v2/hospital-H_pinlet", "name": "Bhushan Ortho Clinic", "opening_hours": {"open_now": false}, "place_id": "ChIJlyMDXGy99jkRqNBcIn5tD8g", "plus_code": {"compound_code": "RC4Q+2C Dhanbad, Jharkhand, India", "global_code": "7MM8RC4Q+2C"}, "rating": 5, "reference": "ChIJlyMDXGy99jkRqNBcIn5tD8g", "scope": "GOOGLE", "types": ["hospital", "health", "point_of_interest", "establishment"], "user_ratings_total": 1, "vicinity": "8, Housing Colony Road, Sardar Patel Nagar, Dhanbad"}, {"business_status": "OPERATIONAL", "geometry": {"location": {"lat": 23.8148581, "lng": 86.45162189999999}, "viewport": {"northeast": {"lat": 23.8161417802915, "lng": 86.4529417302915}, "southwest": {"lat": 23.8134438197085, "lng": 86.45024376970849}}}, "icon": "https://maps.gstatic.com/mapfiles/place_api/icons/v1/png_71/hospital-71.png", "icon_background_color": "#F88181", "icon_mask_base_uri": "https://maps.gstatic.com/mapfiles/place_api/icons/v2/hospital-H_pinlet", "name": "Dr Jyotir Bhushan Healthcare And Research Private Limited", "place_id": "ChIJq6qqqoO89jkRtA3ZgvAnlLQ", "reference": "ChIJq6qqqoO89jkRtA3ZgvAnlLQ", "scope": "GOOGLE", "types": ["hospital", "health", "point_of_interest", "establishment"], "vicinity": "RF72+WJX"}, {"business_status": "OPERATIONAL", "geometry": {"location": {"lat": 23.8148581, "lng": 86.45162189999999}, "viewport": {"northeast": {"lat": 23.8161417802915, "lng": 86.4529417302915}, "southwest": {"lat": 23.8134438197085, "lng": 86.45024376970849}}}, "icon": "https://maps.gstatic.com/mapfiles/place_api/icons/v1/png_71/hospital-71.png", "icon_background_color": "#F88181", "icon_mask_base_uri": "https://maps.gstatic.com/mapfiles/place_api/icons/v2/hospital-H_pinlet", "name": "JIMS HOSPITAL - Dr Prakash Singh", "opening_hours": {"open_now": true}, "place_id": "ChIJwYTaBIi99jkRAcyoWKRL1W4", "rating": 5, "reference": "ChIJwYTaBIi99jkRAcyoWKRL1W4", "scope": "GOOGLE", "types": ["hospital", "health", "point_of_interest", "establishment"], "user_ratings_total": 1, "vicinity": "RF72+WJX, Lohar Kulli, Dhanbad"}, {"business_status": "OPERATIONAL", "geometry": {"location": {"lat": 23.8148581, "lng": 86.45162189999999}, "viewport": {"northeast": {"lat": 23.8161417802915, "lng": 86.4529417302915}, "southwest": {"lat": 23.8134438197085, "lng": 86.45024376970849}}}, "icon": "https://maps.gstatic.com/mapfiles/place_api/icons/v1/png_71/hospital-71.png", "icon_background_color": "#F88181", "icon_mask_base_uri": "https://maps.gstatic.com/mapfiles/place_api/icons/v2/hospital-H_pinlet", "name": "MAHALAKSHMI MEDICAL HALL", "place_id": "ChIJ6Xf2qnS99jkRi0WO8pfYMGg", "plus_code": {"compound_code": "RF72+WJ Dhanbad, Jharkhand, India", "global_code": "7MM8RF72+WJ"}, "rating": 5, "reference": "ChIJ6Xf2qnS99jkRi0WO8pfYMGg", "scope": "GOOGLE", "types": ["hospital", "health", "point_of_interest", "establishment"], "user_ratings_total": 1, "vicinity": "P. O. ISM, Lohar Kulli, Dhanbad"}, {"business_status": "OPERATIONAL", "geometry": {"location": {"lat": 23.811811, "lng": 86.4545519}, "viewport": {"northeast": {"lat": 23.8130989802915, "lng": 86.4559195802915}, "southwest": {"lat": 23.81040101970849, "lng": 86.45322161970849}}}, "icon": "https://maps.gstatic.com/mapfiles/place_api/icons/v1/png_71/hospital-71.png", "icon_background_color": "#F88181", "icon_mask_base_uri": "https://maps.gstatic.com/mapfiles/place_api/icons/v2/hospital-H_pinlet", "name": "Shreshtra Netra Chikitsalaya", "opening_hours": {"open_now": true}, "photos": [{"height": 540, "html_attributions": ["<a href=\"https://maps.google.com/maps/contrib/103707735131015842057\">Pankaj Kumar</a>"], "photo_reference": "Aap_uEC1F_1-3fMp1eCy-VKV8Ue9pQuxsRlw5cw-FO0qSPHcs0VT2yKXjPaPFuxRA5I--mBI2QWrPsA8oILUClPK-aLNPbeVJEucrPMjRTqflrGYD0bpk1uquCmMRQTNtoBqmVKxb8AI7YWXqXsmaFLaUJYdVzctu56BwAA59ZNwt_Mzrewz", "width": 960}], "place_id": "ChIJ7Y1ksoa89jkR-e6UKWEGMnc", "plus_code": {"compound_code": "RF63+PR Saraidhella, Jharkhand, India", "global_code": "7MM8RF63+PR"}, "rating": 4.6, "reference": "ChIJ7Y1ksoa89jkR-e6UKWEGMnc", "scope": "GOOGLE", "types": ["hospital", "health", "point_of_interest", "establishment"], "user_ratings_total": 26, "vicinity": "near allhabad bank, Main Road, Lohar Kulli, Saraidhella"}, {"business_status": "OPERATIONAL", "geometry": {"location": {"lat": 23.8055079, "lng": 86.4377046}, "viewport": {"northeast": {"lat": 23.8068509302915, "lng": 86.43910993029151}, "southwest": {"lat": 23.80415296970849, "lng": 86.4364119697085}}}, "icon": "https://maps.gstatic.com/mapfiles/place_api/icons/v1/png_71/hospital-71.png", "icon_background_color": "#F88181", "icon_mask_base_uri": "https://maps.gstatic.com/mapfiles/place_api/icons/v2/hospital-H_pinlet", "name": "SENGAR SKIN CLINIC AND RESERACH CENTRE", "opening_hours": {"open_now": true}, "place_id": "ChIJn7NoppG99jkRc2mX2xkgf2I", "plus_code": {"compound_code": "RC4Q+63 Dhanbad, Jharkhand, India", "global_code": "7MM8RC4Q+63"}, "rating": 2.5, "reference": "ChIJn7NoppG99jkRc2mX2xkgf2I", "scope": "GOOGLE", "types": ["hospital", "health", "point_of_interest", "establishment"], "user_ratings_total": 4, "vicinity": "M.I.G (B) 68, Housing Colony, Sardar Patel Nagar, Dhanbad"}, {"business_status": "OPERATIONAL", "geometry": {"location": {"lat": 23.8162854, "lng": 86.4505659}, "viewport": {"northeast": {"lat": 23.8175868302915, "lng": 86.4519224302915}, "southwest": {"lat": 23.8148888697085, "lng": 86.4492244697085}}}, "icon": "https://maps.gstatic.com/mapfiles/place_api/icons/v1/png_71/hospital-71.png", "icon_background_color": "#F88181", "icon_mask_base_uri": "https://maps.gstatic.com/mapfiles/place_api/icons/v2/hospital-H_pinlet", "name": "Rohit Clinic Urology", "opening_hours": {"open_now": false}, "photos": [{"height": 1080, "html_attributions": ["<a href=\"https://maps.google.com/maps/contrib/118162695228256437037\">Abdul Wazid</a>"], "photo_reference": "Aap_uEDPYqMNVzXfRB1-3USWMbIyeZCKNJLQQ-TjmPgsz_mknSiobW7Klid11weWSWPIWIi1Jga5MLJizuvRItfj_xMjUS8pCadwJ9Q7RJVQ-avMVADLX8gw3YVFc-rt-xSkXJZIBB2at-dhC3C0hqWeQYH9jfrlZ1b5n-6TTbLt7ryztPkh", "width": 1920}], "place_id": "ChIJfagV64K89jkRbQJduQkSELQ", "plus_code": {"compound_code": "RF82+G6 Dhanbad, Jharkhand, India", "global_code": "7MM8RF82+G6"}, "rating": 4.2, "reference": "ChIJfagV64K89jkRbQJduQkSELQ", "scope": "GOOGLE", "types": ["hospital", "health", "point_of_interest", "establishment"], "user_ratings_total": 25, "vicinity": "near delhi public school, New Karmik Nagar, Saraidhela, near delhi public school, Lohar Kulli, Dhanbad"}, {"business_status": "OPERATIONAL", "geometry": {"location": {"lat": 23.8008784, "lng": 86.4434307}, "viewport": {"northeast": {"lat": 23.8021690802915, "lng": 86.44477608029149}, "southwest": {"lat": 23.7994711197085, "lng": 86.44207811970848}}}, "icon": "https://maps.gstatic.com/mapfiles/place_api/icons/v1/png_71/hospital-71.png", "icon_background_color": "#F88181", "icon_mask_base_uri": "https://maps.gstatic.com/mapfiles/place_api/icons/v2/hospital-H_pinlet", "name": "360 PHYSIO CARE MULTI SPECIALITY CLINIC", "opening_hours": {"open_now": true}, "place_id": "ChIJX6pS2BK99jkRK7Fj-XgBnck", "plus_code": {"compound_code": "RC2V+99 Dhanbad, Jharkhand, India", "global_code": "7MM8RC2V+99"}, "rating": 5, "reference": "ChIJX6pS2BK99jkRK7Fj-XgBnck", "scope": "GOOGLE", "types": ["hospital", "health", "point_of_interest", "establishment"], "user_ratings_total": 1, "vicinity": "Madhav Apartment, Durga Mandir Road, Hirapur, Dhanbad"}, {"business_status": "OPERATIONAL", "geometry": {"location": {"lat": 23.8052573, "lng": 86.4376925}, "viewport": {"northeast": {"lat": 23.8066013802915, "lng": 86.43908828029151}, "southwest": {"lat": 23.80390341970849, "lng": 86.4363903197085}}}, "icon": "https://maps.gstatic.com/mapfiles/place_api/icons/v1/png_71/hospital-71.png", "icon_background_color": "#F88181", "icon_mask_base_uri": "https://maps.gstatic.com/mapfiles/place_api/icons/v2/hospital-H_pinlet", "name": "Prudence Eye Hohpital", "photos": [{"height": 3000, "html_attributions": ["<a href=\"https://maps.google.com/maps/contrib/114126634572248132867\">Sristi kumari , 1 , 3C Kumari</a>"], "photo_reference": "Aap_uED52npdQJ2Bn5A5UAfasFUeP0z_4AVc5huxAXUZd-GZiZxa127q9ZuoqlHQGixOKnv1eeAeZpWe44iqIJ16rvFqXr3UtrMyae85c2aHZzItb25wYXbXZBnk9X2SDmr6MhS9BPojQFr7LPDKc_I22XXbTJ5i_yHeVh4m676uDBZs7Dvn", "width": 4000}], "place_id": "ChIJrxv-Nb289jkRszrI3AL2FrE", "rating": 4.8, "reference": "ChIJrxv-Nb289jkRszrI3AL2FrE", "scope": "GOOGLE", "types": ["hospital", "health", "point_of_interest", "establishment"], "user_ratings_total": 4, "vicinity": "RC4Q+434, Sardar Patel Nagar, Dhanbad"}, {"business_status": "OPERATIONAL", "geometry": {"location": {"lat": 23.8008092, "lng": 86.4433373}, "viewport": {"northeast": {"lat": 23.80214683029151, "lng": 86.44468553029151}, "southwest": {"lat": 23.7994488697085, "lng": 86.4419875697085}}}, "icon": "https://maps.gstatic.com/mapfiles/place_api/icons/v1/png_71/generic_business-71.png", "icon_background_color": "#7B9EB0", "icon_mask_base_uri": "https://maps.gstatic.com/mapfiles/place_api/icons/v2/generic_pinlet", "name": "CARDIO DIABETIC MEDICLINIC", "opening_hours": {"open_now": false}, "photos": [{"height": 3120, "html_attributions": ["<a href=\"https://maps.google.com/maps/contrib/110839987665391762988\">ADITYA KUMAR MANDAL.</a>"], "photo_reference": "Aap_uEChpGBO02Sxa5t7MDG0LQKPyE5unLczwHjVyIcYKeFbg7rwael3F_WzUi-nwd_pRuKGRRdjE1tA6yhGLasn94CnfbMHfE78obOKkkwiWPEcRL9WzOVs-6miVu5m9IABpWnGqgXReYy0boJL3DCprubh7tL9kZvrOL8sgbDeqFq0I2vu", "width": 4160}], "place_id": "ChIJsfGjp5a89jkRb3M486qW9c0", "plus_code": {"compound_code": "RC2V+88 Dhanbad, Jharkhand, India", "global_code": "7MM8RC2V+88"}, "rating": 4.9, "reference": "ChIJsfGjp5a89jkRb3M486qW9c0", "scope": "GOOGLE", "types": ["doctor", "hospital", "health", "point_of_interest", "establishment"], "user_ratings_total": 12, "vicinity": "Madhav Apartment, Durga Mandir Road, Hirapur, Pandey Muhalla, Dhanbad"}, {"business_status": "OPERATIONAL", "geometry": {"location": {"lat": 23.8002766, "lng": 86.4425452}, "viewport": {"northeast": {"lat": 23.80167173029151, "lng": 86.4438457802915}, "southwest": {"lat": 23.7989737697085, "lng": 86.44114781970849}}}, "icon": "https://maps.gstatic.com/mapfiles/place_api/icons/v1/png_71/hospital-71.png", "icon_background_color": "#F88181", "icon_mask_base_uri": "https://maps.gstatic.com/mapfiles/place_api/icons/v2/hospital-H_pinlet", "name": "Genessis Hospital", "opening_hours": {"open_now": true}, "photos": [{"height": 570, "html_attributions": ["<a href=\"https://maps.google.com/maps/contrib/105206978555435253193\">Genessis Hospital</a>"], "photo_reference": "Aap_uEDr1R9mu7rwY9VoxG2I9U5FFjbyYStDogxOCQXTDuoTvCTWshgsnDjfYDKvj1a99NJy6ARRpvSyc6tUZ6ehnfMrQcT6qxOGHwCzvlGvFZZ6un1kIO3HowfsyDCjnsps8xwgHjgy6oU0kOrzOt-4Utl692_SRG5Nlr86NE4ywFflGDoj", "width": 379}], "place_id": "ChIJR9ViqZW89jkRuLdZK11Bvq8", "plus_code": {"compound_code": "RC2V+42 Dhanbad, Jharkhand, India", "global_code": "7MM8RC2V+42"}, "rating": 3.7, "reference": "ChIJR9ViqZW89jkRuLdZK11Bvq8", "scope": "GOOGLE", "types": ["hospital", "health", "point_of_interest", "establishment"], "user_ratings_total": 3, "vicinity": "Genessis Eye Hospital Park Clinic, Park Market Road, Hirapur, Dhanbad"}, {"business_status": "OPERATIONAL", "geometry": {"location": {"lat": 23.8056615, "lng": 86.4363326}, "viewport": {"northeast": {"lat": 23.8070083802915, "lng": 86.4376813302915}, "southwest": {"lat": 23.8043104197085, "lng": 86.43498336970849}}}, "icon": "https://maps.gstatic.com/mapfiles/place_api/icons/v1/png_71/hospital-71.png", "icon_background_color": "#F88181", "icon_mask_base_uri": "https://maps.gstatic.com/mapfiles/place_api/icons/v2/hospital-H_pinlet", "name": "Dr. Nityanand clinic", "opening_hours": {"open_now": false}, "photos": [{"height": 3000, "html_attributions": ["<a href=\"https://maps.google.com/maps/contrib/109364758359820539153\">Dr. Nityanand clinic</a>"], "photo_reference": "Aap_uEA0oR9WkyVuo7iBRLyG4WBFid6zGCncRDsmAByDbWGPIBabRjt_55YBEHtduJ1nFhiahmnSC3sHJuZp-PF5MYDug0dOhT8Txj6tgJRg-mYcu42PoJTdmsGbSfNRh0aIpXyZ7mZqQNicAIhKUzaaaVUyX3XqhgvreGlLVYR9C4RVuv-Z", "width": 4000}], "place_id": "ChIJ87vpebG99jkRzMSSkfvcWWk", "plus_code": {"compound_code": "RC4P+7G Dhanbad, Jharkhand, India", "global_code": "7MM8RC4P+7G"}, "rating": 4.2, "reference": "ChIJ87vpebG99jkRzMSSkfvcWWk", "scope": "GOOGLE", "types": ["hospital", "health", "point_of_interest", "establishment"], "user_ratings_total": 43, "vicinity": "near Manas international school, HIG-. 42, Housing Colony Road, Sardar Patel Nagar, Dhanbad"}, {"business_status": "OPERATIONAL", "geometry": {"location": {"lat": 23.8055886, "lng": 86.4363115}, "viewport": {"northeast": {"lat": 23.80699073029151, "lng": 86.43766703029151}, "southwest": {"lat": 23.8042927697085, "lng": 86.4349690697085}}}, "icon": "https://maps.gstatic.com/mapfiles/place_api/icons/v1/png_71/hospital-71.png", "icon_background_color": "#F88181", "icon_mask_base_uri": "https://maps.gstatic.com/mapfiles/place_api/icons/v2/hospital-H_pinlet", "name": "Dr Nitynand Children Nursing Home", "place_id": "ChIJ2YLPsRK99jkROGlEYcwbSlQ", "rating": 5, "reference": "ChIJ2YLPsRK99jkROGlEYcwbSlQ", "scope": "GOOGLE", "types": ["hospital", "health", "point_of_interest", "establishment"], "user_ratings_total": 1, "vicinity": "RC4P+6GM, Sardar Patel Nagar, Dhanbad"}, {"business_status": "OPERATIONAL", "geometry": {"location": {"lat": 23.8118765, "lng": 86.45636069999999}, "viewport": {"northeast": {"lat": 23.8132404802915, "lng": 86.4577096302915}, "southwest": {"lat": 23.8105425197085, "lng": 86.4550116697085}}}, "icon": "https://maps.gstatic.com/mapfiles/place_api/icons/v1/png_71/hospital-71.png", "icon_background_color": "#F88181", "icon_mask_base_uri": "https://maps.gstatic.com/mapfiles/place_api/icons/v2/hospital-H_pinlet", "name": "East End Xray Centre", "place_id": "ChIJ5RBi04a89jkRR8F0M7kC2o0", "plus_code": {"compound_code": "RF64+QG Dhanbad, Jharkhand, India", "global_code": "7MM8RF64+QG"}, "rating": 3, "reference": "ChIJ5RBi04a89jkRR8F0M7kC2o0", "scope": "GOOGLE", "types": ["hospital", "health", "point_of_interest", "establishment"], "user_ratings_total": 1, "vicinity": "Main Road, Kusum Vihar, Murli Nagar, Dhanbad"}, {"business_status": "OPERATIONAL", "geometry": {"location": {"lat": 23.8075108, "lng": 86.435178}, "viewport": {"northeast": {"lat": 23.8088488302915, "lng": 86.4366039802915}, "southwest": {"lat": 23.8061508697085, "lng": 86.43390601970849}}}, "icon": "https://maps.gstatic.com/mapfiles/place_api/icons/v1/png_71/hospital-71.png", "icon_background_color": "#F88181", "icon_mask_base_uri": "https://maps.gstatic.com/mapfiles/place_api/icons/v2/hospital-H_pinlet", "name": "Raj Medical and Research Centre", "opening_hours": {"open_now": true}, "photos": [{"height": 3096, "html_attributions": ["<a href=\"https://maps.google.com/maps/contrib/108739851631016562609\">John Priscilla</a>"], "photo_reference": "Aap_uECxeGX-kfL1cQ5P6-F_82XgpK1ALoKdcEon5TeG0K-g6I-hg7OQwySjck2tbYy5JnHWud8ohk2TEK_yqTX2qqg-SixObwsdn-Gqx-g19YzmTGujO-krCxchdkBQZcxg4g-pT4hFuUINQjriZFhzpH_K1Ha2Gy5PRPzROjAbIC1s4WqO", "width": 4128}], "place_id": "ChIJIb_vzKK89jkRWhr5aVAe4ng", "plus_code": {"compound_code": "RC5P+23 Dhanbad, Jharkhand, India", "global_code": "7MM8RC5P+23"}, "rating": 4.5, "reference": "ChIJIb_vzKK89jkRWhr5aVAe4ng", "scope": "GOOGLE", "types": ["hospital", "health", "point_of_interest", "establishment"], "user_ratings_total": 12, "vicinity": "H.I.G 1, Housing Colony, Dhanbad"}, {"business_status": "OPERATIONAL", "geometry": {"location": {"lat": 23.8073931, "lng": 86.4351775}, "viewport": {"northeast": {"lat": 23.8087324802915, "lng": 86.4365939802915}, "southwest": {"lat": 23.8060345197085, "lng": 86.43389601970848}}}, "icon": "https://maps.gstatic.com/mapfiles/place_api/icons/v1/png_71/hospital-71.png", "icon_background_color": "#F88181", "icon_mask_base_uri": "https://maps.gstatic.com/mapfiles/place_api/icons/v2/hospital-H_pinlet", "name": "SENGAR LIFE CARE HOSPITAL", "opening_hours": {"open_now": true}, "photos": [{"height": 2322, "html_attributions": ["<a href=\"https://maps.google.com/maps/contrib/100353381052009065548\">SENGAR LIFE CARE HOSPITAL</a>"], "photo_reference": "Aap_uEASaON1edVL6vjXahIBq_aVL53EjS3bUD3n-GgY7e-yOOevRsZjSduCAhCi6Kg3hoYTr7dLNZ1E-5fQL27JqJOy8Q34njzGspetgjNvZBg1lN-whGPvBpttdrxx9DdJNDbrNWdh-CVKYvm9sQh0520AGElAWskgWl5f1SG74PR0QkkG", "width": 4128}], "place_id": "ChIJnZ1y6O-99jkRN7QJh6s5sSw", "plus_code": {"compound_code": "RC4P+X3 Dhanbad, Jharkhand, India", "global_code": "7MM8RC4P+X3"}, "rating": 4, "reference": "ChIJnZ1y6O-99jkRN7QJh6s5sSw", "scope": "GOOGLE", "types": ["hospital", "health", "point_of_interest", "establishment"], "user_ratings_total": 4, "vicinity": "beside BIHARI LAL CHOUDHARY SHOP, RC 9, Housing Colony, Sardar Patel Nagar, Dhanbad"}], "status": "OK"}