{"html_attributions": [], "next_page_token": "Aap_uEBUHdiV-ybOjVwWOO9DR-yD76hftJMgJ6aI-sKapI2-dSP9EYUnX2VrBGqCr5G-DGhMU-8w38_fUmj_-z5lp0j5PpoB-E_bQuAHdb_oW96iU7o7BTu6i1ebU-ct60J-fsYewkBLbI8FNwnZru7Wi88JRJfIn8RvULsUn7vc52VKUa4uiiZsg_PAzB3uEViGFALvCraV7acK3caMCkg5OTWaFX5EIDvLjlCOoJupEZKbCzD0ClM-e2mSZtyvyB8XQkht2rJlkRdelq7zc5aiVe7HCTNKdFGcWZVQBr1WrtWC8Fl2a1pFaQXRrEFdEZKjg1zlt2LRZX36j9_Avvoa-nLWOsI9fJxsIf7_d-8ufEp2uHtY8GhhvAazOpn-sT7k_ourQxGKC4iUfxkkcth7NXNOkIcZyoObTHgr_p2eIR5Ifm47CQsFrSqPrHryzNOP7klLURuspwkWYK4mA6fZf8mZCA-cLzFWcU-m6pi6ZDC7hjliFTZ8xCKL8HZPSvizTMRdNlMtsj-0-w858_i6d7wcrVw_PN998DtFlT29gQ7Q79eG1OERs_3_GhZTfQPeGsB5YKx9i-FVnQLxnQIUgVQH36SBIFzEbju8Z7Dl7rZjepwruw_iEUZ4xgnb96dJ4JTo0WR8bSo", "results": [{"business_status": "OPERATIONAL", "geometry": {"location": {"lat": 23.8108088, "lng": 86.4632559}, "viewport": {"northeast": {"lat": 23.81213938029151, "lng": 86.46465118029151}, "southwest": {"lat": 23.8094414197085, "lng": 86.46195321970849}}}, "icon": "https://maps.gstatic.com/mapfiles/place_api/icons/v1/png_71/hospital-71.png", "icon_background_color": "#F88181", "icon_mask_base_uri": "https://maps.gstatic.com/mapfiles/place_api/icons/v2/hospital-H_pinlet", "name": "Maa Shardha Medical", "photos": [{"height": 1920, "html_attributions": ["<a href=\"https://maps.google.com/maps/contrib/116009144172800383125\">Sukesh Kumar</a>"], "photo_reference": "Aap_uEDnAYKVTxoGn9OvKcp5DLoCX1XzVtKVSHfIp5E5BOtPndUi4Y5mU_lnmfBrVBo98CWPrOav7hfrEWpwFenXEAs9IC8J5QsGkohNW16TBFU7MfB1AHEIbU6Wj7dZq2pajjvj-kMQZCrUeNVTA84xW41EPAN4nIgX8BUucV6klIkQF1m7", "width": 1080}], "place_id": "ChIJNSpF7VW99jkRpgkNF4G9Lvk", "plus_code": {"compound_code": "RF67+88 Dhanbad, Jharkhand, India", "global_code": "7MM8RF67+88"}, "reference": "ChIJNSpF7VW99jkRpgkNF4G9Lvk", "scope": "GOOGLE", "types": ["hospital", "health", "point_of_interest", "establishment"], "vicinity": "opp. PMCH, Murli Nagar, Dhanbad"}, {"business_status": "OPERATIONAL", "geometry": {"location": {"lat": 23.8086008, "lng": 86.462569}, "viewport": {"northeast": {"lat": 23.8100170302915, "lng": 86.46395038029151}, "southwest": {"lat": 23.80731906970849, "lng": 86.4612524197085}}}, "icon": "https://maps.gstatic.com/mapfiles/place_api/icons/v1/png_71/hospital-71.png", "icon_background_color": "#F88181", "icon_mask_base_uri": "https://maps.gstatic.com/mapfiles/place_api/icons/v2/hospital-H_pinlet", "name": "PMCH PRINCIPLE OFFICE", "opening_hours": {"open_now": false}, "photos": [{"height": 960, "html_attributions": ["<a href=\"https://maps.google.com/maps/contrib/114781341483612269370\">Ashmita Ray</a>"], "photo_reference": "Aap_uEClM6kHAYGHXnwY1F-mLHcFOxOzajLGIWsVjzaYISIpNM06my-PKIs4kDR8F6nMJHY0KPuzZ-bhtigiIqTc3XWolbgQ15ghlbxTC_Jlj_bko6NdoyHaF1JwEQ8K0601n_xLkOtIaeStES18obs90nDJXRInThu56DeC83ZjpEVB4mcu", "width": 1280}], "place_id": "ChIJZXtn0Bq99jkRJfaK0s0b0Gc", "plus_code": {"compound_code": "RF57+C2 Saraidhella, Jharkhand, India", "global_code": "7MM8RF57+C2"}, "reference": "ChIJZXtn0Bq99jkRJfaK0s0b0Gc", "scope": "GOOGLE", "types": ["hospital", "health", "point_of_interest", "establishment"], "vicinity": "PMC Building, Kusum Vihar, Murli Nagar, Saraidhella"}, {"business_status": "OPERATIONAL", "geometry": {"location": {"lat": 23.8078226, "lng": 86.4624225}, "viewport": {"northeast": {"lat": 23.8090987802915, "lng": 86.4637683302915}, "southwest": {"lat": 23.8064008197085, "lng": 86.4610703697085}}}, "icon": "https://maps.gstatic.com/mapfiles/place_api/icons/v1/png_71/hospital-71.png", "icon_background_color": "#F88181", "icon_mask_base_uri": "https://maps.gstatic.com/mapfiles/place_api/icons/v2/hospital-H_pinlet", "name": "\u092a\u0940\u090f\u092e\u0938\u0940\u090f\u091a \u092a\u094b\u0938\u094d\u091f\u092e\u093e\u0930\u094d\u091f\u092e \u0939\u093e\u0909\u0938", "place_id": "ChIJR543rP299jkRfXz806fHrxg", "reference": "ChIJR543rP299jkRfXz806fHrxg", "scope": "GOOGLE", "types": ["hospital", "health", "point_of_interest", "establishment"], "vicinity": "RF56+4XF, Saraidhella"}, {"business_status": "OPERATIONAL", "geometry": {"location": {"lat": 23.8124581, "lng": 86.4656797}, "viewport": {"northeast": {"lat": 23.8138590302915, "lng": 86.4669512802915}, "southwest": {"lat": 23.8111610697085, "lng": 86.46425331970849}}}, "icon": "https://maps.gstatic.com/mapfiles/place_api/icons/v1/png_71/hospital-71.png", "icon_background_color": "#F88181", "icon_mask_base_uri": "https://maps.gstatic.com/mapfiles/place_api/icons/v2/hospital-H_pinlet", "name": "Super Specialty Hospital PMCH", "photos": [{"height": 3120, "html_attributions": ["<a href=\"https://maps.google.com/maps/contrib/114781341483612269370\">Ashmita Ray</a>"], "photo_reference": "Aap_uEDzseUKoJzWZmqtsSiuG5MNeIDmt6U8ofK2ZD0uONHCWoyQgdfTtPjRFriVu8aq6887BeQTkUyC6b_wiJcqveX3TnT7Gh8xAn0DPRJzbzSzQU791tn0FbHpgXYg-_z6we4jf27scIZobMhCziyOdSTa4Rs6JnPeHSSChcur8rPlyt6h", "width": 4160}], "place_id": "ChIJf-see_699jkRZGAeHZ4BdoQ", "plus_code": {"compound_code": "RF68+X7 Dhanbad, Jharkhand, India", "global_code": "7MM8RF68+X7"}, "rating": 4.3, "reference": "ChIJf-see_699jkRZGAeHZ4BdoQ", "scope": "GOOGLE", "types": ["hospital", "health", "point_of_interest", "establishment"], "user_ratings_total": 3, "vicinity": "pmch, Dhanbad"}, {"business_status": "OPERATIONAL", "geometry": {"location": {"lat": 23.8125145, "lng": 86.46557609999999}, "viewport": {"northeast": {"lat": 23.8138829802915, "lng": 86.46689603029151}, "southwest": {"lat": 23.8111850197085, "lng": 86.4641980697085}}}, "icon": "https://maps.gstatic.com/mapfiles/place_api/icons/v1/png_71/hospital-71.png", "icon_background_color": "#F88181", "icon_mask_base_uri": "https://maps.gstatic.com/mapfiles/place_api/icons/v2/hospital-H_pinlet", "name": "\u0938\u0941\u092a\u0930 \u0938\u094d\u092a\u0947\u0936\u093f\u092f\u0932\u093f\u091f\u0940 \u0939\u0949\u0938\u094d\u092a\u093f\u091f\u0932", "place_id": "ChIJydRGV-y99jkRL5HQwasJGAE", "plus_code": {"compound_code": "RF78+26 Dhanbad, Jharkhand, India", "global_code": "7MM8RF78+26"}, "reference": "ChIJydRGV-y99jkRL5HQwasJGAE", "scope": "GOOGLE", "types": ["hospital", "health", "point_of_interest", "establishment"], "vicinity": "Shahid Nirmal Mahato Medical College Dhanbad, Dhanbad"}, {"business_status": "OPERATIONAL", "geometry": {"location": {"lat": 23.81217659999999, "lng": 86.4642666}, "viewport": {"northeast": {"lat": 23.8133617802915, "lng": 86.46549418029151}, "southwest": {"lat": 23.81066381970849, "lng": 86.4627962197085}}}, "icon": "https://maps.gstatic.com/mapfiles/place_api/icons/v1/png_71/hospital-71.png", "icon_background_color": "#F88181", "icon_mask_base_uri": "https://maps.gstatic.com/mapfiles/place_api/icons/v2/hospital-H_pinlet", "name": "J. P. Hospital and Research centre", "opening_hours": {"open_now": true}, "photos": [{"height": 768, "html_attributions": ["<a href=\"https://maps.google.com/maps/contrib/105193025043605371871\">J. P. Hospital and Research centre</a>"], "photo_reference": "Aap_uEBskPiv57dl3nhsNyAE3pUv-9i29KpfFCOoiR-4YHEZJuoyXqBU2HU421WAKHZqrPFbF7rCFuQ14sUABLtTpelOpCEHqkX49oZfzbb44rhuEWoB9IYlP5B5SyTtmAIS8FGs2FylroJMB92-3D1Q0qJg9WeV9HBGhDQPt5CMLCvZmEs3", "width": 1024}], "place_id": "ChIJobaW8_S99jkRIU9FqRJYD_U", "plus_code": {"compound_code": "RF67+VP Saraidhella, Jharkhand, India", "global_code": "7MM8RF67+VP"}, "rating": 3.3, "reference": "ChIJobaW8_S99jkRIU9FqRJYD_U", "scope": "GOOGLE", "types": ["hospital", "health", "point_of_interest", "establishment"], "user_ratings_total": 8, "vicinity": "Kalakusuma, Kola Kusma Road, Manjhladih, Saraidhella"}, {"business_status": "OPERATIONAL", "geometry": {"location": {"lat": 23.8102223, "lng": 86.4623222}, "viewport": {"northeast": {"lat": 23.8115564802915, "lng": 86.4637062302915}, "southwest": {"lat": 23.80885851970849, "lng": 86.4610082697085}}}, "icon": "https://maps.gstatic.com/mapfiles/place_api/icons/v1/png_71/hospital-71.png", "icon_background_color": "#F88181", "icon_mask_base_uri": "https://maps.gstatic.com/mapfiles/place_api/icons/v2/hospital-H_pinlet", "name": "PMCH Officers Quarter", "place_id": "ChIJtxR-J-K99jkRh-NI7cKuWpQ", "plus_code": {"compound_code": "RF66+3W Dhanbad, Jharkhand, India", "global_code": "7MM8RF66+3W"}, "reference": "ChIJtxR-J-K99jkRh-NI7cKuWpQ", "scope": "GOOGLE", "types": ["hospital", "health", "point_of_interest", "establishment"], "vicinity": "patliputra medical college campus Post- B.C.C.L.TOWNSHIP, Kusum Vihar, Murli Nagar, Dhanbad"}, {"business_status": "OPERATIONAL", "geometry": {"location": {"lat": 23.8124587, "lng": 86.4640321}, "viewport": {"northeast": {"lat": 23.8139087302915, "lng": 86.46538393029151}, "southwest": {"lat": 23.8112107697085, "lng": 86.4626859697085}}}, "icon": "https://maps.gstatic.com/mapfiles/place_api/icons/v1/png_71/hospital-71.png", "icon_background_color": "#F88181", "icon_mask_base_uri": "https://maps.gstatic.com/mapfiles/place_api/icons/v2/hospital-H_pinlet", "name": "General Medicine and Pediatrics Department PMCH", "photos": [{"height": 768, "html_attributions": ["<a href=\"https://maps.google.com/maps/contrib/114781341483612269370\">Ashmita Ray</a>"], "photo_reference": "Aap_uEDwtnwC5WciJfnBGO2oLn-xTpNSqTZNc4TqSRn7hJRljkBD-LCcOKFzg3GV5b4vfdglwhl9PsaNaT6UCMTFXdG0xuVHSDqVEB2EBT9ab4GQoVsSYWQBHQk5X4oPi5WtbZgxMD4dedVmiV2Rj9csrTeQ82VwKNHvOEBjSIAXFKMGFX_W", "width": 1152}], "place_id": "ChIJmZRdC6y99jkRWW2iz02b40o", "plus_code": {"compound_code": "RF67+XJ Dhanbad, Jharkhand, India", "global_code": "7MM8RF67+XJ"}, "rating": 4, "reference": "ChIJmZRdC6y99jkRWW2iz02b40o", "scope": "GOOGLE", "types": ["hospital", "health", "point_of_interest", "establishment"], "user_ratings_total": 1, "vicinity": "PMCH Road, Bank Colony, Kusum Vihar, Murli Nagar, Dhanbad"}, {"business_status": "OPERATIONAL", "geometry": {"location": {"lat": 23.8127142, "lng": 86.4636888}, "viewport": {"northeast": {"lat": 23.8141025302915, "lng": 86.4650769302915}, "southwest": {"lat": 23.8114045697085, "lng": 86.4623789697085}}}, "icon": "https://maps.gstatic.com/mapfiles/place_api/icons/v1/png_71/hospital-71.png", "icon_background_color": "#F88181", "icon_mask_base_uri": "https://maps.gstatic.com/mapfiles/place_api/icons/v2/hospital-H_pinlet", "name": "PG BLOCK", "photos": [{"height": 3376, "html_attributions": ["<a href=\"https://maps.google.com/maps/contrib/114781341483612269370\">Ashmita Ray</a>"], "photo_reference": "Aap_uEAWPAAz37hBUvXFhShk-WRKmw6u_dw6TZpQnBcRwYXvtd-roNl5EELOhqPypQCQ8Y64LZD-hjQfro2MXcjb4sbrXqmPeUQLZG3LN0b4ChW-K1_rHRyFieR3WXXymkGeugbBPiZdLjcY8KFGzepTM-0aFJ7QYDehoo48IRlLLtPjiWT1", "width": 5984}], "place_id": "ChIJe865nI299jkRWxnv2mQ1VNI", "plus_code": {"compound_code": "RF77+3F Dhanbad, Jharkhand, India", "global_code": "7MM8RF77+3F"}, "rating": 4, "reference": "ChIJe865nI299jkRWxnv2mQ1VNI", "scope": "GOOGLE", "types": ["hospital", "health", "point_of_interest", "establishment"], "user_ratings_total": 1, "vicinity": "Shahid Nirmal Mahato Medical College Dhanbad, Dhanbad"}, {"business_status": "OPERATIONAL", "geometry": {"location": {"lat": 23.8127524, "lng": 86.4635775}, "viewport": {"northeast": {"lat": 23.8141551302915, "lng": 86.4649809802915}, "southwest": {"lat": 23.8114571697085, "lng": 86.4622830197085}}}, "icon": "https://maps.gstatic.com/mapfiles/place_api/icons/v1/png_71/hospital-71.png", "icon_background_color": "#F88181", "icon_mask_base_uri": "https://maps.gstatic.com/mapfiles/place_api/icons/v2/hospital-H_pinlet", "name": "Surgery and Anesthesia Department PMCH", "place_id": "ChIJKdpPuDO99jkRx6ebv-tmzdk", "plus_code": {"compound_code": "RF77+4C Dhanbad, Jharkhand, India", "global_code": "7MM8RF77+4C"}, "reference": "ChIJKdpPuDO99jkRx6ebv-tmzdk", "scope": "GOOGLE", "types": ["hospital", "health", "point_of_interest", "establishment"], "vicinity": "PMCH Road, Bank Colony, Kusum Vihar, Murli Nagar, Dhanbad"}, {"business_status": "OPERATIONAL", "geometry": {"location": {"lat": 23.810478, "lng": 86.471811}, "viewport": {"northeast": {"lat": 23.81180858029151, "lng": 86.47323718029152}, "southwest": {"lat": 23.80911061970851, "lng": 86.4705392197085}}}, "icon": "https://maps.gstatic.com/mapfiles/place_api/icons/v1/png_71/hospital-71.png", "icon_background_color": "#F88181", "icon_mask_base_uri": "https://maps.gstatic.com/mapfiles/place_api/icons/v2/hospital-H_pinlet", "name": "Dr. Pratima Karan", "place_id": "ChIJs6b6p5K99jkRMvjOj1K1sKc", "reference": "ChIJs6b6p5K99jkRMvjOj1K1sKc", "scope": "GOOGLE", "types": ["hospital", "health", "point_of_interest", "establishment"], "vicinity": "RF6C+5PV, Murli Nagar, Dhanbad"}, {"business_status": "OPERATIONAL", "geometry": {"location": {"lat": 23.8138896, "lng": 86.4630581}, "viewport": {"northeast": {"lat": 23.8152690802915, "lng": 86.46445808029151}, "southwest": {"lat": 23.8125711197085, "lng": 86.4617601197085}}}, "icon": "https://maps.gstatic.com/mapfiles/place_api/icons/v1/png_71/hospital-71.png", "icon_background_color": "#F88181", "icon_mask_base_uri": "https://maps.gstatic.com/mapfiles/place_api/icons/v2/hospital-H_pinlet", "name": "\u092c\u0930\u094d\u0928 \u0935\u093e\u0930\u094d\u0921", "place_id": "ChIJw-lSf1O99jkRMZCBJXZH7GA", "plus_code": {"compound_code": "RF77+H6 Dhanbad, Jharkhand, India", "global_code": "7MM8RF77+H6"}, "rating": 5, "reference": "ChIJw-lSf1O99jkRMZCBJXZH7GA", "scope": "GOOGLE", "types": ["hospital", "health", "point_of_interest", "establishment"], "user_ratings_total": 1, "vicinity": "Shahid Nirmal Mahato Medical College Dhanbad, Dhanbad"}, {"business_status": "OPERATIONAL", "geometry": {"location": {"lat": 23.8131582, "lng": 86.4612714}, "viewport": {"northeast": {"lat": 23.8145279802915, "lng": 86.46247868029151}, "southwest": {"lat": 23.8118300197085, "lng": 86.45978071970849}}}, "icon": "https://maps.gstatic.com/mapfiles/place_api/icons/v1/png_71/generic_business-71.png", "icon_background_color": "#7B9EB0", "icon_mask_base_uri": "https://maps.gstatic.com/mapfiles/place_api/icons/v2/generic_pinlet", "name": "Netrajyoti Eye Centre c/o Dr. K. P. Gupta", "opening_hours": {"open_now": true}, "photos": [{"height": 1003, "html_attributions": ["<a href=\"https://maps.google.com/maps/contrib/114278166501956109806\">Netrajyoti Eye Centre c/o Dr. K. P. Gupta</a>"], "photo_reference": "Aap_uEAa2-JqmjZSUwY-oSe0-kRdWwmNok2Pn4_mkezrpRq91Ug0Ktd7BYiuVgJcxQ3lnYy6GDOqm_Wx8KXc82ggVvdsU0D631mPE_d_6v3VBNnU-g_IQXySs5aTc2-1q5aLbiQ2Bx7YFQc5w4YJNvq72bS_7iRgu0RqQtozHo_LB04KK7qq", "width": 1280}], "place_id": "ChIJLQE2aOO99jkRYOqDIpB-pkw", "plus_code": {"compound_code": "RF76+7G Saraidhella, Jharkhand, India", "global_code": "7MM8RF76+7G"}, "rating": 5, "reference": "ChIJLQE2aOO99jkRYOqDIpB-pkw", "scope": "GOOGLE", "types": ["hospital", "doctor", "health", "point_of_interest", "establishment"], "user_ratings_total": 6, "vicinity": "below Bank Of Baroda, Amba Tower, below Bank Of Baroda, Steel Gate, Saraidhella"}, {"business_status": "OPERATIONAL", "geometry": {"location": {"lat": 23.8151872, "lng": 86.4675072}, "viewport": {"northeast": {"lat": 23.8165553802915, "lng": 86.4687862302915}, "southwest": {"lat": 23.8138574197085, "lng": 86.46608826970848}}}, "icon": "https://maps.gstatic.com/mapfiles/place_api/icons/v1/png_71/hospital-71.png", "icon_background_color": "#F88181", "icon_mask_base_uri": "https://maps.gstatic.com/mapfiles/place_api/icons/v2/hospital-H_pinlet", "name": "Dr. Pratibha Rai, Srishti Clinic", "opening_hours": {"open_now": true}, "photos": [{"height": 2090, "html_attributions": ["<a href=\"https://maps.google.com/maps/contrib/102851066937994115751\">Abhay Kumar</a>"], "photo_reference": "Aap_uECPq8BAKPAnyBrtZPlrKWLgciSvro7vzIPdKXh-L-GxBsB5dX6JpPJi8Bknpa33XxZBbHLdwqscdbbT5_oQRg_nlup3ie4osNgXOjO1tkuvoQR6u5h-iIDwOsTWdVJVA9pnjq44doYL7Pv9xpXZXcT02Q57EkcWX_7DXTX-PSZ5TSL3", "width": 1928}], "place_id": "ChIJ5_E7TXi89jkRqfFqLg4K_Pc", "plus_code": {"compound_code": "RF89+32 Dhanbad, Jharkhand, India", "global_code": "7MM8RF89+32"}, "rating": 4.1, "reference": "ChIJ5_E7TXi89jkRqfFqLg4K_Pc", "scope": "GOOGLE", "types": ["hospital", "health", "point_of_interest", "establishment"], "user_ratings_total": 12, "vicinity": "Shakti Vihar Colony, Saraidhella, Kola Kusma Road, Chanakya Nagar, Dhanbad"}, {"business_status": "OPERATIONAL", "geometry": {"location": {"lat": 23.8137791, "lng": 86.46126369999999}, "viewport": {"northeast": {"lat": 23.8151485802915, "lng": 86.46259733029152}, "southwest": {"lat": 23.8124506197085, "lng": 86.4598993697085}}}, "icon": "https://maps.gstatic.com/mapfiles/place_api/icons/v1/png_71/hospital-71.png", "icon_background_color": "#F88181", "icon_mask_base_uri": "https://maps.gstatic.com/mapfiles/place_api/icons/v2/hospital-H_pinlet", "name": "ORTHO CLINIC", "place_id": "ChIJmat9Y1G99jkRh4OLeCwRSW8", "rating": 5, "reference": "ChIJmat9Y1G99jkRh4OLeCwRSW8", "scope": "GOOGLE", "types": ["hospital", "health", "point_of_interest", "establishment"], "user_ratings_total": 1, "vicinity": "RF76+GG6, Steel Gate, Chanakya Nagar, Dhanbad"}, {"business_status": "OPERATIONAL", "geometry": {"location": {"lat": 23.815299, "lng": 86.4676705}, "viewport": {"northeast": {"lat": 23.8166279802915, "lng": 86.46909843029151}, "southwest": {"lat": 23.81393001970849, "lng": 86.46640046970849}}}, "icon": "https://maps.gstatic.com/mapfiles/place_api/icons/v1/png_71/hospital-71.png", "icon_background_color": "#F88181", "icon_mask_base_uri": "https://maps.gstatic.com/mapfiles/place_api/icons/v2/hospital-H_pinlet", "name": "Muskan Enclave Residency - Next to Shristi Clinic.", "photos": [{"height": 3264, "html_attributions": ["<a href=\"https://maps.google.com/maps/contrib/105171545801859061532\">sanjay singh</a>"], "photo_reference": "Aap_uEBr7fCR35FX8Zmejnj3w9C5CYTe-gAo17YuAE2CiIFhdJcZtlLVUG7koZqw-sSUQSmNbH0BPyvG7KiTo1_nF12ZYwwYKXOqsIk67-LcWf6iL-2MZaOa7W-OTo98pgeGR7aAXY87KTe9KjuC1MJ1R5uz8DHVYDOcpBF_kybLjmxtk725", "width": 1840}], "place_id": "ChIJATy_THi89jkRCwk8v_KuRBA", "plus_code": {"compound_code": "RF89+43 Dhanbad, Jharkhand, India", "global_code": "7MM8RF89+43"}, "rating": 3, "reference": "ChIJATy_THi89jkRCwk8v_KuRBA", "scope": "GOOGLE", "types": ["hospital", "health", "point_of_interest", "establishment"], "user_ratings_total": 5, "vicinity": "Shakti Vihar Colony,Kola Kusma Road,, Dhanbad"}, {"business_status": "OPERATIONAL", "geometry": {"location": {"lat": 23.8137043, "lng": 86.4610249}, "viewport": {"northeast": {"lat": 23.8150324302915, "lng": 86.4623857302915}, "southwest": {"lat": 23.8123344697085, "lng": 86.4596877697085}}}, "icon": "https://maps.gstatic.com/mapfiles/place_api/icons/v1/png_71/hospital-71.png", "icon_background_color": "#F88181", "icon_mask_base_uri": "https://maps.gstatic.com/mapfiles/place_api/icons/v2/hospital-H_pinlet", "name": "Sanjivni Netralaya Dhanbad", "place_id": "ChIJnevpQn689jkR3cwFrWjKrCw", "plus_code": {"compound_code": "RF76+FC Dhanbad, Jharkhand, India", "global_code": "7MM8RF76+FC"}, "reference": "ChIJnevpQn689jkR3cwFrWjKrCw", "scope": "GOOGLE", "types": ["hospital", "health", "point_of_interest", "establishment"], "vicinity": "Saraidhela Road, Steel Gate, Kusum Vihar, Murli Nagar, Dhanbad"}, {"business_status": "OPERATIONAL", "geometry": {"location": {"lat": 23.8147859, "lng": 86.46244589999999}, "viewport": {"northeast": {"lat": 23.8161675302915, "lng": 86.46387083029151}, "southwest": {"lat": 23.8134695697085, "lng": 86.4611728697085}}}, "icon": "https://maps.gstatic.com/mapfiles/place_api/icons/v1/png_71/hospital-71.png", "icon_background_color": "#F88181", "icon_mask_base_uri": "https://maps.gstatic.com/mapfiles/place_api/icons/v2/hospital-H_pinlet", "name": "Tara Nursing Home", "photos": [{"height": 1080, "html_attributions": ["<a href=\"https://maps.google.com/maps/contrib/112667669774307728194\">T Singh</a>"], "photo_reference": "Aap_uEA7n773FDKtVIp5xGtE1JQBUFsuFHpCxRgThqXcFgFmEDWRnERVx3NUiBH9PADL8-XO7FEHadogQzYOpRqOrprWSBhqnEr7v_rh4dRbXfUB1o_3MTfpl0ECRVfPUkohCzuSdF2xo3F3ShLg4g_7Cq0_ZObWTkC7CmK-Fc2iY-L4Boz1", "width": 1920}], "place_id": "ChIJVbxC43689jkRWfahdoe3z3w", "rating": 5, "reference": "ChIJVbxC43689jkRWfahdoe3z3w", "scope": "GOOGLE", "types": ["hospital", "health", "point_of_interest", "establishment"], "user_ratings_total": 1, "vicinity": "RF76+WX8, Shanti Colony, Dhanbad"}, {"business_status": "OPERATIONAL", "geometry": {"location": {"lat": 23.8153395, "lng": 86.4633532}, "viewport": {"northeast": {"lat": 23.8166163802915, "lng": 86.4647542302915}, "southwest": {"lat": 23.8139184197085, "lng": 86.4620562697085}}}, "icon": "https://maps.gstatic.com/mapfiles/place_api/icons/v1/png_71/hospital-71.png", "icon_background_color": "#F88181", "icon_mask_base_uri": "https://maps.gstatic.com/mapfiles/place_api/icons/v2/hospital-H_pinlet", "name": "Sree Jaggarnath Hospital", "photos": [{"height": 4608, "html_attributions": ["<a href=\"https://maps.google.com/maps/contrib/106910895203675108873\">A</a>"], "photo_reference": "Aap_uEAox3gbAgY0qfr41JzQOCE28pIilg1KD3zydq_dEuQ8Dq0413b6TbS6aea0Ko-Vuu215COm9Fdb6YTHHADiSUpEMAIY4HGSj4pvWQ3fohGEl7c1aj8M6rxbDlOLEePtJhXwKwFAoC0XX4nLLhYpygMb2-_wfnwtg4W7WqQejDiZRSOt", "width": 2592}], "place_id": "ChIJybjQJn-89jkRCaEFBKPRkiU", "reference": "ChIJybjQJn-89jkRCaEFBKPRkiU", "scope": "GOOGLE", "types": ["hospital", "health", "point_of_interest", "establishment"], "vicinity": "RF87+48Q, Shanti Colony, Dhanbad"}, {"business_status": "OPERATIONAL", "geometry": {"location": {"lat": 23.8155122, "lng": 86.4632979}, "viewport": {"northeast": {"lat": 23.8167154802915, "lng": 86.4647476302915}, "southwest": {"lat": 23.81401751970849, "lng": 86.46204966970849}}}, "icon": "https://maps.gstatic.com/mapfiles/place_api/icons/v1/png_71/hospital-71.png", "icon_background_color": "#F88181", "icon_mask_base_uri": "https://maps.gstatic.com/mapfiles/place_api/icons/v2/hospital-H_pinlet", "name": "Sri Jagannath Health care (Dr. NM Das. MD.)", "opening_hours": {"open_now": true}, "photos": [{"height": 3456, "html_attributions": ["<a href=\"https://maps.google.com/maps/contrib/112376356800682273085\">Sri Jagannath Health care (Dr. NM Das. MD.)</a>"], "photo_reference": "Aap_uEB6yCfcnI3Ixv1UZZua1_whRN5mtsB4ObvVB_JUlpSMZux46M5cfGdo8ELzC-tVchXrIuv8jKf6kbGv0a2XgAP2nhy_StPgb4hTahkKnwbZiaWLDGZZ5YHzO12u3P9KKJvnDalNQ2n5VuaPOtb2ze3cxHiv58eapjee4kF2VfcmJf24", "width": 5184}], "place_id": "ChIJ3Sb8I3-89jkRcUDXACueD5M", "plus_code": {"compound_code": "RF87+68 Dhanbad, Jharkhand, India", "global_code": "7MM8RF87+68"}, "rating": 4.5, "reference": "ChIJ3Sb8I3-89jkRcUDXACueD5M", "scope": "GOOGLE", "types": ["hospital", "health", "point_of_interest", "establishment"], "user_ratings_total": 20, "vicinity": "beside Hero showroom, Sri Jagannath Health care & Research Centre, beside Hero showroom, Shanti Colony, Dhanbad"}], "status": "OK"}