{"html_attributions": [], "results": [{"business_status": "OPERATIONAL", "geometry": {"location": {"lat": 27.6458488, "lng": 79.9400976}, "viewport": {"northeast": {"lat": 27.6471839302915, "lng": 79.9414402802915}, "southwest": {"lat": 27.6444859697085, "lng": 79.9387423197085}}}, "icon": "https://maps.gstatic.com/mapfiles/place_api/icons/v1/png_71/hospital-71.png", "icon_background_color": "#F88181", "icon_mask_base_uri": "https://maps.gstatic.com/mapfiles/place_api/icons/v2/hospital-H_pinlet", "name": "Pushpa mahesh clinic", "opening_hours": {"open_now": false}, "photos": [{"height": 780, "html_attributions": ["<a href=\"https://maps.google.com/maps/contrib/113828736545717065580\">Pushpa mahesh clinic</a>"], "photo_reference": "Aap_uEBx3zRU1IyQ2FciLJx7OQmVr3pg003VaXlp2c0x9waMs05n_eGLVBXqTTjYXqOiLHtgr_fS8jeM-XiIRonIdEVZKhkA5LF7OIVUH3DX6Ik5a0UmGjsAAHvHFLJ-FCRf1aFdfEfeXaG7NwxYNERmEeVjCvl1NY5jqheA_go6DBd7oxSy", "width": 1040}], "place_id": "ChIJd2HeJeGtnzkRuhDBcWpcJCQ", "plus_code": {"compound_code": "JWWR+82 Shahabad, Uttar Pradesh, India", "global_code": "7JVXJWWR+82"}, "rating": 5, "reference": "ChIJd2HeJeGtnzkRuhDBcWpcJCQ", "scope": "GOOGLE", "types": ["hospital", "health", "point_of_interest", "establishment"], "user_ratings_total": 6, "vicinity": "jmal khan, Moh, Khatta - Dilerganj Road, Shahabad"}, {"business_status": "OPERATIONAL", "geometry": {"location": {"lat": 27.6352881, "lng": 79.9417236}, "viewport": {"northeast": {"lat": 27.6366635302915, "lng": 79.9430615302915}, "southwest": {"lat": 27.63396556970849, "lng": 79.94036356970848}}}, "icon": "https://maps.gstatic.com/mapfiles/place_api/icons/v1/png_71/hospital-71.png", "icon_background_color": "#F88181", "icon_mask_base_uri": "https://maps.gstatic.com/mapfiles/place_api/icons/v2/hospital-H_pinlet", "name": "Family health center", "photos": [{"height": 4000, "html_attributions": ["<a href=\"https://maps.google.com/maps/contrib/113129514823297782013\">Manoj Kumar</a>"], "photo_reference": "Aap_uEAYlld4qsz8jJqHWnbV6gqeD3i-aD1AiClkMIrnEdlOC_s6zjWUcj_rJfUkXj6DWMPNQr_4TX8fF63fqZ2kyidg9OPR3ijFhbuSfGn2WMN3Su83uhvAoOSmVwURWsUPvlrHEVZha_rSL8DSLaUNVbiWr6KQwq3dq-TbUjWAPj-5d-06", "width": 1800}], "place_id": "ChIJkwZHQEqtnzkRExkgNojZMtE", "plus_code": {"compound_code": "JWPR+4M Shahabad, Uttar Pradesh, India", "global_code": "7JVXJWPR+4M"}, "reference": "ChIJkwZHQEqtnzkRExkgNojZMtE", "scope": "GOOGLE", "types": ["hospital", "health", "point_of_interest", "establishment"], "vicinity": "Budh Baazaar Road, Shahabad"}, {"business_status": "OPERATIONAL", "geometry": {"location": {"lat": 27.6472188, "lng": 79.9382447}, "viewport": {"northeast": {"lat": 27.6485630802915, "lng": 79.9397321802915}, "southwest": {"lat": 27.6458651197085, "lng": 79.93703421970848}}}, "icon": "https://maps.gstatic.com/mapfiles/place_api/icons/v1/png_71/hospital-71.png", "icon_background_color": "#F88181", "icon_mask_base_uri": "https://maps.gstatic.com/mapfiles/place_api/icons/v2/hospital-H_pinlet", "name": "Dr. Ram Nath Hospital", "opening_hours": {"open_now": false}, "place_id": "ChIJy-JfI-GtnzkR6Rwp7tE1sSk", "rating": 5, "reference": "ChIJy-JfI-GtnzkR6Rwp7tE1sSk", "scope": "GOOGLE", "types": ["hospital", "health", "point_of_interest", "establishment"], "user_ratings_total": 2, "vicinity": "JWWQ+V7Q, Dilerganj, Shahabad"}, {"business_status": "OPERATIONAL", "geometry": {"location": {"lat": 27.6444638, "lng": 79.9367414}, "viewport": {"northeast": {"lat": 27.6458129302915, "lng": 79.93806733029153}, "southwest": {"lat": 27.6431149697085, "lng": 79.93536936970851}}}, "icon": "https://maps.gstatic.com/mapfiles/place_api/icons/v1/png_71/hospital-71.png", "icon_background_color": "#F88181", "icon_mask_base_uri": "https://maps.gstatic.com/mapfiles/place_api/icons/v2/hospital-H_pinlet", "name": "Bala Ji Medical Store", "opening_hours": {"open_now": false}, "place_id": "ChIJQ3QhmOatnzkRTnT_LU8Xng4", "reference": "ChIJQ3QhmOatnzkRTnT_LU8Xng4", "scope": "GOOGLE", "types": ["hospital", "health", "point_of_interest", "establishment"], "vicinity": "JWVP+QMQ, Shahabad"}, {"business_status": "OPERATIONAL", "geometry": {"location": {"lat": 27.6400919, "lng": 79.93550189999999}, "viewport": {"northeast": {"lat": 27.6413540302915, "lng": 79.93693228029149}, "southwest": {"lat": 27.6386560697085, "lng": 79.93423431970848}}}, "icon": "https://maps.gstatic.com/mapfiles/place_api/icons/v1/png_71/hospital-71.png", "icon_background_color": "#F88181", "icon_mask_base_uri": "https://maps.gstatic.com/mapfiles/place_api/icons/v2/hospital-H_pinlet", "name": "Life Link Clinic", "opening_hours": {"open_now": true}, "photos": [{"height": 1536, "html_attributions": ["<a href=\"https://maps.google.com/maps/contrib/101458780096433752523\">Mayank Dixit</a>"], "photo_reference": "Aap_uEAcRlxVbgadWPVDfDuPP0Sptn4wt4CdRCsXaA4rUoZ64AMU6M2iQ_7EaNXxWyt1WB8nbYn2sImOBrqAfe7IGUJbgeyRNGUPQVikYQpldRZQOHiQHOIUyXRhMX9kichaI7EO8_Gf8pcRhspYPgLfk5a6JtrVZj6jaP-lxotKuvyfMTOC", "width": 1536}], "place_id": "ChIJVR3RV--tnzkRBy-yarniopM", "rating": 4, "reference": "ChIJVR3RV--tnzkRBy-yarniopM", "scope": "GOOGLE", "types": ["hospital", "health", "point_of_interest", "establishment"], "user_ratings_total": 1, "vicinity": "JWRP+26J, mohalla gigiyani, Shahabad"}, {"business_status": "OPERATIONAL", "geometry": {"location": {"lat": 27.6402974, "lng": 79.9353047}, "viewport": {"northeast": {"lat": 27.64166058029151, "lng": 79.9366232302915}, "southwest": {"lat": 27.6389626197085, "lng": 79.9339252697085}}}, "icon": "https://maps.gstatic.com/mapfiles/place_api/icons/v1/png_71/hospital-71.png", "icon_background_color": "#F88181", "icon_mask_base_uri": "https://maps.gstatic.com/mapfiles/place_api/icons/v2/hospital-H_pinlet", "name": "Dr Maya Hospital", "opening_hours": {"open_now": false}, "photos": [{"height": 4128, "html_attributions": ["<a href=\"https://maps.google.com/maps/contrib/101552482970214374989\">Santosh Agnihotri</a>"], "photo_reference": "Aap_uEA67ocdjpqmwpieQ3TtkRh4-n9XKmOKe7lenLq3r_A011KtacCC3tHSCSjhoveLgY5TfbzogUe2tY1SUfvc-SuzM064UAj6-yPI-2KX3eAbhs9AK4rQ2__1maGwlWYXRzN_xC4i3TX6OXoIvw3Fgz6WUb-53AHcREw92V-5GIRu6JU6", "width": 3096}], "place_id": "ChIJjbLQUO-tnzkRtdqbN5j6eBU", "plus_code": {"compound_code": "JWRP+44 Shahabad, Uttar Pradesh, India", "global_code": "7JVXJWRP+44"}, "rating": 4.2, "reference": "ChIJjbLQUO-tnzkRtdqbN5j6eBU", "scope": "GOOGLE", "types": ["hospital", "health", "point_of_interest", "establishment"], "user_ratings_total": 6, "vicinity": "Shivalay Lane, Shahabad"}, {"business_status": "OPERATIONAL", "geometry": {"location": {"lat": 27.6492406, "lng": 79.9382133}, "viewport": {"northeast": {"lat": 27.6505743302915, "lng": 79.93955493029151}, "southwest": {"lat": 27.64787636970849, "lng": 79.93685696970849}}}, "icon": "https://maps.gstatic.com/mapfiles/place_api/icons/v1/png_71/hospital-71.png", "icon_background_color": "#F88181", "icon_mask_base_uri": "https://maps.gstatic.com/mapfiles/place_api/icons/v2/hospital-H_pinlet", "name": "+DR.GAURAV YADAV GERMAN HOMEOPATHIC CLINIC+", "opening_hours": {"open_now": false}, "photos": [{"height": 3120, "html_attributions": ["<a href=\"https://maps.google.com/maps/contrib/107396983129923580565\">Gaurav Yadav</a>"], "photo_reference": "Aap_uEBPAJmR6BuGcT2yYtSxdoOWSSQtZyzID5f2g6KX6RgT2w726hDuV8d6ookURYukPuETmS2c5Vj7xvIhFVTT_j_BQowHbooiEzaa4INc0olQK4TsnUoaBOQgY6zo4-o89n6nu2KbDWK2JuU5NiYUu8kBjVyno1RO0oCgEm8Vz2N87QeV", "width": 4160}], "place_id": "ChIJIXgYz8GtnzkRGiIe_pE97Cc", "plus_code": {"compound_code": "JWXQ+M7 Shahabad, Uttar Pradesh, India", "global_code": "7JVXJWXQ+M7"}, "rating": 4.7, "reference": "ChIJIXgYz8GtnzkRGiIe_pE97Cc", "scope": "GOOGLE", "types": ["hospital", "drugstore", "pharmacy", "health", "point_of_interest", "store", "establishment"], "user_ratings_total": 13, "vicinity": "State Bank toTehsil Road Shahabad, Shahabad"}, {"business_status": "OPERATIONAL", "geometry": {"location": {"lat": 27.641005, "lng": 79.934702}, "viewport": {"northeast": {"lat": 27.6423011802915, "lng": 79.93602683029151}, "southwest": {"lat": 27.6396032197085, "lng": 79.9333288697085}}}, "icon": "https://maps.gstatic.com/mapfiles/place_api/icons/v1/png_71/hospital-71.png", "icon_background_color": "#F88181", "icon_mask_base_uri": "https://maps.gstatic.com/mapfiles/place_api/icons/v2/hospital-H_pinlet", "name": "Zeenat Dental Clinic", "opening_hours": {"open_now": false}, "photos": [{"height": 1536, "html_attributions": ["<a href=\"https://maps.google.com/maps/contrib/107241701671746573584\">Mohd Kasif 10th-c kasif</a>"], "photo_reference": "Aap_uEDvoT-QM3X_CXELgFw7ObSGkMN7-ZWsacIiSK4sWVQR_3dnhSIQFq2CkfJQpDh8BHk168UKEYZ_yub2-F7GpNmW_Gv9pK6weUd5k2z_Q9nXPD6_W8OwefVNpLrBSnR-OafdG9s4_09dv6b0sKcEoVtYcZC_uYG_-4FNxNvrgePxJKv0", "width": 2560}], "place_id": "ChIJAYfQ7OWtnzkRtLmqS3nd59A", "rating": 4, "reference": "ChIJAYfQ7OWtnzkRtLmqS3nd59A", "scope": "GOOGLE", "types": ["hospital", "health", "point_of_interest", "establishment"], "user_ratings_total": 1, "vicinity": "JWRM+CV4, Shahabad"}, {"business_status": "OPERATIONAL", "geometry": {"location": {"lat": 27.6387093, "lng": 79.93440679999999}, "viewport": {"northeast": {"lat": 27.6401140802915, "lng": 79.9357212302915}, "southwest": {"lat": 27.6374161197085, "lng": 79.93302326970849}}}, "icon": "https://maps.gstatic.com/mapfiles/place_api/icons/v1/png_71/hospital-71.png", "icon_background_color": "#F88181", "icon_mask_base_uri": "https://maps.gstatic.com/mapfiles/place_api/icons/v2/hospital-H_pinlet", "name": "Dr. Anshul Vishwakarma Clinic", "photos": [{"height": 2048, "html_attributions": ["<a href=\"https://maps.google.com/maps/contrib/114186614675757997581\">Himanshu Vishwakarma</a>"], "photo_reference": "Aap_uEAD-KcSyxOZSBsHK7fWJR-cYImjrorEgnl0eR2p4gRSqGMn-PG3RC1VdJ6tZWdaJvMM4f4z9Qem7Y_PvSzMYKWc4ge72md8R4mIYEC1jML2C8Aulc2NYPZoLzDx6HBcg3Iayma9m5bKiIFOLx7NGH2hMxySGoFVqEhq-HizM5LWXjGV", "width": 1536}], "place_id": "ChIJzRP3-r-tnzkR_jkh-wePzto", "reference": "ChIJzRP3-r-tnzkR_jkh-wePzto", "scope": "GOOGLE", "types": ["hospital", "health", "point_of_interest", "establishment"], "vicinity": "JWQM+FQM, Shahabad"}, {"business_status": "OPERATIONAL", "geometry": {"location": {"lat": 27.6384223, "lng": 79.93449799999999}, "viewport": {"northeast": {"lat": 27.6398394302915, "lng": 79.93584948029151}, "southwest": {"lat": 27.6371414697085, "lng": 79.93315151970849}}}, "icon": "https://maps.gstatic.com/mapfiles/place_api/icons/v1/png_71/hospital-71.png", "icon_background_color": "#F88181", "icon_mask_base_uri": "https://maps.gstatic.com/mapfiles/place_api/icons/v2/hospital-H_pinlet", "name": "Dr. Vishwakarma Dental Clinic", "photos": [{"height": 426, "html_attributions": ["<a href=\"https://maps.google.com/maps/contrib/102955935194258569968\">Dr. Vishwakarma Dental Clinic</a>"], "photo_reference": "Aap_uED5tmDMYAluA1RTGkx8pFqshW_JOukPN8NMX2WntbKooAndAHH8vXDnbBG819nbTCZvbRJ6WAK9oJ3DTU9MmN6EhANvjaBNGEqlFZKfah-Pje9_-Nvgvw8I41w-5kLTJX5DSWH7yQ1SIHoU-UsLzxkXAFM0W_dwDJMCmmtWn-b1HTX5", "width": 640}], "place_id": "ChIJjYwAFe-tnzkR-0-pgYJ4Xrw", "plus_code": {"compound_code": "JWQM+9Q Shahabad, Uttar Pradesh, India", "global_code": "7JVXJWQM+9Q"}, "rating": 5, "reference": "ChIJjYwAFe-tnzkR-0-pgYJ4Xrw", "scope": "GOOGLE", "types": ["hospital", "health", "point_of_interest", "establishment"], "user_ratings_total": 2, "vicinity": "Shivalay Lane, Shahabad"}, {"business_status": "OPERATIONAL", "geometry": {"location": {"lat": 27.6525797, "lng": 79.9404409}, "viewport": {"northeast": {"lat": 27.65393978029151, "lng": 79.9417384802915}, "southwest": {"lat": 27.6512418197085, "lng": 79.9390405197085}}}, "icon": "https://maps.gstatic.com/mapfiles/place_api/icons/v1/png_71/hospital-71.png", "icon_background_color": "#F88181", "icon_mask_base_uri": "https://maps.gstatic.com/mapfiles/place_api/icons/v2/hospital-H_pinlet", "name": "Aalam Clinic Near Sonalika Tractor Agency", "place_id": "ChIJCw5TogqunzkRWpNjX86hI_Q", "plus_code": {"compound_code": "MW3R+25 Shahabad, Uttar Pradesh, India", "global_code": "7JVXMW3R+25"}, "rating": 4.7, "reference": "ChIJCw5TogqunzkRWpNjX86hI_Q", "scope": "GOOGLE", "types": ["hospital", "health", "point_of_interest", "establishment"], "user_ratings_total": 6, "vicinity": "Aawaas Vikas Road, Shahabad"}, {"business_status": "OPERATIONAL", "geometry": {"location": {"lat": 27.6502836, "lng": 79.93659199999999}, "viewport": {"northeast": {"lat": 27.6516322302915, "lng": 79.9379977802915}, "southwest": {"lat": 27.6489342697085, "lng": 79.93529981970848}}}, "icon": "https://maps.gstatic.com/mapfiles/place_api/icons/v1/png_71/hospital-71.png", "icon_background_color": "#F88181", "icon_mask_base_uri": "https://maps.gstatic.com/mapfiles/place_api/icons/v2/hospital-H_pinlet", "name": "Urmila Clinic", "place_id": "ChIJbYy4jOGtnzkRHWS9laaFCzU", "plus_code": {"compound_code": "MW2P+4J Shahabad, Uttar Pradesh, India", "global_code": "7JVXMW2P+4J"}, "reference": "ChIJbYy4jOGtnzkRHWS9laaFCzU", "scope": "GOOGLE", "types": ["hospital", "health", "point_of_interest", "establishment"], "vicinity": "Shivalay Lane, Shahabad"}, {"business_status": "OPERATIONAL", "geometry": {"location": {"lat": 27.6508529, "lng": 79.9369775}, "viewport": {"northeast": {"lat": 27.6522394302915, "lng": 79.93828698029151}, "southwest": {"lat": 27.6495414697085, "lng": 79.9355890197085}}}, "icon": "https://maps.gstatic.com/mapfiles/place_api/icons/v1/png_71/hospital-71.png", "icon_background_color": "#F88181", "icon_mask_base_uri": "https://maps.gstatic.com/mapfiles/place_api/icons/v2/hospital-H_pinlet", "name": "\u0938\u0930\u0915\u093e\u0930\u0940 \u0905\u0938\u094d\u092a\u0924\u093e\u0932", "place_id": "ChIJw3_t7uGtnzkRadyDa3roYPw", "reference": "ChIJw3_t7uGtnzkRadyDa3roYPw", "scope": "GOOGLE", "types": ["hospital", "health", "point_of_interest", "establishment"], "vicinity": "MW2P+8QX, Shahabad"}, {"geometry": {"location": {"lat": 27.6508706, "lng": 79.9373708}, "viewport": {"northeast": {"lat": 27.65223728395686, "lng": 79.93868242766357}, "southwest": {"lat": 27.64953932337385, "lng": 79.93598446708054}}}, "icon": "https://maps.gstatic.com/mapfiles/place_api/icons/v1/png_71/hospital-71.png", "icon_background_color": "#F88181", "icon_mask_base_uri": "https://maps.gstatic.com/mapfiles/place_api/icons/v2/hospital-H_pinlet", "name": "Government Hospital", "place_id": "ChIJZ-nS4OGtnzkRzYV1NdHtbck", "reference": "ChIJZ-nS4OGtnzkRzYV1NdHtbck", "scope": "GOOGLE", "types": ["hospital", "premise", "health", "point_of_interest", "establishment"], "vicinity": "Shahabad"}], "status": "OK"}