{"html_attributions": [], "results": [{"business_status": "OPERATIONAL", "geometry": {"location": {"lat": 26.9006031, "lng": 79.9794659}, "viewport": {"northeast": {"lat": 26.9019135302915, "lng": 79.98081693029148}, "southwest": {"lat": 26.8992155697085, "lng": 79.97811896970848}}}, "icon": "https://maps.gstatic.com/mapfiles/place_api/icons/v1/png_71/hospital-71.png", "icon_background_color": "#F88181", "icon_mask_base_uri": "https://maps.gstatic.com/mapfiles/place_api/icons/v2/hospital-H_pinlet", "name": "Makanpur Medical Pharma", "photos": [{"height": 1844, "html_attributions": ["<a href=\"https://maps.google.com/maps/contrib/104805183151633315050\">Salman Jafri</a>"], "photo_reference": "Aap_uEB9HkRMJ8ube_kTF0_La7uVPcTTiGqHygSg1CgNfhWwtz5pjT_EPwftHOTZ7Lzjc_m6mUGJm8X2RDU3EB6_TyJN9XidGsd42-AHhSbkIcdRqvXN0GYxwDLEsI1y52syL6mBoDY7KggQ2tmEfiASi8gBYMGkIVjmJBGQGj-iepRaJkLZ", "width": 4000}], "place_id": "ChIJXYtP1555njkRHoLIdQrEsb8", "rating": 5, "reference": "ChIJXYtP1555njkRHoLIdQrEsb8", "scope": "GOOGLE", "types": ["hospital", "health", "point_of_interest", "establishment"], "user_ratings_total": 4, "vicinity": "WX2H+6QW, Makanpur"}, {"business_status": "OPERATIONAL", "geometry": {"location": {"lat": 26.9008964, "lng": 79.9792648}, "viewport": {"northeast": {"lat": 26.9020996302915, "lng": 79.9805651802915}, "southwest": {"lat": 26.8994016697085, "lng": 79.9778672197085}}}, "icon": "https://maps.gstatic.com/mapfiles/place_api/icons/v1/png_71/hospital-71.png", "icon_background_color": "#F88181", "icon_mask_base_uri": "https://maps.gstatic.com/mapfiles/place_api/icons/v2/hospital-H_pinlet", "name": "Dr. Lala Makanpur", "opening_hours": {"open_now": true}, "place_id": "ChIJP69WuGV5njkRDHOOmba72Do", "reference": "ChIJP69WuGV5njkRDHOOmba72Do", "scope": "GOOGLE", "types": ["hospital", "health", "point_of_interest", "establishment"], "vicinity": "WX2H+9P2, Makanpur"}, {"business_status": "OPERATIONAL", "geometry": {"location": {"lat": 26.9014083, "lng": 79.97645920000001}, "viewport": {"northeast": {"lat": 26.9027073302915, "lng": 79.97772213029151}, "southwest": {"lat": 26.9000093697085, "lng": 79.9750241697085}}}, "icon": "https://maps.gstatic.com/mapfiles/place_api/icons/v1/png_71/hospital-71.png", "icon_background_color": "#F88181", "icon_mask_base_uri": "https://maps.gstatic.com/mapfiles/place_api/icons/v2/hospital-H_pinlet", "name": "New P.H.C. Makanpur", "opening_hours": {"open_now": false}, "photos": [{"height": 3120, "html_attributions": ["<a href=\"https://maps.google.com/maps/contrib/110561652325705269342\">Sushil Kumar Rajvanshi</a>"], "photo_reference": "Aap_uEBxvLCggI-7hyIkmmLvKFIE-rc2EDVeEVXYgu5ZnSeUEMLkQ1ngdIXxBLTuu08wwu1XjwPTEUAw6wPex-c1aLD72qW7-_alRTwZCTzzzYSnjwy8wvWGxkqWikiziBR05FXXZPKX-NrGSUzzmazYsqaLwqSQZ9jKkr4LhY6xDjBMKlqN", "width": 4160}], "place_id": "ChIJZ8RUIGV5njkR_nVvsfB-PYM", "plus_code": {"compound_code": "WX2G+HH Makanpur, Uttar Pradesh, India", "global_code": "7JRXWX2G+HH"}, "rating": 4, "reference": "ChIJZ8RUIGV5njkR_nVvsfB-PYM", "scope": "GOOGLE", "types": ["hospital", "health", "point_of_interest", "establishment"], "user_ratings_total": 4, "vicinity": "Makanpur"}], "status": "OK"}