{"html_attributions": [], "results": [{"business_status": "OPERATIONAL", "geometry": {"location": {"lat": 27.0302148, "lng": 80.0261769}, "viewport": {"northeast": {"lat": 27.0315789802915, "lng": 80.0275365302915}, "southwest": {"lat": 27.0288810197085, "lng": 80.02483856970849}}}, "icon": "https://maps.gstatic.com/mapfiles/place_api/icons/v1/png_71/hospital-71.png", "icon_background_color": "#F88181", "icon_mask_base_uri": "https://maps.gstatic.com/mapfiles/place_api/icons/v2/hospital-H_pinlet", "name": "Manoj medical store vipin", "place_id": "ChIJgzeNUbljnjkRIsW5W9OpDr4", "plus_code": {"compound_code": "22JG+3F Babatmau, Uttar Pradesh, India", "global_code": "7MV222JG+3F"}, "rating": 5, "reference": "ChIJgzeNUbljnjkRIsW5W9OpDr4", "scope": "GOOGLE", "types": ["hospital", "health", "point_of_interest", "establishment"], "user_ratings_total": 1, "vicinity": "Unnamed Road, Babatmau"}, {"business_status": "OPERATIONAL", "geometry": {"location": {"lat": 27.0301888, "lng": 80.0261831}, "viewport": {"northeast": {"lat": 27.0315668302915, "lng": 80.0275524802915}, "southwest": {"lat": 27.0288688697085, "lng": 80.0248545197085}}}, "icon": "https://maps.gstatic.com/mapfiles/place_api/icons/v1/png_71/hospital-71.png", "icon_background_color": "#F88181", "icon_mask_base_uri": "https://maps.gstatic.com/mapfiles/place_api/icons/v2/hospital-H_pinlet", "name": "Shukla medical store", "place_id": "ChIJvXXS35ljnjkR4wjv6sydvyg", "plus_code": {"compound_code": "22JG+3F Babatmau, Uttar Pradesh, India", "global_code": "7MV222JG+3F"}, "reference": "ChIJvXXS35ljnjkR4wjv6sydvyg", "scope": "GOOGLE", "types": ["hospital", "health", "point_of_interest", "establishment"], "vicinity": "Unnamed Road, Babatmau"}, {"business_status": "OPERATIONAL", "geometry": {"location": {"lat": 27.0301543, "lng": 80.02618679999999}, "viewport": {"northeast": {"lat": 27.0315440302915, "lng": 80.0275643802915}, "southwest": {"lat": 27.0288460697085, "lng": 80.02486641970847}}}, "icon": "https://maps.gstatic.com/mapfiles/place_api/icons/v1/png_71/hospital-71.png", "icon_background_color": "#F88181", "icon_mask_base_uri": "https://maps.gstatic.com/mapfiles/place_api/icons/v2/hospital-H_pinlet", "name": "Shukla medical store rampurwa", "place_id": "ChIJWR2VNaZjnjkR_QOJjP97tjo", "plus_code": {"compound_code": "22JG+3F Babatmau, Uttar Pradesh, India", "global_code": "7MV222JG+3F"}, "reference": "ChIJWR2VNaZjnjkR_QOJjP97tjo", "scope": "GOOGLE", "types": ["hospital", "health", "point_of_interest", "establishment"], "vicinity": "Unnamed Road, Babatmau"}], "status": "OK"}