{"html_attributions": [], "results": [{"business_status": "OPERATIONAL", "geometry": {"location": {"lat": 27.4010633, "lng": 80.02375359999999}, "viewport": {"northeast": {"lat": 27.4023931302915, "lng": 80.02509413029149}, "southwest": {"lat": 27.39969516970849, "lng": 80.02239616970849}}}, "icon": "https://maps.gstatic.com/mapfiles/place_api/icons/v1/png_71/hospital-71.png", "icon_background_color": "#F88181", "icon_mask_base_uri": "https://maps.gstatic.com/mapfiles/place_api/icons/v2/hospital-H_pinlet", "name": "\u092a\u094d\u0930\u093e\u0925\u092e\u093f\u0915 \u0938\u094d\u0935\u093e\u0938\u094d\u0925 \u0915\u0947\u0902\u0926\u094d\u0930", "place_id": "ChIJOZwW-R1XnjkRwaZ9wBzbpIk", "reference": "ChIJOZwW-R1XnjkRwaZ9wBzbpIk", "scope": "GOOGLE", "types": ["hospital", "health", "point_of_interest", "establishment"], "vicinity": "C22F+CGC, Mujahidpur"}, {"business_status": "OPERATIONAL", "geometry": {"location": {"lat": 27.4012333, "lng": 80.02355349999999}, "viewport": {"northeast": {"lat": 27.4025144802915, "lng": 80.0248725802915}, "southwest": {"lat": 27.39981651970849, "lng": 80.0221746197085}}}, "icon": "https://maps.gstatic.com/mapfiles/place_api/icons/v1/png_71/hospital-71.png", "icon_background_color": "#F88181", "icon_mask_base_uri": "https://maps.gstatic.com/mapfiles/place_api/icons/v2/hospital-H_pinlet", "name": "Community Health Centre (CHC)", "opening_hours": {"open_now": true}, "photos": [{"height": 1080, "html_attributions": ["<a href=\"https://maps.google.com/maps/contrib/107911663987618190904\">Aakash Rathore</a>"], "photo_reference": "Aap_uEDZvqbKjVqkpaxY-pT8rrrmk9Eop4XKL_EcxfXde_deeDz_VPMFh43bw7yqYu_JArdhbmTGdNu4uucxfcEVXd1bJZPxFV9P1y5qVX9OskkYMjjV31pbFRvvnyFRp_2-BvQanpLJ8e6A1fOOAZN9u5lxE6AxmSliUE--BelhAF2U37We", "width": 1920}], "place_id": "ChIJf7EnsUZXnjkRZ4Ky6wUTc2w", "plus_code": {"compound_code": "C22F+FC Mujahidpur, Uttar Pradesh, India", "global_code": "7MV2C22F+FC"}, "reference": "ChIJf7EnsUZXnjkRZ4Ky6wUTc2w", "scope": "GOOGLE", "types": ["hospital", "health", "point_of_interest", "establishment"], "vicinity": "Baddupur - Mohabbatpur Road, Mujahidpur"}, {"business_status": "OPERATIONAL", "geometry": {"location": {"lat": 27.4030773, "lng": 80.03113640000001}, "viewport": {"northeast": {"lat": 27.4044314302915, "lng": 80.03242660000002}, "southwest": {"lat": 27.4017334697085, "lng": 80.0272658}}}, "icon": "https://maps.gstatic.com/mapfiles/place_api/icons/v1/png_71/hospital-71.png", "icon_background_color": "#F88181", "icon_mask_base_uri": "https://maps.gstatic.com/mapfiles/place_api/icons/v2/hospital-H_pinlet", "name": "Aayat hospital", "place_id": "ChIJDwRtdlRXnjkRMQ_Y3cXsCmE", "reference": "ChIJDwRtdlRXnjkRMQ_Y3cXsCmE", "scope": "GOOGLE", "types": ["hospital", "health", "point_of_interest", "establishment"], "vicinity": "C23J+6FJ"}, {"business_status": "OPERATIONAL", "geometry": {"location": {"lat": 27.4005445, "lng": 80.0210063}, "viewport": {"northeast": {"lat": 27.4018946302915, "lng": 80.02235093029152}, "southwest": {"lat": 27.3991966697085, "lng": 80.01965296970852}}}, "icon": "https://maps.gstatic.com/mapfiles/place_api/icons/v1/png_71/hospital-71.png", "icon_background_color": "#F88181", "icon_mask_base_uri": "https://maps.gstatic.com/mapfiles/place_api/icons/v2/hospital-H_pinlet", "name": "Shamshad Machinery Store", "opening_hours": {"open_now": true}, "place_id": "ChIJ-6Vn8nRXnjkRa5nZPF5JzMM", "reference": "ChIJ-6Vn8nRXnjkRa5nZPF5JzMM", "scope": "GOOGLE", "types": ["hospital", "health", "point_of_interest", "establishment"], "vicinity": "C22C+6C6, Bawan"}, {"business_status": "OPERATIONAL", "geometry": {"location": {"lat": 27.3978435, "lng": 80.0192922}, "viewport": {"northeast": {"lat": 27.3992027302915, "lng": 80.0206271802915}, "southwest": {"lat": 27.39650476970849, "lng": 80.01792921970848}}}, "icon": "https://maps.gstatic.com/mapfiles/place_api/icons/v1/png_71/hospital-71.png", "icon_background_color": "#F88181", "icon_mask_base_uri": "https://maps.gstatic.com/mapfiles/place_api/icons/v2/hospital-H_pinlet", "name": "Dr Avneesh Kumar Pandey", "opening_hours": {"open_now": true}, "place_id": "ChIJ4SyvokhXnjkRTsZWZiba5NE", "reference": "ChIJ4SyvokhXnjkRTsZWZiba5NE", "scope": "GOOGLE", "types": ["hospital", "health", "point_of_interest", "establishment"], "vicinity": "92X9+4PM, Bawan"}, {"business_status": "OPERATIONAL", "geometry": {"location": {"lat": 27.3978309, "lng": 80.01910319999999}, "viewport": {"northeast": {"lat": 27.3991565802915, "lng": 80.02048218029151}, "southwest": {"lat": 27.39645861970849, "lng": 80.01778421970849}}}, "icon": "https://maps.gstatic.com/mapfiles/place_api/icons/v1/png_71/hospital-71.png", "icon_background_color": "#F88181", "icon_mask_base_uri": "https://maps.gstatic.com/mapfiles/place_api/icons/v2/hospital-H_pinlet", "name": "Dr Narendra kumar Pandey", "place_id": "ChIJuRl8vUhXnjkRLTz37_oMUXo", "reference": "ChIJuRl8vUhXnjkRLTz37_oMUXo", "scope": "GOOGLE", "types": ["hospital", "health", "point_of_interest", "establishment"], "vicinity": "92X9+4JQ, Bawan"}, {"business_status": "OPERATIONAL", "geometry": {"location": {"lat": 27.3930664, "lng": 80.02062149999999}, "viewport": {"northeast": {"lat": 27.3944106802915, "lng": 80.02197728029151}, "southwest": {"lat": 27.3917127197085, "lng": 80.0192793197085}}}, "icon": "https://maps.gstatic.com/mapfiles/place_api/icons/v1/png_71/hospital-71.png", "icon_background_color": "#F88181", "icon_mask_base_uri": "https://maps.gstatic.com/mapfiles/place_api/icons/v2/hospital-H_pinlet", "name": "Block, Bawan / Prathmik Swasth Kendra", "opening_hours": {"open_now": false}, "place_id": "ChIJSwZ9ekVXnjkRsG_3ONPXIjc", "plus_code": {"compound_code": "92VC+66 Bawan, Uttar Pradesh, India", "global_code": "7MV292VC+66"}, "rating": 5, "reference": "ChIJSwZ9ekVXnjkRsG_3ONPXIjc", "scope": "GOOGLE", "types": ["hospital", "health", "point_of_interest", "establishment"], "user_ratings_total": 1, "vicinity": "Unnamed Road, Bawan"}, {"business_status": "OPERATIONAL", "geometry": {"location": {"lat": 27.3933536, "lng": 80.0171608}, "viewport": {"northeast": {"lat": 27.3947274802915, "lng": 80.01849948029151}, "southwest": {"lat": 27.3920295197085, "lng": 80.0158015197085}}}, "icon": "https://maps.gstatic.com/mapfiles/place_api/icons/v1/png_71/hospital-71.png", "icon_background_color": "#F88181", "icon_mask_base_uri": "https://maps.gstatic.com/mapfiles/place_api/icons/v2/hospital-H_pinlet", "name": "samudayk swasth kendra", "place_id": "ChIJB5qsT4xXnjkRd2vW1uJnUf4", "reference": "ChIJB5qsT4xXnjkRd2vW1uJnUf4", "scope": "GOOGLE", "types": ["hospital", "health", "point_of_interest", "establishment"], "vicinity": "92V8+8VV, Bawan"}], "status": "OK"}