{"html_attributions": [], "next_page_token": "Aap_uEDGGtpjagPCbsZcHbVmvJXb-rtvEBU0xQfA-31Zhta5Fntcq3Lznio05FBBbSXUR5N_pK6OwhtXq7pNXdx8fvNfHOhwrvjbcXcPe3R7NicRFj_z428lGlLsg7qtN2iNA4mRhUbYyHky2PxVhQPzlgNAYue9imqdtRUb4RywKrv81pQCBaAiR7LU73pWGcV2NU-nrupkYceFv2i8rABv0H3dYymaS87blFCvsBW8bQqUckLFXfDLmFCfK80LgzshzkG43bwpj-ZQBvGoS1uYuSd8N_oLDwlkSY0diflKn16xal6CaBQn0rtECKQxbKQWtd5VenpbT7sWTNeqBaCwcqP0IxtyWpkeCm7DQGNYNTP5ax7ewePwHuJKuRxItTumaHXBkmrcAtDHyOaZj2Nly33hvw2tDkMtN45hy74ep0-pejafW7epfQ", "results": [{"business_status": "OPERATIONAL", "geometry": {"location": {"lat": 27.3868595, "lng": 80.1283436}, "viewport": {"northeast": {"lat": 27.3880710802915, "lng": 80.1296093802915}, "southwest": {"lat": 27.3853731197085, "lng": 80.12691141970849}}}, "icon": "https://maps.gstatic.com/mapfiles/place_api/icons/v1/png_71/hospital-71.png", "icon_background_color": "#F88181", "icon_mask_base_uri": "https://maps.gstatic.com/mapfiles/place_api/icons/v2/hospital-H_pinlet", "name": "Lakshmi Hospital", "opening_hours": {"open_now": false}, "photos": [{"height": 4160, "html_attributions": ["<a href=\"https://maps.google.com/maps/contrib/111209300938801993148\">Sarvesh Kumar</a>"], "photo_reference": "Aap_uEAvjF7P8VrkR5DxXraMI30D3bZoWLPHwoupzp1tNBCFFrJY9mCWeTklOBSrNtzjAiGzXI96kbIYcvwets0VbJncAUlSvJAGhGn-U-89D5HwOW3DxtwXHYdrpyfOzTLmzE8NpsTPC535DdOAa--p-poj22z1suifo7TH6cgl1uMwleHR", "width": 3120}], "place_id": "ChIJ2UGMfSf4njkRxuVFc1KSsig", "rating": 4, "reference": "ChIJ2UGMfSf4njkRxuVFc1KSsig", "scope": "GOOGLE", "types": ["hospital", "health", "point_of_interest", "establishment"], "user_ratings_total": 29, "vicinity": "94PH+P8W, Hardoi"}, {"business_status": "OPERATIONAL", "geometry": {"location": {"lat": 27.3867415, "lng": 80.12737969999999}, "viewport": {"northeast": {"lat": 27.38817563029151, "lng": 80.1287771302915}, "southwest": {"lat": 27.3854776697085, "lng": 80.12607916970849}}}, "icon": "https://maps.gstatic.com/mapfiles/place_api/icons/v1/png_71/hospital-71.png", "icon_background_color": "#F88181", "icon_mask_base_uri": "https://maps.gstatic.com/mapfiles/place_api/icons/v2/hospital-H_pinlet", "name": "Jeevan Hospital || Best Hospital In Hardoi | Cardiologist In Hardoi", "opening_hours": {"open_now": false}, "photos": [{"height": 3456, "html_attributions": ["<a href=\"https://maps.google.com/maps/contrib/110825793867532926559\">Jeevan Hospital || Best Hospital In Hardoi | Cardiologist In Hardoi</a>"], "photo_reference": "Aap_uEC9UPwPxp2W_0cP4krIBm5j0smy0iImX1JnVdwNfwl1JdOPCe0FgrSW81CYC8ulbOqzekGrLdxKMS9DTMPNZv8fxuP8WI8LkQ2aczl_m53TE36BSmb4NOqsUJbrMV9y38_R3bn98aCmaRzX-Htxb5gSScjQMKZZVgvFq8sL6YvI9KLM", "width": 5184}], "place_id": "ChIJYTX_r5_5njkR4i9gSNc6jNk", "plus_code": {"compound_code": "94PG+MX Hardoi, Uttar Pradesh, India", "global_code": "7MV294PG+MX"}, "reference": "ChIJYTX_r5_5njkR4i9gSNc6jNk", "scope": "GOOGLE", "types": ["hospital", "health", "point_of_interest", "establishment"], "vicinity": "Rafi Chauraha, Hardoi"}, {"business_status": "OPERATIONAL", "geometry": {"location": {"lat": 27.3847282, "lng": 80.1316054}, "viewport": {"northeast": {"lat": 27.3861939302915, "lng": 80.1330185802915}, "southwest": {"lat": 27.38349596970849, "lng": 80.1303206197085}}}, "icon": "https://maps.gstatic.com/mapfiles/place_api/icons/v1/png_71/hospital-71.png", "icon_background_color": "#F88181", "icon_mask_base_uri": "https://maps.gstatic.com/mapfiles/place_api/icons/v2/hospital-H_pinlet", "name": "Kisan hospital", "place_id": "ChIJa67LXAD3njkRST2VcL--6Ac", "plus_code": {"compound_code": "94MJ+VJ Hardoi, Uttar Pradesh, India", "global_code": "7MV294MJ+VJ"}, "rating": 1, "reference": "ChIJa67LXAD3njkRST2VcL--6Ac", "scope": "GOOGLE", "types": ["hospital", "health", "point_of_interest", "establishment"], "user_ratings_total": 1, "vicinity": "R.T.O. Office, Chauraha, Circular Road, Industrial Area, Hardoi"}, {"business_status": "OPERATIONAL", "geometry": {"location": {"lat": 27.3863743, "lng": 80.12976010000001}, "viewport": {"northeast": {"lat": 27.3877563302915, "lng": 80.13116453029151}, "southwest": {"lat": 27.3850583697085, "lng": 80.12846656970851}}}, "icon": "https://maps.gstatic.com/mapfiles/place_api/icons/v1/png_71/hospital-71.png", "icon_background_color": "#F88181", "icon_mask_base_uri": "https://maps.gstatic.com/mapfiles/place_api/icons/v2/hospital-H_pinlet", "name": "Shanti Kuti Hospital", "opening_hours": {"open_now": true}, "place_id": "ChIJ82eyJYj3njkRjidU55Qv3LE", "plus_code": {"compound_code": "94PH+GW Hardoi, Uttar Pradesh, India", "global_code": "7MV294PH+GW"}, "rating": 3.3, "reference": "ChIJ82eyJYj3njkRjidU55Qv3LE", "scope": "GOOGLE", "types": ["hospital", "health", "point_of_interest", "establishment"], "user_ratings_total": 3, "vicinity": "Near ARTO Office, Circular Road, Hardoi"}, {"business_status": "OPERATIONAL", "geometry": {"location": {"lat": 27.3871928, "lng": 80.1271878}, "viewport": {"northeast": {"lat": 27.3884849302915, "lng": 80.1285027302915}, "southwest": {"lat": 27.38578696970849, "lng": 80.1258047697085}}}, "icon": "https://maps.gstatic.com/mapfiles/place_api/icons/v1/png_71/hospital-71.png", "icon_background_color": "#F88181", "icon_mask_base_uri": "https://maps.gstatic.com/mapfiles/place_api/icons/v2/hospital-H_pinlet", "name": "jeevan polyclinic", "opening_hours": {"open_now": true}, "place_id": "ChIJb1l6XCf4njkRIL9Tt-ebjKs", "rating": 5, "reference": "ChIJb1l6XCf4njkRIL9Tt-ebjKs", "scope": "GOOGLE", "types": ["hospital", "health", "point_of_interest", "establishment"], "user_ratings_total": 2, "vicinity": "94PG+VVG, Hardoi"}, {"business_status": "OPERATIONAL", "geometry": {"location": {"lat": 27.38565379999999, "lng": 80.1330019}, "viewport": {"northeast": {"lat": 27.3870352802915, "lng": 80.13436183029151}, "southwest": {"lat": 27.38433731970849, "lng": 80.13166386970849}}}, "icon": "https://maps.gstatic.com/mapfiles/place_api/icons/v1/png_71/hospital-71.png", "icon_background_color": "#F88181", "icon_mask_base_uri": "https://maps.gstatic.com/mapfiles/place_api/icons/v2/hospital-H_pinlet", "name": "Manoher Medical Center", "opening_hours": {"open_now": false}, "photos": [{"height": 4160, "html_attributions": ["<a href=\"https://maps.google.com/maps/contrib/109523345078723992839\">Hari Sharan Sharma</a>"], "photo_reference": "Aap_uEAJwAgGZ556jl5NlhgTNzRl85sPXbQBMyHShU8M53XdMwQgZdtzSuPDzrVO1Yu48ewDRWRxFAXigI5Ef2aWF7MIpVwqGUKPsiJPRK2F7eE5lYusNz5ms4Jy5ndLBOthPJTyLRXch456EYQcNdXZAH_h5Qe0QLIIc8D0W_kS32uxqQth", "width": 2340}], "place_id": "ChIJnSnR64f3njkRHmNQmjWCY5U", "plus_code": {"compound_code": "94PM+76 Hardoi, Uttar Pradesh, India", "global_code": "7MV294PM+76"}, "rating": 3.5, "reference": "ChIJnSnR64f3njkRHmNQmjWCY5U", "scope": "GOOGLE", "types": ["hospital", "health", "point_of_interest", "establishment"], "user_ratings_total": 2, "vicinity": "C-278, Circular Road, Avas Vikas Colony, Hardoi"}, {"business_status": "OPERATIONAL", "geometry": {"location": {"lat": 27.3827346, "lng": 80.1177328}, "viewport": {"northeast": {"lat": 27.3840717302915, "lng": 80.11907983029151}, "southwest": {"lat": 27.3813737697085, "lng": 80.1163818697085}}}, "icon": "https://maps.gstatic.com/mapfiles/place_api/icons/v1/png_71/hospital-71.png", "icon_background_color": "#F88181", "icon_mask_base_uri": "https://maps.gstatic.com/mapfiles/place_api/icons/v2/hospital-H_pinlet", "name": "Shri Eye Care And Computerised Optical Clinic", "photos": [{"height": 3120, "html_attributions": ["<a href=\"https://maps.google.com/maps/contrib/107021043732259316802\">Duffie My Labrador</a>"], "photo_reference": "Aap_uEDB5sI6EsRAoE3txx__1AkkBtC1__Ak0ILyvyMJitSgioWA6LEgQURdbW_Tt3vpQjrVKhxLLjXQgAwIFt9jUsIMdfwNL_mHYk3QjvGY0IKN6piYc6JTb3V2cYXjZm5HN1-1IW9OveKHmTzYw0kBp5w7khwLTvs4seeGmP28TPl1yLfI", "width": 4160}], "place_id": "ChIJIzwWVdL5njkRO15Z3w5dGGQ", "plus_code": {"compound_code": "94M9+33 Hardoi, Uttar Pradesh, India", "global_code": "7MV294M9+33"}, "rating": 5, "reference": "ChIJIzwWVdL5njkRO15Z3w5dGGQ", "scope": "GOOGLE", "types": ["hospital", "health", "point_of_interest", "establishment"], "user_ratings_total": 7, "vicinity": "Circular Road, Hardoi"}, {"business_status": "OPERATIONAL", "geometry": {"location": {"lat": 27.3902788, "lng": 80.1294309}, "viewport": {"northeast": {"lat": 27.3916438802915, "lng": 80.13073473029151}, "southwest": {"lat": 27.3889459197085, "lng": 80.12803676970849}}}, "icon": "https://maps.gstatic.com/mapfiles/place_api/icons/v1/png_71/hospital-71.png", "icon_background_color": "#F88181", "icon_mask_base_uri": "https://maps.gstatic.com/mapfiles/place_api/icons/v2/hospital-H_pinlet", "name": "Life Link Hospital", "opening_hours": {"open_now": false}, "photos": [{"height": 3264, "html_attributions": ["<a href=\"https://maps.google.com/maps/contrib/102867937297405097245\">Bablu Pal</a>"], "photo_reference": "Aap_uEAuqqfKEtfs0mkoVlDe9lsxOha2FUIVoMumiawGyNzpjvxGWHA6bFuxW1Xyy8o7p2oQGG83ky_XEptXmrk6mAb-DWdw4Psh2NNuMnY3XfjNviBEMLef8hWwZedRs5EQ3tTuUPVD0aJObVNmQc9TuoOOPiczTnqyQ5IQFwKV5UksKufg", "width": 1836}], "place_id": "ChIJIzyqUSb4njkR0-xCHcnU7hk", "plus_code": {"compound_code": "94RH+4Q Hardoi, Uttar Pradesh, India", "global_code": "7MV294RH+4Q"}, "rating": 4.5, "reference": "ChIJIzyqUSb4njkR0-xCHcnU7hk", "scope": "GOOGLE", "types": ["hospital", "health", "point_of_interest", "establishment"], "user_ratings_total": 22, "vicinity": "Opp.Kshatriya Bhawan, Dharamshala Road, Hardoi"}, {"business_status": "OPERATIONAL", "geometry": {"location": {"lat": 27.3901873, "lng": 80.1238559}, "viewport": {"northeast": {"lat": 27.3915440302915, "lng": 80.1251539302915}, "southwest": {"lat": 27.3888460697085, "lng": 80.1224559697085}}}, "icon": "https://maps.gstatic.com/mapfiles/place_api/icons/v1/png_71/hospital-71.png", "icon_background_color": "#F88181", "icon_mask_base_uri": "https://maps.gstatic.com/mapfiles/place_api/icons/v2/hospital-H_pinlet", "name": "Medical", "place_id": "ChIJ5_gUXC75njkRpgzna6oyQMI", "plus_code": {"compound_code": "94RF+3G Hardoi, Uttar Pradesh, India", "global_code": "7MV294RF+3G"}, "reference": "ChIJ5_gUXC75njkRpgzna6oyQMI", "scope": "GOOGLE", "types": ["hospital", "health", "point_of_interest", "establishment"], "vicinity": "Chota Chauraha"}, {"business_status": "OPERATIONAL", "geometry": {"location": {"lat": 27.387959, "lng": 80.1190297}, "viewport": {"northeast": {"lat": 27.3893384802915, "lng": 80.1202244802915}, "southwest": {"lat": 27.3866405197085, "lng": 80.11752651970849}}}, "icon": "https://maps.gstatic.com/mapfiles/place_api/icons/v1/png_71/hospital-71.png", "icon_background_color": "#F88181", "icon_mask_base_uri": "https://maps.gstatic.com/mapfiles/place_api/icons/v2/hospital-H_pinlet", "name": "\u0906\u0930, \u090f\u0928, \u0915\u094d\u0932\u0940\u0928\u093f\u0915", "place_id": "ChIJG7ziHU35njkRbgFnHFtj5vM", "plus_code": {"compound_code": "94Q9+5J Hardoi, Uttar Pradesh, India", "global_code": "7MV294Q9+5J"}, "reference": "ChIJG7ziHU35njkRbgFnHFtj5vM", "scope": "GOOGLE", "types": ["hospital", "health", "point_of_interest", "establishment"], "vicinity": "\u092a\u0940\u092a\u0932 \u0915\u0947 \u0938\u093e\u092e\u0928\u0947, Subhash Nagar, Hardoi"}, {"business_status": "OPERATIONAL", "geometry": {"location": {"lat": 27.390865, "lng": 80.1331702}, "viewport": {"northeast": {"lat": 27.3922605302915, "lng": 80.1346824802915}, "southwest": {"lat": 27.3895625697085, "lng": 80.1319845197085}}}, "icon": "https://maps.gstatic.com/mapfiles/place_api/icons/v1/png_71/hospital-71.png", "icon_background_color": "#F88181", "icon_mask_base_uri": "https://maps.gstatic.com/mapfiles/place_api/icons/v2/hospital-H_pinlet", "name": "Rani Saheb Katiyari Hospital", "opening_hours": {"open_now": true}, "photos": [{"height": 3024, "html_attributions": ["<a href=\"https://maps.google.com/maps/contrib/105020230300386918066\">anzar atif</a>"], "photo_reference": "Aap_uEB5lAAGwoJjVIyTGQ17FP_wYQfRhXMObmbazKR6GldWx7waQVyNLv9KImXjWXba0iGk7tryICXG1erOWzAMomdlScWMdVt9t5dOmY7lrBxr04DpNt-h55sKfhWI0-J1sijiYVsD5m-ry89Ub4DtJUzv7whqP1cuZGXyou-id2m4IHfx", "width": 4032}], "place_id": "ChIJH6Bx7Sj4njkRCtsIX61Lja8", "plus_code": {"compound_code": "94RM+87 Hardoi, Uttar Pradesh, India", "global_code": "7MV294RM+87"}, "rating": 3.7, "reference": "ChIJH6Bx7Sj4njkRCtsIX61Lja8", "scope": "GOOGLE", "types": ["hospital", "health", "point_of_interest", "establishment"], "user_ratings_total": 62, "vicinity": "near \u0910\u0915\u094d\u0938\u093f\u0938 \u092c\u0948\u0902\u0915 \u090f.\u091f\u0940.\u090f\u092e, Lucknow Road, Hardoi"}, {"business_status": "OPERATIONAL", "geometry": {"location": {"lat": 27.3915221, "lng": 80.1208764}, "viewport": {"northeast": {"lat": 27.3928680302915, "lng": 80.12222283029149}, "southwest": {"lat": 27.3901700697085, "lng": 80.11952486970848}}}, "icon": "https://maps.gstatic.com/mapfiles/place_api/icons/v1/png_71/generic_business-71.png", "icon_background_color": "#7B9EB0", "icon_mask_base_uri": "https://maps.gstatic.com/mapfiles/place_api/icons/v2/generic_pinlet", "name": "Prayas Homeopathic & Physiotherapy Clinic", "opening_hours": {"open_now": false}, "place_id": "ChIJc-RG-yH4njkRZZ3y21Og-Ws", "plus_code": {"compound_code": "94RC+J9 Hardoi, Uttar Pradesh, India", "global_code": "7MV294RC+J9"}, "rating": 4.3, "reference": "ChIJc-RG-yH4njkRZZ3y21Og-Ws", "scope": "GOOGLE", "types": ["hospital", "health", "point_of_interest", "establishment"], "user_ratings_total": 6, "vicinity": "B.H.M.S, Dr. Bhura Road, near Ramdutt, Chauraha, Hardoi"}, {"business_status": "OPERATIONAL", "geometry": {"location": {"lat": 27.3916102, "lng": 80.1332126}, "viewport": {"northeast": {"lat": 27.3929591802915, "lng": 80.1345615802915}, "southwest": {"lat": 27.3902612197085, "lng": 80.13186361970848}}}, "icon": "https://maps.gstatic.com/mapfiles/place_api/icons/v1/png_71/hospital-71.png", "icon_background_color": "#F88181", "icon_mask_base_uri": "https://maps.gstatic.com/mapfiles/place_api/icons/v2/hospital-H_pinlet", "name": "Doctor A.K. Nathani Heart specialist", "opening_hours": {"open_now": false}, "photos": [{"height": 1920, "html_attributions": ["<a href=\"https://maps.google.com/maps/contrib/111589774255353452432\">Akarsh Bajpai</a>"], "photo_reference": "Aap_uEDo7F-SN2XYtmoxthrOELQF3PBWe7xrihNIdBgADlVUDUnDWvh1g6xaSUNudyYVhVkXSsVf6OEmqrmjHTRMx_esDiee6gBnkxG36hTmChTigU0FvB_XE5NkeWWaA9Fq7rWxQgdGEOIhSh0JFnOUZ2l9aiwkYFlELRWNa5IuTwXY-tKj", "width": 1080}], "place_id": "ChIJ6yEqidz5njkRkN45QVFIgho", "plus_code": {"compound_code": "94RM+J7 Hardoi, Uttar Pradesh, India", "global_code": "7MV294RM+J7"}, "rating": 3.5, "reference": "ChIJ6yEqidz5njkRkN45QVFIgho", "scope": "GOOGLE", "types": ["hospital", "health", "point_of_interest", "establishment"], "user_ratings_total": 4, "vicinity": "Lucknow - Hardoi - Shahjahanpur Road, Avas Vikas Colony, Hardoi"}, {"business_status": "OPERATIONAL", "geometry": {"location": {"lat": 27.3804901, "lng": 80.13970239999999}, "viewport": {"northeast": {"lat": 27.3818841802915, "lng": 80.1410711302915}, "southwest": {"lat": 27.37918621970849, "lng": 80.13837316970847}}}, "icon": "https://maps.gstatic.com/mapfiles/place_api/icons/v1/png_71/hospital-71.png", "icon_background_color": "#F88181", "icon_mask_base_uri": "https://maps.gstatic.com/mapfiles/place_api/icons/v2/hospital-H_pinlet", "name": "E.C.H.S. Polyclinic", "opening_hours": {"open_now": false}, "photos": [{"height": 2322, "html_attributions": ["<a href=\"https://maps.google.com/maps/contrib/102879416191378668023\">Anil Tomar</a>"], "photo_reference": "Aap_uEAFYx2Mb1Lqyuvi6vHXrOH8OzwbzkCJGUcLk3DHANSDGUQYTAstvTucuOwUS3WY7nOmwL0o8e5y4aLaMEv_ZY0nhYOVOdBReNUmYnZBtiGKJx4UfB-zfYF3dT76DUhmejGvHA1EWvLpAaS6JWJPOZLaWlLmxLDf6aaAslzCRM17Sdos", "width": 4128}], "place_id": "ChIJjwoxyoP3njkRlz8DEVMV45E", "rating": 4.9, "reference": "ChIJjwoxyoP3njkRlz8DEVMV45E", "scope": "GOOGLE", "types": ["hospital", "health", "point_of_interest", "establishment"], "user_ratings_total": 8, "vicinity": "94JQ+5VW, Industrial Area, Hardoi"}, {"business_status": "OPERATIONAL", "geometry": {"location": {"lat": 27.3912873, "lng": 80.1349402}, "viewport": {"northeast": {"lat": 27.3926142302915, "lng": 80.13635143029151}, "southwest": {"lat": 27.3899162697085, "lng": 80.13365346970849}}}, "icon": "https://maps.gstatic.com/mapfiles/place_api/icons/v1/png_71/hospital-71.png", "icon_background_color": "#F88181", "icon_mask_base_uri": "https://maps.gstatic.com/mapfiles/place_api/icons/v2/hospital-H_pinlet", "name": "Pujari Physiotherapy Clinic", "opening_hours": {"open_now": false}, "photos": [{"height": 405, "html_attributions": ["<a href=\"https://maps.google.com/maps/contrib/107052843212999491009\">Pujari Physiotherapy Clinic</a>"], "photo_reference": "Aap_uEAddGkHmHSf1re1EyCbdleJz-JItEHf54MVczAa8NcZlaffFEHCeE36HOlGnYRJygWlEm8sydh3kWELFhcYPJras2jto5UX2Qdx0AZuYOq9VCiKfawD8kKtIggw_zben9Dqr4z6ie3IKdMyv009z8ipALXngxNJlxX4ojdBgNEpfLUk", "width": 720}], "place_id": "ChIJhaFIsir5njkRbhwePGNr1sk", "plus_code": {"compound_code": "94RM+GX Hardoi, Uttar Pradesh, India", "global_code": "7MV294RM+GX"}, "rating": 5, "reference": "ChIJhaFIsir5njkRbhwePGNr1sk", "scope": "GOOGLE", "types": ["hospital", "health", "point_of_interest", "establishment"], "user_ratings_total": 2, "vicinity": "H. No. 243, Block-A Avas Vikas Colony, City Life Mall Ke samne Road"}, {"business_status": "OPERATIONAL", "geometry": {"location": {"lat": 27.3821171, "lng": 80.11386}, "viewport": {"northeast": {"lat": 27.3836848302915, "lng": 80.11513353029152}, "southwest": {"lat": 27.3809868697085, "lng": 80.1124355697085}}}, "icon": "https://maps.gstatic.com/mapfiles/place_api/icons/v1/png_71/hospital-71.png", "icon_background_color": "#F88181", "icon_mask_base_uri": "https://maps.gstatic.com/mapfiles/place_api/icons/v2/hospital-H_pinlet", "name": "\u0938\u093f\u0926\u094d\u0927\u093e\u0930\u094d\u0925 \u0939\u093e\u0938\u094d\u092a\u093f\u091f\u0932", "place_id": "ChIJ85lMm9H3njkRLZC9-EnnP2c", "rating": 5, "reference": "ChIJ85lMm9H3njkRLZC9-EnnP2c", "scope": "GOOGLE", "types": ["hospital", "health", "point_of_interest", "establishment"], "user_ratings_total": 1, "vicinity": "94J7+RGX, Hardoi"}, {"business_status": "OPERATIONAL", "geometry": {"location": {"lat": 27.3873766, "lng": 80.11528659999999}, "viewport": {"northeast": {"lat": 27.3887190302915, "lng": 80.1166923302915}, "southwest": {"lat": 27.38602106970849, "lng": 80.11399436970848}}}, "icon": "https://maps.gstatic.com/mapfiles/place_api/icons/v1/png_71/hospital-71.png", "icon_background_color": "#F88181", "icon_mask_base_uri": "https://maps.gstatic.com/mapfiles/place_api/icons/v2/hospital-H_pinlet", "name": "Shri ram hospital and ayurveda and panchkarma Anusandhan", "opening_hours": {"open_now": false}, "photos": [{"height": 960, "html_attributions": ["<a href=\"https://maps.google.com/maps/contrib/107512928287933191363\">Shri ram hospital and ayurveda and panchkarma Anusandhan</a>"], "photo_reference": "Aap_uEBw1ibnRwVp7nowqPOTWuNi5-3biFIqF5pn6_1VaPAqalXvk-lakxgZkJ-gGLK-lV5LDkx47YhLRsv6zql5mbkaOZjFFkFothZakr8ActiRdlzB0F61dp9XJpHr8IlGe4MHv0ahAdjUXglADYEf_JrYUvDp8eM8iIxhY7D1GiShCSsC", "width": 1280}], "place_id": "ChIJswF5mVj5njkRynh1KTIhN6g", "plus_code": {"compound_code": "94P8+X4 Hardoi, Uttar Pradesh, India", "global_code": "7MV294P8+X4"}, "reference": "ChIJswF5mVj5njkRynh1KTIhN6g", "scope": "GOOGLE", "types": ["hospital", "health", "point_of_interest", "establishment"], "vicinity": "Baba mandir road. Near - lal bahadur shastri Inter college, Hardoi"}, {"business_status": "OPERATIONAL", "geometry": {"location": {"lat": 27.3873665, "lng": 80.11524399999999}, "viewport": {"northeast": {"lat": 27.3887066302915, "lng": 80.11666998029149}, "southwest": {"lat": 27.3860086697085, "lng": 80.11397201970848}}}, "icon": "https://maps.gstatic.com/mapfiles/place_api/icons/v1/png_71/hospital-71.png", "icon_background_color": "#F88181", "icon_mask_base_uri": "https://maps.gstatic.com/mapfiles/place_api/icons/v2/hospital-H_pinlet", "name": "Shri Ram Hospital And Ayurved And Panchkarma Anusandhan Kendra", "opening_hours": {"open_now": false}, "photos": [{"height": 4160, "html_attributions": ["<a href=\"https://maps.google.com/maps/contrib/114172300628057609494\">Dr.Abhishek Sharma</a>"], "photo_reference": "Aap_uEDEx_YjK6F8dVsvss87p80tgHq6BuDg_9nNrLzFz0GWW5RAQOxfjSrsOIoJY7ZgT4Z-vDMmJYC6k5nBIZxWFpn8xjQ9WHkZ3s7SwMrpVkpktTSZCvXlbkbe9sV1hHxRYIIYjgcxQq1qz7980ZhUUzKgcQrMIn23QWBmG_V2Y0u_Bl0L", "width": 3120}], "place_id": "ChIJ5YwQdB74njkRr-adxtZjazU", "plus_code": {"compound_code": "94P8+W3 Hardoi, Uttar Pradesh, India", "global_code": "7MV294P8+W3"}, "rating": 5, "reference": "ChIJ5YwQdB74njkRr-adxtZjazU", "scope": "GOOGLE", "types": ["hospital", "health", "point_of_interest", "establishment"], "user_ratings_total": 3, "vicinity": "Unnamed Road, Krishna Nagria, Hardoi"}, {"business_status": "OPERATIONAL", "geometry": {"location": {"lat": 27.3939051, "lng": 80.1291854}, "viewport": {"northeast": {"lat": 27.3952824302915, "lng": 80.1305188802915}, "southwest": {"lat": 27.3925844697085, "lng": 80.12782091970848}}}, "icon": "https://maps.gstatic.com/mapfiles/place_api/icons/v1/png_71/hospital-71.png", "icon_background_color": "#F88181", "icon_mask_base_uri": "https://maps.gstatic.com/mapfiles/place_api/icons/v2/hospital-H_pinlet", "name": "\u0928\u0935\u0940\u0928 \u0938\u0915\u094d\u0938\u0947\u0928\u093e", "place_id": "ChIJwfUzrIb5njkR2qkkha0NQ08", "plus_code": {"compound_code": "94VH+HM Hardoi, Uttar Pradesh, India", "global_code": "7MV294VH+HM"}, "reference": "ChIJwfUzrIb5njkR2qkkha0NQ08", "scope": "GOOGLE", "types": ["hospital", "health", "point_of_interest", "establishment"], "vicinity": "Cinema Road, Sader Bazar, Hardoi"}, {"business_status": "OPERATIONAL", "geometry": {"location": {"lat": 27.39366, "lng": 80.1307851}, "viewport": {"northeast": {"lat": 27.3949785302915, "lng": 80.1322138802915}, "southwest": {"lat": 27.3922805697085, "lng": 80.1295159197085}}}, "icon": "https://maps.gstatic.com/mapfiles/place_api/icons/v1/png_71/hospital-71.png", "icon_background_color": "#F88181", "icon_mask_base_uri": "https://maps.gstatic.com/mapfiles/place_api/icons/v2/hospital-H_pinlet", "name": "Dr. Anuj Gupta Clinic", "opening_hours": {"open_now": false}, "photos": [{"height": 2448, "html_attributions": ["<a href=\"https://maps.google.com/maps/contrib/104240426433508702839\">Shiv Om</a>"], "photo_reference": "Aap_uEBFnkG6EQHfQn_mYtVeOM1D6wO_vU6oobVQDGzTKKBkamg-IVQ72lceGARpUiD86n8TzqoGUvlEiK841JNZDowsQRuLMB-f0XOR9nnDGyQagb-AQ5tbE3VSlheSDOMeo_U3d4GvurDv69z6vqa3vGpVwF3Gi_FPbF1q4qtpFXJEGjhk", "width": 3264}], "place_id": "ChIJqZQLgLf5njkR8YU0M6j5DBI", "plus_code": {"compound_code": "94VJ+F8 Hardoi, Uttar Pradesh, India", "global_code": "7MV294VJ+F8"}, "rating": 1, "reference": "ChIJqZQLgLf5njkR8YU0M6j5DBI", "scope": "GOOGLE", "types": ["hospital", "health", "point_of_interest", "establishment"], "user_ratings_total": 1, "vicinity": "Dharamshala Road, Cinema Chauraha, Hardoi"}], "status": "OK"}