{"html_attributions": [], "results": [{"business_status": "OPERATIONAL", "geometry": {"location": {"lat": 27.0267561, "lng": 80.1529023}, "viewport": {"northeast": {"lat": 27.0281247802915, "lng": 80.1542086802915}, "southwest": {"lat": 27.0254268197085, "lng": 80.15151071970848}}}, "icon": "https://maps.gstatic.com/mapfiles/place_api/icons/v1/png_71/hospital-71.png", "icon_background_color": "#F88181", "icon_mask_base_uri": "https://maps.gstatic.com/mapfiles/place_api/icons/v2/hospital-H_pinlet", "name": "Mahila Chikitsalaya Bhagwantnagar", "photos": [{"height": 3096, "html_attributions": ["<a href=\"https://maps.google.com/maps/contrib/118239460493736078727\">AHMAR KHAN</a>"], "photo_reference": "Aap_uEBiz6I3Q_SQG3Za-Pq4q_g_wF7ZGGG149VP2Wb2m8K2WXleM_xHN24WhD4r_BTzZF0XomnmMinR0y2rjO6sCxWt72fOdDKsDR2eshud1kD5pvd8K_YdwBGTkzQ_vs1nSDVI1rleofMD6XwBD4ivzCYt9Nr39L1ZrmH1BzJRRL0PGwMT", "width": 4128}], "place_id": "ChIJmVCeQ4WInjkRDthDEPRKGkk", "rating": 1.5, "reference": "ChIJmVCeQ4WInjkRDthDEPRKGkk", "scope": "GOOGLE", "types": ["hospital", "health", "point_of_interest", "establishment"], "user_ratings_total": 2, "vicinity": "25G3+P52, Mallawan"}, {"business_status": "OPERATIONAL", "geometry": {"location": {"lat": 27.026653, "lng": 80.1534518}, "viewport": {"northeast": {"lat": 27.02804008029151, "lng": 80.15482638029151}, "southwest": {"lat": 27.0253421197085, "lng": 80.15212841970849}}}, "icon": "https://maps.gstatic.com/mapfiles/place_api/icons/v1/png_71/hospital-71.png", "icon_background_color": "#F88181", "icon_mask_base_uri": "https://maps.gstatic.com/mapfiles/place_api/icons/v2/hospital-H_pinlet", "name": "Nandan Bhawan", "photos": [{"height": 1536, "html_attributions": ["<a href=\"https://maps.google.com/maps/contrib/104726335552258599308\">vinod swarnkar</a>"], "photo_reference": "Aap_uEBXMLxWN1Y95kDCjyMjKuR3sLsVy9xXrP1sO8j3opYgMYgBtMJv7c2XziwDfMPenWx4rMAWrn-IjbMmGwtr3mRhiLxmiw6_toHsKe091D22LxO0mQEZCGnWO8aMajBZ0e8yXAY9oJtdqTkzBPqoxGc2DlUyf_yVo_NnehXIvbrQAV0_", "width": 2560}], "place_id": "ChIJ48_8SIWInjkRkRdelgxwOAI", "reference": "ChIJ48_8SIWInjkRkRdelgxwOAI", "scope": "GOOGLE", "types": ["hospital", "health", "point_of_interest", "establishment"], "vicinity": "25G3+M98, Mallawan"}, {"business_status": "OPERATIONAL", "geometry": {"location": {"lat": 27.02816719999999, "lng": 80.1525703}, "viewport": {"northeast": {"lat": 27.0295145302915, "lng": 80.1539229802915}, "southwest": {"lat": 27.0268165697085, "lng": 80.15122501970848}}}, "icon": "https://maps.gstatic.com/mapfiles/place_api/icons/v1/png_71/hospital-71.png", "icon_background_color": "#F88181", "icon_mask_base_uri": "https://maps.gstatic.com/mapfiles/place_api/icons/v2/hospital-H_pinlet", "name": "Dr Kailash Nath Fortune Hospital", "place_id": "ChIJ3a_bjI-InjkRfFgusIYsLSw", "rating": 3, "reference": "ChIJ3a_bjI-InjkRfFgusIYsLSw", "scope": "GOOGLE", "types": ["hospital", "health", "point_of_interest", "establishment"], "user_ratings_total": 1, "vicinity": "25H3+728, Mallawan"}, {"business_status": "OPERATIONAL", "geometry": {"location": {"lat": 27.0296154, "lng": 80.1535229}, "viewport": {"northeast": {"lat": 27.0309935802915, "lng": 80.15481753029151}, "southwest": {"lat": 27.02829561970849, "lng": 80.15211956970849}}}, "icon": "https://maps.gstatic.com/mapfiles/place_api/icons/v1/png_71/hospital-71.png", "icon_background_color": "#F88181", "icon_mask_base_uri": "https://maps.gstatic.com/mapfiles/place_api/icons/v2/hospital-H_pinlet", "name": "Sankalp Hospital", "place_id": "ChIJPTGZ24-InjkRyLIunoWYIl0", "reference": "ChIJPTGZ24-InjkRyLIunoWYIl0", "scope": "GOOGLE", "types": ["hospital", "health", "point_of_interest", "establishment"], "vicinity": "25H3+RCR, Mallawan"}, {"business_status": "OPERATIONAL", "geometry": {"location": {"lat": 27.0322468, "lng": 80.1522991}, "viewport": {"northeast": {"lat": 27.0335794302915, "lng": 80.1536713302915}, "southwest": {"lat": 27.0308814697085, "lng": 80.15097336970848}}}, "icon": "https://maps.gstatic.com/mapfiles/place_api/icons/v1/png_71/hospital-71.png", "icon_background_color": "#F88181", "icon_mask_base_uri": "https://maps.gstatic.com/mapfiles/place_api/icons/v2/hospital-H_pinlet", "name": "New kamla devi hospital and tauma center", "place_id": "ChIJ70DYegKJnjkR2oX6mDBFKIs", "plus_code": {"compound_code": "25J2+VW Mallawan, Uttar Pradesh, India", "global_code": "7MV225J2+VW"}, "reference": "ChIJ70DYegKJnjkR2oX6mDBFKIs", "scope": "GOOGLE", "types": ["hospital", "health", "point_of_interest", "establishment"], "vicinity": "Mallawan Public School Road, Mallawan"}, {"business_status": "OPERATIONAL", "geometry": {"location": {"lat": 27.0323481, "lng": 80.1544385}, "viewport": {"northeast": {"lat": 27.0335909302915, "lng": 80.1557765802915}, "southwest": {"lat": 27.0308929697085, "lng": 80.1530786197085}}}, "icon": "https://maps.gstatic.com/mapfiles/place_api/icons/v1/png_71/hospital-71.png", "icon_background_color": "#F88181", "icon_mask_base_uri": "https://maps.gstatic.com/mapfiles/place_api/icons/v2/hospital-H_pinlet", "name": "Srijan Eye Hospital", "opening_hours": {"open_now": false}, "photos": [{"height": 3264, "html_attributions": ["<a href=\"https://maps.google.com/maps/contrib/100199828439426314374\">anuj patel</a>"], "photo_reference": "Aap_uEBXmDPKTlAojLpOzJ10ZJ938vPN0zBrXxuLbrTXzfuN18PjXJETHMH4kr6H6hYWGfAmhEFrFeestSfgC0yvh7dtXmnGMJvY-B_DTKyxm7dyLvvsqrrD3M2oxxw8KnPjbof5kfjKnywYjWq40rhAVw8ufSZvF0TNIendC8hYo7s1QMhY", "width": 2448}], "place_id": "ChIJmdHe5pGInjkRYILaJHeosnk", "plus_code": {"compound_code": "25J3+WQ Mallawan, Uttar Pradesh, India", "global_code": "7MV225J3+WQ"}, "rating": 5, "reference": "ChIJmdHe5pGInjkRYILaJHeosnk", "scope": "GOOGLE", "types": ["hospital", "health", "point_of_interest", "establishment"], "user_ratings_total": 1, "vicinity": "Baziganj, Lala Bazar Road, Mallawan"}, {"business_status": "OPERATIONAL", "geometry": {"location": {"lat": 27.0335158, "lng": 80.15245329999999}, "viewport": {"northeast": {"lat": 27.0348806802915, "lng": 80.1538660802915}, "southwest": {"lat": 27.03218271970849, "lng": 80.15116811970849}}}, "icon": "https://maps.gstatic.com/mapfiles/place_api/icons/v1/png_71/hospital-71.png", "icon_background_color": "#F88181", "icon_mask_base_uri": "https://maps.gstatic.com/mapfiles/place_api/icons/v2/hospital-H_pinlet", "name": "Vimla Memorial Clinic & Maternity Centre (Dr. Anjali Misra)", "place_id": "ChIJy1Wd342InjkRyI4OoDzWbKQ", "rating": 5, "reference": "ChIJy1Wd342InjkRyI4OoDzWbKQ", "scope": "GOOGLE", "types": ["hospital", "health", "point_of_interest", "establishment"], "user_ratings_total": 1, "vicinity": "25M2+CX4, Mallawan"}], "status": "OK"}