{"html_attributions": [], "results": [{"business_status": "OPERATIONAL", "geometry": {"location": {"lat": 27.3585046, "lng": 80.1655888}, "viewport": {"northeast": {"lat": 27.3597985802915, "lng": 80.16688308029148}, "southwest": {"lat": 27.3571006197085, "lng": 80.16418511970848}}}, "icon": "https://maps.gstatic.com/mapfiles/place_api/icons/v1/png_71/hospital-71.png", "icon_background_color": "#F88181", "icon_mask_base_uri": "https://maps.gstatic.com/mapfiles/place_api/icons/v2/hospital-H_pinlet", "name": "C.M.O Office Hardoi", "photos": [{"height": 2592, "html_attributions": ["<a href=\"https://maps.google.com/maps/contrib/101570688047380175637\">HAKIM MOHAMMAD IMRAN</a>"], "photo_reference": "Aap_uEDa6jBgFSrUpwDcogj7QZy9TKr-w9gyMZ8h6MX51onA3m4MUgp8U9USVVHWY0nSWBY2McQp5EGT8J-QOmCmXv70ZJB0XNjfE1vNg-KRKGeZE3W8ANES2LSkKgruELDRM4gOAMUoT72shNLmTI0B_hgQxEpriFFr63AAUyMWYMyJDw-k", "width": 4608}], "place_id": "ChIJAwCnjj33njkR7h2z3PV8THQ", "rating": 3.6, "reference": "ChIJAwCnjj33njkR7h2z3PV8THQ", "scope": "GOOGLE", "types": ["hospital", "health", "point_of_interest", "establishment"], "user_ratings_total": 7, "vicinity": "9558+C64, Bahloli, Nanakgang Grrnt"}, {"business_status": "OPERATIONAL", "geometry": {"location": {"lat": 27.3584415, "lng": 80.1654465}, "viewport": {"northeast": {"lat": 27.3598021802915, "lng": 80.1668071802915}, "southwest": {"lat": 27.3571042197085, "lng": 80.1641092197085}}}, "icon": "https://maps.gstatic.com/mapfiles/place_api/icons/v1/png_71/hospital-71.png", "icon_background_color": "#F88181", "icon_mask_base_uri": "https://maps.gstatic.com/mapfiles/place_api/icons/v2/hospital-H_pinlet", "name": "Office of the Chief Medical Officer - Govt Hospital", "place_id": "ChIJ3TvyVy74njkRmPXyiQiAGFQ", "plus_code": {"compound_code": "9558+95 Hardoi, Uttar Pradesh, India", "global_code": "7MV29558+95"}, "rating": 5, "reference": "ChIJ3TvyVy74njkRmPXyiQiAGFQ", "scope": "GOOGLE", "types": ["hospital", "health", "point_of_interest", "establishment"], "user_ratings_total": 1, "vicinity": "Lucknow Road, Bahloli, Hardoi"}, {"business_status": "OPERATIONAL", "geometry": {"location": {"lat": 27.3581304, "lng": 80.1660596}, "viewport": {"northeast": {"lat": 27.3595546802915, "lng": 80.1673196802915}, "southwest": {"lat": 27.3568567197085, "lng": 80.16462171970849}}}, "icon": "https://maps.gstatic.com/mapfiles/place_api/icons/v1/png_71/hospital-71.png", "icon_background_color": "#F88181", "icon_mask_base_uri": "https://maps.gstatic.com/mapfiles/place_api/icons/v2/hospital-H_pinlet", "name": "New District Hospital", "opening_hours": {"open_now": true}, "photos": [{"height": 2304, "html_attributions": ["<a href=\"https://maps.google.com/maps/contrib/107930029472642460981\">Gopal Dwivedi</a>"], "photo_reference": "Aap_uEDSIyUmQenOIyNGJHn_hZhyJHmKK3h0zj5DTN8AVIFXSs1poKMD15YLTbL6E3jJ-Zzfo4gc-R8sdlguku0WmPjakBaNHtS_qfFCGmDvHwgBRijnxIKRp1Eio2bh6k2XwSJTi8YXqx8UChCoV1GD5RkwvbfkmYeCIxEEP-sK2TXohZQ2", "width": 4096}], "place_id": "ChIJ2YVimj33njkRl_fN82ckMe8", "rating": 1, "reference": "ChIJ2YVimj33njkRl_fN82ckMe8", "scope": "GOOGLE", "types": ["hospital", "health", "point_of_interest", "establishment"], "user_ratings_total": 1, "vicinity": "9558+7C3, Bahloli, Nanakgang Grrnt"}, {"business_status": "OPERATIONAL", "geometry": {"location": {"lat": 27.3618235, "lng": 80.15550619999999}, "viewport": {"northeast": {"lat": 27.3629311802915, "lng": 80.1566909802915}, "southwest": {"lat": 27.36023321970849, "lng": 80.15399301970848}}}, "icon": "https://maps.gstatic.com/mapfiles/place_api/icons/v1/png_71/hospital-71.png", "icon_background_color": "#F88181", "icon_mask_base_uri": "https://maps.gstatic.com/mapfiles/place_api/icons/v2/hospital-H_pinlet", "name": "\u092e\u0928\u094b\u0915\u093e\u092e\u0928\u093e \u0928\u093e\u0925 \u092e\u0948\u0928\u0926\u0940\u0930 \u0915\u092e\u0924\u094c\u0932", "place_id": "ChIJDVB5Atr3njkRrZNycZC1htc", "reference": "ChIJDVB5Atr3njkRrZNycZC1htc", "scope": "GOOGLE", "types": ["hospital", "health", "point_of_interest", "establishment"], "vicinity": "9564+P6C, Hardoi"}], "status": "OK"}