{"html_attributions": [], "results": [{"business_status": "OPERATIONAL", "geometry": {"location": {"lat": 27.4264069, "lng": 80.5287426}, "viewport": {"northeast": {"lat": 27.4277455302915, "lng": 80.53013658029151}, "southwest": {"lat": 27.4250475697085, "lng": 80.52743861970849}}}, "icon": "https://maps.gstatic.com/mapfiles/place_api/icons/v1/png_71/hospital-71.png", "icon_background_color": "#F88181", "icon_mask_base_uri": "https://maps.gstatic.com/mapfiles/place_api/icons/v2/hospital-H_pinlet", "name": "\u0936\u094d\u0930\u0926\u094d\u0927\u093e \u0939\u0949\u0938\u094d\u092a\u093f\u091f\u0932 \u090f\u0902\u0921 \u092e\u0947\u091f\u0930\u0928\u093f\u091f\u0940 \u0938\u0947\u0902\u091f\u0930", "photos": [{"height": 4224, "html_attributions": ["<a href=\"https://maps.google.com/maps/contrib/107710431017724024804\">jaysingh Maurya</a>"], "photo_reference": "Aap_uEAbr8_nrddMJIDm0ksnMRUvDEj3HvDjQTttPWg5hAHfvbnrm0baQBO4XqG-GlJz4ie6PWsyPlHypunRj7Xjytxr5bwOacAOgCqUJlTXrU94xBoM524ZPNGc8nSJikhZoQyAUnc1FLE_raHJQ8c-grzJLvOrVUzlHZD3PN3B7BiXN1Pc", "width": 1950}], "place_id": "ChIJG9Oyo3TdnjkRT3CmdyOHAQI", "reference": "ChIJG9Oyo3TdnjkRT3CmdyOHAQI", "scope": "GOOGLE", "types": ["hospital", "health", "point_of_interest", "establishment"], "vicinity": "CGGH+HF9, Misrikh-cum-Neemsar"}, {"business_status": "OPERATIONAL", "geometry": {"location": {"lat": 27.4264518, "lng": 80.5287606}, "viewport": {"northeast": {"lat": 27.4277909802915, "lng": 80.53015228029152}, "southwest": {"lat": 27.4250930197085, "lng": 80.52745431970851}}}, "icon": "https://maps.gstatic.com/mapfiles/place_api/icons/v1/png_71/hospital-71.png", "icon_background_color": "#F88181", "icon_mask_base_uri": "https://maps.gstatic.com/mapfiles/place_api/icons/v2/hospital-H_pinlet", "name": "\u0936\u094d\u0930\u0926\u094d\u0927\u093e \u0939\u0949\u0938\u094d\u092a\u093f\u091f\u0932 \u090f\u0902\u0921 \u092e\u0948\u091f\u0930\u0928\u093f\u091f\u0940 \u0938\u0947\u0928\u094d\u091f\u0930 \u092e\u093f\u0936\u094d\u0930\u093f\u0916", "photos": [{"height": 4224, "html_attributions": ["<a href=\"https://maps.google.com/maps/contrib/101106404009818890476\">jaySingh2020 Maurya</a>"], "photo_reference": "Aap_uECH1qqMwuEnWMR1IWvtgjDCrKranL29GCk6_OaRtclEdUZ4uKrz5jvMuBqkdFRb4boTdKQQixNMEm9U3-a-84KDX7hTvi-TxkeJFwSwWxWbMS3KCfzCLqKoS0tuAWsaG7c49Hd_J067WFCAelBPfcOIqHNDUjbeTUReqg-pr9ej_Pqz", "width": 1950}], "place_id": "ChIJUQlso6bdnjkRX8z3ZyGNIvc", "reference": "ChIJUQlso6bdnjkRX8z3ZyGNIvc", "scope": "GOOGLE", "types": ["hospital", "health", "point_of_interest", "establishment"], "vicinity": "CGGH+HGJ, Misrikh-cum-Neemsar"}, {"business_status": "OPERATIONAL", "geometry": {"location": {"lat": 27.4292761, "lng": 80.5299541}, "viewport": {"northeast": {"lat": 27.4306223802915, "lng": 80.53130788029151}, "southwest": {"lat": 27.4279244197085, "lng": 80.5286099197085}}}, "icon": "https://maps.gstatic.com/mapfiles/place_api/icons/v1/png_71/hospital-71.png", "icon_background_color": "#F88181", "icon_mask_base_uri": "https://maps.gstatic.com/mapfiles/place_api/icons/v2/hospital-H_pinlet", "name": "Lalta Davi Mandir", "place_id": "ChIJ_____7rcnjkRcro3kvaRizs", "reference": "ChIJ_____7rcnjkRcro3kvaRizs", "scope": "GOOGLE", "types": ["hospital", "health", "point_of_interest", "establishment"], "vicinity": "CGHH+PX8, Misrikh-cum-Neemsar"}, {"business_status": "OPERATIONAL", "geometry": {"location": {"lat": 27.42046819999999, "lng": 80.51836}, "viewport": {"northeast": {"lat": 27.4218738302915, "lng": 80.51960763029152}, "southwest": {"lat": 27.41917586970849, "lng": 80.51690966970851}}}, "icon": "https://maps.gstatic.com/mapfiles/place_api/icons/v1/png_71/hospital-71.png", "icon_background_color": "#F88181", "icon_mask_base_uri": "https://maps.gstatic.com/mapfiles/place_api/icons/v2/hospital-H_pinlet", "name": "Yogendra singh , CHO, HWC, Gauvapurva, misrikh", "place_id": "ChIJNeE79EbdnjkRCkct4_A-jyA", "plus_code": {"compound_code": "CGC9+58 Parsoli, Uttar Pradesh, India", "global_code": "7MV2CGC9+58"}, "reference": "ChIJNeE79EbdnjkRCkct4_A-jyA", "scope": "GOOGLE", "types": ["hospital", "health", "point_of_interest", "establishment"], "vicinity": "Nabiganj - Jasmai Road, Parsoli"}, {"business_status": "OPERATIONAL", "geometry": {"location": {"lat": 27.4302329, "lng": 80.5273933}, "viewport": {"northeast": {"lat": 27.4315745302915, "lng": 80.52875228029151}, "southwest": {"lat": 27.4288765697085, "lng": 80.5260543197085}}}, "icon": "https://maps.gstatic.com/mapfiles/place_api/icons/v1/png_71/hospital-71.png", "icon_background_color": "#F88181", "icon_mask_base_uri": "https://maps.gstatic.com/mapfiles/place_api/icons/v2/hospital-H_pinlet", "name": "Dr.A.K.Singh's Anand Hospital", "photos": [{"height": 720, "html_attributions": ["<a href=\"https://maps.google.com/maps/contrib/115211147985604734921\">V\u00eeshw\u00ebsh bhai</a>"], "photo_reference": "Aap_uED0perU9nk8mXIIhmOQU23IAYExRsgR_LQXxm8kNG5jGQjprlhvfotMfLzc82iElpSfBGQjJDjGsVNQkQDNdustUyyNVTc-vmHB4cK4DW1-qIN2EXvH_rW3LZvjSTjcNEkzzIxrUvGZMpSeAaDfcW2r4v431MvxClBegPwWL8okJ0ch", "width": 1280}], "place_id": "ChIJdaESgNbdnjkRKjEmnirGcxg", "plus_code": {"compound_code": "CGJG+3X Misrikh-cum-Neemsar, Uttar Pradesh, India", "global_code": "7MV2CGJG+3X"}, "reference": "ChIJdaESgNbdnjkRKjEmnirGcxg", "scope": "GOOGLE", "types": ["hospital", "health", "point_of_interest", "establishment"], "vicinity": "nahar chaouraha Rannupur, Misrikh-cum-Neemsar"}, {"business_status": "OPERATIONAL", "geometry": {"location": {"lat": 27.4293523, "lng": 80.52154270000001}, "viewport": {"northeast": {"lat": 27.43059293029151, "lng": 80.5231232302915}, "southwest": {"lat": 27.4278949697085, "lng": 80.5204252697085}}}, "icon": "https://maps.gstatic.com/mapfiles/place_api/icons/v1/png_71/hospital-71.png", "icon_background_color": "#F88181", "icon_mask_base_uri": "https://maps.gstatic.com/mapfiles/place_api/icons/v2/hospital-H_pinlet", "name": "Rawat hosipital", "place_id": "ChIJWd24znbdnjkRlQacJYKczW4", "plus_code": {"compound_code": "CGHC+PJ Misrikh-cum-Neemsar, Uttar Pradesh, India", "global_code": "7MV2CGHC+PJ"}, "reference": "ChIJWd24znbdnjkRlQacJYKczW4", "scope": "GOOGLE", "types": ["hospital", "health", "point_of_interest", "establishment"], "vicinity": "near paytm payments bank Ltd, naharcharaha, \u092e\u093f\u0938\u094d\u0930\u093f\u0916-\u0915\u092e-\u0928\u0940\u092e\u0938\u093e\u0930"}, {"business_status": "OPERATIONAL", "geometry": {"location": {"lat": 27.4311099, "lng": 80.531199}, "viewport": {"northeast": {"lat": 27.4324759302915, "lng": 80.53250028029152}, "southwest": {"lat": 27.4297779697085, "lng": 80.5298023197085}}}, "icon": "https://maps.gstatic.com/mapfiles/place_api/icons/v1/png_71/hospital-71.png", "icon_background_color": "#F88181", "icon_mask_base_uri": "https://maps.gstatic.com/mapfiles/place_api/icons/v2/hospital-H_pinlet", "name": "Clinic Dr Ajendra K Singh", "opening_hours": {"open_now": false}, "photos": [{"height": 2610, "html_attributions": ["<a href=\"https://maps.google.com/maps/contrib/113672693655611185564\">Dr.Ajendrakumar Singh</a>"], "photo_reference": "Aap_uEDIhUVmqbWZyQ752UHGRwsuYXjxeirZ3OOSWd7UZNdJKfTiqWvIZcFoxToODz4bh2d3Yt0XzWwvD1vxcD5--tiDTqXIZ3aift_OWjnlQ3aLiaIRPXsWbi6A_Joq0F4-1X3vYs9xMJPbSBxRn6JJMYHHeK_nMSUMYDvvcpjkFDti-soV", "width": 4640}], "place_id": "ChIJWUjWa7vcnjkRR3o3tfNr74Q", "rating": 3.5, "reference": "ChIJWUjWa7vcnjkRR3o3tfNr74Q", "scope": "GOOGLE", "types": ["hospital", "health", "point_of_interest", "establishment"], "user_ratings_total": 2, "vicinity": "CGJJ+CFW, Misrikh-cum-Neemsar"}, {"business_status": "OPERATIONAL", "geometry": {"location": {"lat": 27.4321186, "lng": 80.5278409}, "viewport": {"northeast": {"lat": 27.4336584802915, "lng": 80.52929158029151}, "southwest": {"lat": 27.4309605197085, "lng": 80.5265936197085}}}, "icon": "https://maps.gstatic.com/mapfiles/place_api/icons/v1/png_71/hospital-71.png", "icon_background_color": "#F88181", "icon_mask_base_uri": "https://maps.gstatic.com/mapfiles/place_api/icons/v2/hospital-H_pinlet", "name": "Government Hospital", "place_id": "ChIJDyPwS7zcnjkRogJqxT8pPJc", "rating": 4.7, "reference": "ChIJDyPwS7zcnjkRogJqxT8pPJc", "scope": "GOOGLE", "types": ["hospital", "health", "point_of_interest", "establishment"], "user_ratings_total": 3, "vicinity": "CGJH+R4W, Misrikh-cum-Neemsar"}, {"business_status": "OPERATIONAL", "geometry": {"location": {"lat": 27.4324127, "lng": 80.5270993}, "viewport": {"northeast": {"lat": 27.43380148029151, "lng": 80.5283828802915}, "southwest": {"lat": 27.4311035197085, "lng": 80.5256849197085}}}, "icon": "https://maps.gstatic.com/mapfiles/place_api/icons/v1/png_71/hospital-71.png", "icon_background_color": "#F88181", "icon_mask_base_uri": "https://maps.gstatic.com/mapfiles/place_api/icons/v2/hospital-H_pinlet", "name": "Shubh nursing home sitapur hardoi road mishrikh", "opening_hours": {"open_now": true}, "photos": [{"height": 750, "html_attributions": ["<a href=\"https://maps.google.com/maps/contrib/108765437497065060755\">amit kashyap</a>"], "photo_reference": "Aap_uEBwPIJeyzl7_SJYgCMPEJT8EEndu1Nj4uNfBpqW1nUmAYHmPWVQAQPtnetFFaXZpI3bwQxQEpeRADfm0fe_p61oSHFW7M5XSISg6VC4aMFmZ79QyXVs0QzQIRj0nTMH5ccWefu6UO0u8bkXHoEEF3CK3YpOcYigW-NA4xG1hoY--xqp", "width": 1000}], "place_id": "ChIJp9baa5_dnjkR0wMGp7dpYaQ", "plus_code": {"compound_code": "CGJG+XR Korauna, Uttar Pradesh, India", "global_code": "7MV2CGJG+XR"}, "rating": 4.6, "reference": "ChIJp9baa5_dnjkR0wMGp7dpYaQ", "scope": "GOOGLE", "types": ["hospital", "health", "point_of_interest", "establishment"], "user_ratings_total": 9, "vicinity": "Shop No. 10, Sitapur - Kanpur Road, Mishrikh, Korauna"}, {"business_status": "OPERATIONAL", "geometry": {"location": {"lat": 27.4342514, "lng": 80.5289372}, "viewport": {"northeast": {"lat": 27.4356429802915, "lng": 80.53033593029151}, "southwest": {"lat": 27.4329450197085, "lng": 80.52763796970851}}}, "icon": "https://maps.gstatic.com/mapfiles/place_api/icons/v1/png_71/hospital-71.png", "icon_background_color": "#F88181", "icon_mask_base_uri": "https://maps.gstatic.com/mapfiles/place_api/icons/v2/hospital-H_pinlet", "name": "Hospital", "opening_hours": {"open_now": true}, "place_id": "ChIJ_7LkRbzcnjkRSxsUAr03BCA", "reference": "ChIJ_7LkRbzcnjkRSxsUAr03BCA", "scope": "GOOGLE", "types": ["hospital", "health", "point_of_interest", "establishment"], "vicinity": "CGMH+PH3, Misrikh-cum-Neemsar"}, {"business_status": "OPERATIONAL", "geometry": {"location": {"lat": 27.43447059999999, "lng": 80.5287632}, "viewport": {"northeast": {"lat": 27.4357638802915, "lng": 80.53021288029151}, "southwest": {"lat": 27.4330659197085, "lng": 80.5275149197085}}}, "icon": "https://maps.gstatic.com/mapfiles/place_api/icons/v1/png_71/hospital-71.png", "icon_background_color": "#F88181", "icon_mask_base_uri": "https://maps.gstatic.com/mapfiles/place_api/icons/v2/hospital-H_pinlet", "name": "chc mishrikh sitapur", "opening_hours": {"open_now": true}, "photos": [{"height": 4160, "html_attributions": ["<a href=\"https://maps.google.com/maps/contrib/114140251950849746720\">Balak Rawat</a>"], "photo_reference": "Aap_uEBNF0egdj7WU-FZIgV-82EQZqwpQXch8PN-oUPpFRqE9fapd43JtDAq5Tm5vdQSe3TtRCl9aaCvXTRXMgrEB_k9adSsx1imaiu8YBC8khzkQfFhal4qIiwtOZ6VXnroigu7qb4qCeP050Y8BbCA2AN6cRCcRf_vxKSZlQriQ4qINtEG", "width": 3120}], "place_id": "ChIJ0xKSJOXdnjkRryNXcGjXRYk", "plus_code": {"compound_code": "CGMH+QG Misrikh-cum-Neemsar, Uttar Pradesh, India", "global_code": "7MV2CGMH+QG"}, "rating": 3, "reference": "ChIJ0xKSJOXdnjkRryNXcGjXRYk", "scope": "GOOGLE", "types": ["hospital", "health", "point_of_interest", "establishment"], "user_ratings_total": 2, "vicinity": "Misrikh-cum-Neemsar"}], "status": "OK"}