{"html_attributions": [], "results": [{"business_status": "OPERATIONAL", "geometry": {"location": {"lat": 26.9816452, "lng": 80.5986679}, "viewport": {"northeast": {"lat": 26.9829369302915, "lng": 80.59986533029151}, "southwest": {"lat": 26.9802389697085, "lng": 80.5971673697085}}}, "icon": "https://maps.gstatic.com/mapfiles/place_api/icons/v1/png_71/hospital-71.png", "icon_background_color": "#F88181", "icon_mask_base_uri": "https://maps.gstatic.com/mapfiles/place_api/icons/v2/hospital-H_pinlet", "name": "RADHEY KRISHNA HOSPITAL", "place_id": "ChIJcx6-xPWlnjkR_NMqEejE2Gs", "plus_code": {"compound_code": "XHJX+MF Katra Tiraona, Uttar Pradesh, India", "global_code": "7MR2XHJX+MF"}, "reference": "ChIJcx6-xPWlnjkR_NMqEejE2Gs", "scope": "GOOGLE", "types": ["hospital", "health", "point_of_interest", "establishment"], "vicinity": "Hardoi Road, Katra Tiraona"}, {"business_status": "OPERATIONAL", "geometry": {"location": {"lat": 26.9784738, "lng": 80.5980648}, "viewport": {"northeast": {"lat": 26.9797853802915, "lng": 80.59946538029152}, "southwest": {"lat": 26.9770874197085, "lng": 80.5967674197085}}}, "icon": "https://maps.gstatic.com/mapfiles/place_api/icons/v1/png_71/hospital-71.png", "icon_background_color": "#F88181", "icon_mask_base_uri": "https://maps.gstatic.com/mapfiles/place_api/icons/v2/hospital-H_pinlet", "name": "Gulab clinic", "place_id": "ChIJ0_e7eMGlnjkRKCMt3Dnso00", "plus_code": {"compound_code": "XHHX+96 Katra Tiraona, Uttar Pradesh, India", "global_code": "7MR2XHHX+96"}, "reference": "ChIJ0_e7eMGlnjkRKCMt3Dnso00", "scope": "GOOGLE", "types": ["hospital", "health", "point_of_interest", "establishment"], "vicinity": "Unnamed Road, Katra Tiraona"}, {"business_status": "OPERATIONAL", "geometry": {"location": {"lat": 26.9807225, "lng": 80.5990468}, "viewport": {"northeast": {"lat": 26.98206233029151, "lng": 80.6004132802915}, "southwest": {"lat": 26.9793643697085, "lng": 80.59771531970848}}}, "icon": "https://maps.gstatic.com/mapfiles/place_api/icons/v1/png_71/hospital-71.png", "icon_background_color": "#F88181", "icon_mask_base_uri": "https://maps.gstatic.com/mapfiles/place_api/icons/v2/hospital-H_pinlet", "name": "Ashoka Hospital", "place_id": "ChIJEWAqPRelnjkRbF8DeG1eqEA", "plus_code": {"compound_code": "XHJX+7J Katra Tiraona, Uttar Pradesh, India", "global_code": "7MR2XHJX+7J"}, "reference": "ChIJEWAqPRelnjkRbF8DeG1eqEA", "scope": "GOOGLE", "types": ["hospital", "health", "point_of_interest", "establishment"], "vicinity": "Station Road, Rahimabad"}, {"business_status": "OPERATIONAL", "geometry": {"location": {"lat": 26.9791776, "lng": 80.5990142}, "viewport": {"northeast": {"lat": 26.98052888029151, "lng": 80.60029743029149}, "southwest": {"lat": 26.9778309197085, "lng": 80.59759946970848}}}, "icon": "https://maps.gstatic.com/mapfiles/place_api/icons/v1/png_71/hospital-71.png", "icon_background_color": "#F88181", "icon_mask_base_uri": "https://maps.gstatic.com/mapfiles/place_api/icons/v2/hospital-H_pinlet", "name": "Janta Hospital", "place_id": "ChIJbbslgrelnjkRCamJ9x2xFKU", "rating": 4.7, "reference": "ChIJbbslgrelnjkRCamJ9x2xFKU", "scope": "GOOGLE", "types": ["hospital", "health", "point_of_interest", "establishment"], "user_ratings_total": 3, "vicinity": "XHHX+MJC, Fatehpur"}], "status": "OK"}