{"html_attributions": [], "results": [{"business_status": "OPERATIONAL", "geometry": {"location": {"lat": 27.566865, "lng": 80.6507822}, "viewport": {"northeast": {"lat": 27.5681602302915, "lng": 80.65217393029151}, "southwest": {"lat": 27.5654622697085, "lng": 80.64947596970849}}}, "icon": "https://maps.gstatic.com/mapfiles/place_api/icons/v1/png_71/hospital-71.png", "icon_background_color": "#F88181", "icon_mask_base_uri": "https://maps.gstatic.com/mapfiles/place_api/icons/v2/hospital-H_pinlet", "name": "Janta Hospital 24*7", "photos": [{"height": 720, "html_attributions": ["<a href=\"https://maps.google.com/maps/contrib/106487507325024286208\">Mohd Zeeshan Ali</a>"], "photo_reference": "Aap_uEDyBhNkbP1CTJN9XdOItCbCmdW44sQ42QgvvNat3RaTcHCXliOtzDsA6V_-LF2qKPiThc8yCTE-4YwqlEBjLAMWbtc3iwvtthHooeWoHUJ4hpPc34vyg84WP_mrOxsdumkMjtSd2vlElMZ954fDaIy1j43DC-dqtdX-v3Z6NA47sHhY", "width": 1280}], "place_id": "ChIJVTUJBojXnjkRBQFlk7svelE", "rating": 5, "reference": "ChIJVTUJBojXnjkRBQFlk7svelE", "scope": "GOOGLE", "types": ["hospital", "health", "point_of_interest", "establishment"], "user_ratings_total": 2, "vicinity": "HM82+P8V, Ahata Kaptan"}, {"business_status": "OPERATIONAL", "geometry": {"location": {"lat": 27.5671951, "lng": 80.6508035}, "viewport": {"northeast": {"lat": 27.5685238302915, "lng": 80.6521252802915}, "southwest": {"lat": 27.5658258697085, "lng": 80.64942731970848}}}, "icon": "https://maps.gstatic.com/mapfiles/place_api/icons/v1/png_71/hospital-71.png", "icon_background_color": "#F88181", "icon_mask_base_uri": "https://maps.gstatic.com/mapfiles/place_api/icons/v2/hospital-H_pinlet", "name": "Arogya nursing home", "photos": [{"height": 1920, "html_attributions": ["<a href=\"https://maps.google.com/maps/contrib/114427898247193643880\">Syed Kalbey Hasan</a>"], "photo_reference": "Aap_uEAvs5r9KDzRSwigAulCGiCjCaHRoc4L2iopvw9XozPYtSXBACHoLCuMvPvNJIxIUsT9VcehzL4aCAAtr7ol4SYDxz656CV6sBHNtzys1Vrvnzwa2lMZ8IW-gafVCTmKE1pneCXDoBEoSE-8MVPQROJBX7ULdU0i3bDywtkGbtNZsbBx", "width": 1080}], "place_id": "ChIJ12ygEZjXnjkRUlr_Tg4e_Sk", "rating": 5, "reference": "ChIJ12ygEZjXnjkRUlr_Tg4e_Sk", "scope": "GOOGLE", "types": ["hospital", "health", "point_of_interest", "establishment"], "user_ratings_total": 2, "vicinity": "HM82+V8F, Lachimanpur, Ahata Kaptan"}, {"business_status": "OPERATIONAL", "geometry": {"location": {"lat": 27.569775, "lng": 80.65530989999999}, "viewport": {"northeast": {"lat": 27.5710943802915, "lng": 80.6566095302915}, "southwest": {"lat": 27.5683964197085, "lng": 80.65391156970848}}}, "icon": "https://maps.gstatic.com/mapfiles/place_api/icons/v1/png_71/hospital-71.png", "icon_background_color": "#F88181", "icon_mask_base_uri": "https://maps.gstatic.com/mapfiles/place_api/icons/v2/hospital-H_pinlet", "name": "New Sanjeevani Hospital", "opening_hours": {"open_now": true}, "place_id": "ChIJbQNbKn_XnjkRXcDZlc0RZGk", "plus_code": {"compound_code": "HM94+W4 Sitapur, Uttar Pradesh, India", "global_code": "7MV2HM94+W4"}, "reference": "ChIJbQNbKn_XnjkRXcDZlc0RZGk", "scope": "GOOGLE", "types": ["hospital", "health", "point_of_interest", "establishment"], "vicinity": "Unnamed Road, Lachimanpur, Sitapur"}, {"business_status": "OPERATIONAL", "geometry": {"location": {"lat": 27.5691169, "lng": 80.658735}, "viewport": {"northeast": {"lat": 27.5704179802915, "lng": 80.6601397802915}, "southwest": {"lat": 27.5677200197085, "lng": 80.65744181970848}}}, "icon": "https://maps.gstatic.com/mapfiles/place_api/icons/v1/png_71/hospital-71.png", "icon_background_color": "#F88181", "icon_mask_base_uri": "https://maps.gstatic.com/mapfiles/place_api/icons/v2/hospital-H_pinlet", "name": "Soajal Eye Care Center", "place_id": "ChIJW03kcSTXnjkRBZnL-fIpR_E", "rating": 5, "reference": "ChIJW03kcSTXnjkRBZnL-fIpR_E", "scope": "GOOGLE", "types": ["hospital", "health", "point_of_interest", "establishment"], "user_ratings_total": 1, "vicinity": "HM95+JFX, Lachimanpur, Sitapur"}], "status": "OK"}