{"html_attributions": [], "next_page_token": "Aap_uEAIxer7PV5Rw3lMRjoWpXgZXKyaAfmvYWrGjW5na6N4JOk6jAJb9nDf-4bK8GUqUEfeQv9CtBx0L9WeHbnzeHuGSsvIzfMixk41b6bsGRIdTdOweWUZohuaAKbWdPceltnVEhH8joKuGtj6plJsA_fYmssWrx3simsdh8hWV3m8458K54mny_WgZdtCcreSpgahGiJGhaKVmjJeRHF54fMB1-qe2ZMBrwjdEeL8YIBWNb02y1MuOtCjqtBzPmRE1liuBWSrf3ZNfEQdvdg9a9uUkfXFrdYtPQbD-SihcqrPzgtvG_gbTboBVEL1fMiJOc_kN8Aj44R2KHRolykLjX92MfhIwj94D4xn6djchHK6M7b3tQFqGEcGvcQfTDzEctI3RJtGReH5shtxRDyA2HrMjPbK8de4d_f2GnMgtYx8aSfYD1V-4A", "results": [{"business_status": "CLOSED_TEMPORARILY", "geometry": {"location": {"lat": 27.5608171, "lng": 80.6822}, "viewport": {"northeast": {"lat": 27.5621801802915, "lng": 80.6835188302915}, "southwest": {"lat": 27.5594822197085, "lng": 80.6808208697085}}}, "icon": "https://maps.gstatic.com/mapfiles/place_api/icons/v1/png_71/hospital-71.png", "icon_background_color": "#F88181", "icon_mask_base_uri": "https://maps.gstatic.com/mapfiles/place_api/icons/v2/hospital-H_pinlet", "name": "Shakti Hospital", "permanently_closed": true, "photos": [{"height": 4160, "html_attributions": ["<a href=\"https://maps.google.com/maps/contrib/108550163433009335788\">himanshu mishra</a>"], "photo_reference": "Aap_uECecEpuO8Ikwfsu-zt_R8fMbSpQ4DpbATQGOz6bxkEW2NdrgdIg7bfwUcEI2jZpWNiL5VsB5m2vpWpM2seP6bPqXFOa6vhPCWF8Lx9k_2Y4QfFpjP6PUYK1CDBuKd889l7EwJTyPpqeyLuB4GgTBAC1AiX-FaPX9x8wPC_rhcmE5Woa", "width": 3120}], "place_id": "ChIJR52Mzv7WnjkRZva2nXlFNcE", "rating": 2.3, "reference": "ChIJR52Mzv7WnjkRZva2nXlFNcE", "scope": "GOOGLE", "types": ["hospital", "health", "point_of_interest", "establishment"], "user_ratings_total": 4, "vicinity": "HM6J+8VG, Arya Nagar, Sitapur"}, {"business_status": "OPERATIONAL", "geometry": {"location": {"lat": 27.5607957, "lng": 80.687786}, "viewport": {"northeast": {"lat": 27.5621156802915, "lng": 80.6892124302915}, "southwest": {"lat": 27.5594177197085, "lng": 80.68651446970848}}}, "icon": "https://maps.gstatic.com/mapfiles/place_api/icons/v1/png_71/hospital-71.png", "icon_background_color": "#F88181", "icon_mask_base_uri": "https://maps.gstatic.com/mapfiles/place_api/icons/v2/hospital-H_pinlet", "name": "Saksham Nursing Home", "opening_hours": {"open_now": false}, "photos": [{"height": 2736, "html_attributions": ["<a href=\"https://maps.google.com/maps/contrib/117237557729209261630\">SAMPANN SAMRAAT</a>"], "photo_reference": "Aap_uEBip720SH-gQGxOUAgvaPJdE2EH4b-cV-a_PtAXuhjjMc4OpBkDpdmiCRJP-LdNTQG4ZD4YFxGOnn6ZPvTmG6ABxB68ZnaU9GIDBb6OTWcMc4k5xNmHgt8OLAHJ8fh0agHWXwrK5HQSCwYiGJ1IxVukq89GCgsi7LU0n94AeKxA9F2z", "width": 4864}], "place_id": "ChIJMzNL3PnWnjkRJq_busnvvHY", "plus_code": {"compound_code": "HM6Q+84 Sitapur, Uttar Pradesh, India", "global_code": "7MV2HM6Q+84"}, "rating": 2.5, "reference": "ChIJMzNL3PnWnjkRJq_busnvvHY", "scope": "GOOGLE", "types": ["hospital", "health", "point_of_interest", "establishment"], "user_ratings_total": 13, "vicinity": "bus stop, near sitapur, opp. 2nd battalion PAC, Tompson Ganj, Arya Nagar, Sitapur"}, {"business_status": "OPERATIONAL", "geometry": {"location": {"lat": 27.5603401, "lng": 80.6855719}, "viewport": {"northeast": {"lat": 27.5616249302915, "lng": 80.68705783029151}, "southwest": {"lat": 27.55892696970849, "lng": 80.6843598697085}}}, "icon": "https://maps.gstatic.com/mapfiles/place_api/icons/v1/png_71/hospital-71.png", "icon_background_color": "#F88181", "icon_mask_base_uri": "https://maps.gstatic.com/mapfiles/place_api/icons/v2/hospital-H_pinlet", "name": "Saksham narshing home", "place_id": "ChIJhcdZrinXnjkRf6QrMhZ4v5U", "plus_code": {"compound_code": "HM6P+46 Sitapur, Uttar Pradesh, India", "global_code": "7MV2HM6P+46"}, "rating": 3, "reference": "ChIJhcdZrinXnjkRf6QrMhZ4v5U", "scope": "GOOGLE", "types": ["hospital", "health", "point_of_interest", "establishment"], "user_ratings_total": 1, "vicinity": "457, Vijay Laxmi Nagar, Sitapur"}, {"business_status": "OPERATIONAL", "geometry": {"location": {"lat": 27.5646311, "lng": 80.687418}, "viewport": {"northeast": {"lat": 27.56600593029151, "lng": 80.6887873302915}, "southwest": {"lat": 27.5633079697085, "lng": 80.68608936970848}}}, "icon": "https://maps.gstatic.com/mapfiles/place_api/icons/v1/png_71/generic_business-71.png", "icon_background_color": "#7B9EB0", "icon_mask_base_uri": "https://maps.gstatic.com/mapfiles/place_api/icons/v2/generic_pinlet", "name": "Dr. Abhishek Bharti", "opening_hours": {"open_now": true}, "place_id": "ChIJadlOBu3imzkRBpiib345Wto", "plus_code": {"compound_code": "HM7P+VX Sitapur, Uttar Pradesh, India", "global_code": "7MV2HM7P+VX"}, "rating": 3.4, "reference": "ChIJadlOBu3imzkRBpiib345Wto", "scope": "GOOGLE", "types": ["hospital", "health", "point_of_interest", "establishment"], "user_ratings_total": 7, "vicinity": "112, Jail Road, Sitapur"}, {"business_status": "OPERATIONAL", "geometry": {"location": {"lat": 27.5648199, "lng": 80.6875089}, "viewport": {"northeast": {"lat": 27.5660864802915, "lng": 80.68879298029151}, "southwest": {"lat": 27.5633885197085, "lng": 80.68609501970849}}}, "icon": "https://maps.gstatic.com/mapfiles/place_api/icons/v1/png_71/hospital-71.png", "icon_background_color": "#F88181", "icon_mask_base_uri": "https://maps.gstatic.com/mapfiles/place_api/icons/v2/hospital-H_pinlet", "name": "Pragati Nursing Home", "opening_hours": {"open_now": true}, "photos": [{"height": 1080, "html_attributions": ["<a href=\"https://maps.google.com/maps/contrib/118180584475198907455\">Ajeet Kashyap</a>"], "photo_reference": "Aap_uEATqkPlrP6oG_hJOMRcRtoz9bO_T8HKT3KZ3zT9dFAbPwjSaqT7h85O0Cj539zbIRglD5kt8R7wAsTe6bj024zIReXA5UT_3LXJq6DYb_pWsAS-zrKR2PIwFmyzP8QVsthjzRnBm5-D3dm5xk0erNASJTGf--bkzkUB3AMvm4afoMNg", "width": 1920}], "place_id": "ChIJE_7QB_jWnjkRituG-ah9xyg", "plus_code": {"compound_code": "HM7Q+W2 Sitapur, Uttar Pradesh, India", "global_code": "7MV2HM7Q+W2"}, "rating": 4.7, "reference": "ChIJE_7QB_jWnjkRituG-ah9xyg", "scope": "GOOGLE", "types": ["hospital", "health", "point_of_interest", "establishment"], "user_ratings_total": 166, "vicinity": "Police Line, 100, Jail Road, Sitapur"}, {"business_status": "OPERATIONAL", "geometry": {"location": {"lat": 27.5648921, "lng": 80.68664009999999}, "viewport": {"northeast": {"lat": 27.5663129802915, "lng": 80.68804308029151}, "southwest": {"lat": 27.5636150197085, "lng": 80.68534511970849}}}, "icon": "https://maps.gstatic.com/mapfiles/place_api/icons/v1/png_71/hospital-71.png", "icon_background_color": "#F88181", "icon_mask_base_uri": "https://maps.gstatic.com/mapfiles/place_api/icons/v2/hospital-H_pinlet", "name": "Ayush Clinic", "opening_hours": {"open_now": false}, "photos": [{"height": 1920, "html_attributions": ["<a href=\"https://maps.google.com/maps/contrib/118214036533224563655\">Abhishek Verma</a>"], "photo_reference": "Aap_uEBNumk9K9YZpGotU29ugt_3dAgiRhHfv5Ldz3NLUftK8Z7Pq5KUzUBenxCYZoVZqC2R0CW8KBlQhXsU_zVX1P41Yef4lfJhonp76iHdhZsdAlA8WN8p0GbV_F4ddTEP5bsL_JG_g2GiaqS9fKSU62PUixnvITFfJgjyj6ZhNhLGSk_F", "width": 1080}], "place_id": "ChIJ62txdfjWnjkRn6Q491KiPSA", "plus_code": {"compound_code": "HM7P+XM Sitapur, Uttar Pradesh, India", "global_code": "7MV2HM7P+XM"}, "rating": 4.3, "reference": "ChIJ62txdfjWnjkRn6Q491KiPSA", "scope": "GOOGLE", "types": ["hospital", "health", "point_of_interest", "establishment"], "user_ratings_total": 11, "vicinity": "Jail Road, Sitapur"}, {"business_status": "OPERATIONAL", "geometry": {"location": {"lat": 27.5616657, "lng": 80.6904773}, "viewport": {"northeast": {"lat": 27.5629435802915, "lng": 80.69181648029151}, "southwest": {"lat": 27.5602456197085, "lng": 80.68911851970849}}}, "icon": "https://maps.gstatic.com/mapfiles/place_api/icons/v1/png_71/hospital-71.png", "icon_background_color": "#F88181", "icon_mask_base_uri": "https://maps.gstatic.com/mapfiles/place_api/icons/v2/hospital-H_pinlet", "name": "Dr. Navin K Shukla Orthopedic Surgeon", "opening_hours": {"open_now": false}, "photos": [{"height": 2250, "html_attributions": ["<a href=\"https://maps.google.com/maps/contrib/109426488705269873050\">Dr.Anuj Verma</a>"], "photo_reference": "Aap_uEDGuCU01fc9FJEZsXhIoyiHaHpYuKbeKUGaoeQH--sCPDhpk-5xfYyEkjS6UsGSdhfdIn0qpDIhD3k1F1oSaLyRrGOuJNlw0apy8aJ4hqkgIRnSmTihOzO_mzUJ2hjlKeYv8XArRuXPK1CC2bUYef_FaWKPfcOqngwZ65kEnPdCMc7g", "width": 4000}], "place_id": "ChIJ3w78ZJ3XnjkRYcnJZ8rMWME", "plus_code": {"compound_code": "HM6R+M5 Sitapur, Uttar Pradesh, India", "global_code": "7MV2HM6R+M5"}, "rating": 4.2, "reference": "ChIJ3w78ZJ3XnjkRYcnJZ8rMWME", "scope": "GOOGLE", "types": ["hospital", "health", "point_of_interest", "establishment"], "user_ratings_total": 24, "vicinity": "Station Road, Sitapur"}, {"business_status": "OPERATIONAL", "geometry": {"location": {"lat": 27.5652698, "lng": 80.6863809}, "viewport": {"northeast": {"lat": 27.5666322302915, "lng": 80.68773983029149}, "southwest": {"lat": 27.5639342697085, "lng": 80.68504186970848}}}, "icon": "https://maps.gstatic.com/mapfiles/place_api/icons/v1/png_71/hospital-71.png", "icon_background_color": "#F88181", "icon_mask_base_uri": "https://maps.gstatic.com/mapfiles/place_api/icons/v2/hospital-H_pinlet", "name": "\u0938\u0941\u0932\u094d\u0924\u093e\u0928\u093e \u0939\u094b\u092e\u094d\u092f\u094b\u0938\u094d\u091f\u094b\u0930 \u091c\u0947\u0932 \u0930\u094b\u0921 \u0938\u0940\u0924\u093e\u092a\u0941\u0930", "photos": [{"height": 720, "html_attributions": ["<a href=\"https://maps.google.com/maps/contrib/110352478228870116771\">help 24</a>"], "photo_reference": "Aap_uEAaRiClJxr-o68zxAZkOw-vxVa1wj7bxZ6Fhu1YYxTiKS05whVvdDe1-rQ1ijdnzI2ounsEvtEzs-vZEg65x8p1ICu6E43eyTzvli52nZPhJEVLUJfMQJEa_z1JEyDKpWnOd3hVGd-vnC2LE8SQuJeOm8nwwha8oafc1q_UIeKYW3w2", "width": 1280}], "place_id": "ChIJG8v7CArXnjkRxMHnzMnPqyo", "reference": "ChIJG8v7CArXnjkRxMHnzMnPqyo", "scope": "GOOGLE", "types": ["hospital", "health", "point_of_interest", "establishment"], "vicinity": "HM8P+4H2, Sitapur"}, {"business_status": "OPERATIONAL", "geometry": {"location": {"lat": 27.5659473, "lng": 80.68524529999999}, "viewport": {"northeast": {"lat": 27.5672962302915, "lng": 80.6865942302915}, "southwest": {"lat": 27.5645982697085, "lng": 80.6838962697085}}}, "icon": "https://maps.gstatic.com/mapfiles/place_api/icons/v1/png_71/hospital-71.png", "icon_background_color": "#F88181", "icon_mask_base_uri": "https://maps.gstatic.com/mapfiles/place_api/icons/v2/hospital-H_pinlet", "name": "Shri balji pharma", "place_id": "ChIJpWtEO9zXnjkRafN7tK1RdEQ", "plus_code": {"compound_code": "HM8P+93 Sitapur, Uttar Pradesh, India", "global_code": "7MV2HM8P+93"}, "reference": "ChIJpWtEO9zXnjkRafN7tK1RdEQ", "scope": "GOOGLE", "types": ["hospital", "health", "point_of_interest", "establishment"], "vicinity": "Jail Road, Sitapur"}, {"business_status": "OPERATIONAL", "geometry": {"location": {"lat": 27.5612006, "lng": 80.6815757}, "viewport": {"northeast": {"lat": 27.56255233029151, "lng": 80.68292943029151}, "southwest": {"lat": 27.5598543697085, "lng": 80.68023146970849}}}, "icon": "https://maps.gstatic.com/mapfiles/place_api/icons/v1/png_71/hospital-71.png", "icon_background_color": "#F88181", "icon_mask_base_uri": "https://maps.gstatic.com/mapfiles/place_api/icons/v2/hospital-H_pinlet", "name": "surya clinic dr vinod tripathi", "opening_hours": {"open_now": false}, "photos": [{"height": 3120, "html_attributions": ["<a href=\"https://maps.google.com/maps/contrib/106774729057226272505\">Drvinod Kumar Tripathi</a>"], "photo_reference": "Aap_uEDitlA_pvpzvv6XI6tYwEUaEYGImBEJk2Za9hz4lo8JEfNBfM2wvqSuEqGYnD94Ky1rd0mweON8h-aXA4cw008mYUd7OaTFytbNxisxGx97EednnKOEV3gv5k4Pe95W2arTNP8d7CUA_6F0WecTTabsf0B6cOdSYyQPZffVCWWvoNVz", "width": 4160}], "place_id": "ChIJy0t43P7WnjkRPEDiBWH0VmY", "rating": 5, "reference": "ChIJy0t43P7WnjkRPEDiBWH0VmY", "scope": "GOOGLE", "types": ["hospital", "health", "point_of_interest", "establishment"], "user_ratings_total": 1, "vicinity": "HM6J+FJP, Sanjay Nagar, Sitapur"}, {"business_status": "OPERATIONAL", "geometry": {"location": {"lat": 27.561456, "lng": 80.692448}, "viewport": {"northeast": {"lat": 27.5627220302915, "lng": 80.6937790302915}, "southwest": {"lat": 27.56002406970849, "lng": 80.69108106970849}}}, "icon": "https://maps.gstatic.com/mapfiles/place_api/icons/v1/png_71/hospital-71.png", "icon_background_color": "#F88181", "icon_mask_base_uri": "https://maps.gstatic.com/mapfiles/place_api/icons/v2/hospital-H_pinlet", "name": "Sethi Hospial", "place_id": "ChIJa8gTk_bWnjkRDi4Q6eheExs", "plus_code": {"compound_code": "HM6R+HX Sitapur, Uttar Pradesh, India", "global_code": "7MV2HM6R+HX"}, "rating": 1, "reference": "ChIJa8gTk_bWnjkRDi4Q6eheExs", "scope": "GOOGLE", "types": ["hospital", "health", "point_of_interest", "establishment"], "user_ratings_total": 1, "vicinity": "Station Road, Arya Nagar, Sitapur"}, {"business_status": "OPERATIONAL", "geometry": {"location": {"lat": 27.56391, "lng": 80.681764}, "viewport": {"northeast": {"lat": 27.5652830802915, "lng": 80.6831295802915}, "southwest": {"lat": 27.5625851197085, "lng": 80.68043161970849}}}, "icon": "https://maps.gstatic.com/mapfiles/place_api/icons/v1/png_71/hospital-71.png", "icon_background_color": "#F88181", "icon_mask_base_uri": "https://maps.gstatic.com/mapfiles/place_api/icons/v2/hospital-H_pinlet", "name": "Medical & surgical", "place_id": "ChIJO3PVWv_WnjkR8KGIWPxgh3o", "plus_code": {"compound_code": "HM7J+HP Sitapur, Uttar Pradesh, India", "global_code": "7MV2HM7J+HP"}, "rating": 3, "reference": "ChIJO3PVWv_WnjkR8KGIWPxgh3o", "scope": "GOOGLE", "types": ["hospital", "health", "point_of_interest", "establishment"], "user_ratings_total": 1, "vicinity": "548 b, vijay laxmi nagar, Sitapur"}, {"business_status": "OPERATIONAL", "geometry": {"location": {"lat": 27.5666938, "lng": 80.68936889999999}, "viewport": {"northeast": {"lat": 27.5680083302915, "lng": 80.6907744802915}, "southwest": {"lat": 27.5653103697085, "lng": 80.68807651970847}}}, "icon": "https://maps.gstatic.com/mapfiles/place_api/icons/v1/png_71/hospital-71.png", "icon_background_color": "#F88181", "icon_mask_base_uri": "https://maps.gstatic.com/mapfiles/place_api/icons/v2/hospital-H_pinlet", "name": "Police Hospital", "opening_hours": {"open_now": false}, "photos": [{"height": 720, "html_attributions": ["<a href=\"https://maps.google.com/maps/contrib/106585536832470709356\">Traveler Diary</a>"], "photo_reference": "Aap_uED76bM9e1zGFZo2sWHR-Ywlg73WyTe0zbsHyfc3GuxkUQuYq5oRF0LsntKXzQYw6-fp_VA7Z9YzxMnpf7IpcI3bkAbgjrUNbt6RJVj2PrdTe2Bg1d7OsUicmte_N7G__6u4QSW37rI-TRea4d0wisuqqi0Q33l1cfabSdEgOdRtmXWh", "width": 1280}], "place_id": "ChIJrwbJnBrXnjkRQi4fAycqNt0", "reference": "ChIJrwbJnBrXnjkRQi4fAycqNt0", "scope": "GOOGLE", "types": ["hospital", "health", "point_of_interest", "establishment"], "vicinity": "HM8Q+MPH, A.P.O Colony, Sitapur"}, {"business_status": "OPERATIONAL", "geometry": {"location": {"lat": 27.5666156, "lng": 80.689562}, "viewport": {"northeast": {"lat": 27.5679712302915, "lng": 80.6909165802915}, "southwest": {"lat": 27.5652732697085, "lng": 80.6882186197085}}}, "icon": "https://maps.gstatic.com/mapfiles/place_api/icons/v1/png_71/hospital-71.png", "icon_background_color": "#F88181", "icon_mask_base_uri": "https://maps.gstatic.com/mapfiles/place_api/icons/v2/hospital-H_pinlet", "name": "Police Line Hospital", "place_id": "ChIJOWQAQFjWnjkRW7SRUoJXjIE", "plus_code": {"compound_code": "HM8Q+JR Sitapur, Uttar Pradesh, India", "global_code": "7MV2HM8Q+JR"}, "reference": "ChIJOWQAQFjWnjkRW7SRUoJXjIE", "scope": "GOOGLE", "types": ["hospital", "health", "point_of_interest", "establishment"], "vicinity": "Unnamed Road, A.P.O Colony, Sitapur"}, {"business_status": "OPERATIONAL", "geometry": {"location": {"lat": 27.5666932, "lng": 80.68423039999999}, "viewport": {"northeast": {"lat": 27.5681258802915, "lng": 80.6855990302915}, "southwest": {"lat": 27.5654279197085, "lng": 80.68290106970849}}}, "icon": "https://maps.gstatic.com/mapfiles/place_api/icons/v1/png_71/hospital-71.png", "icon_background_color": "#F88181", "icon_mask_base_uri": "https://maps.gstatic.com/mapfiles/place_api/icons/v2/hospital-H_pinlet", "name": "Dr. Himanshu shukla clinic", "opening_hours": {"open_now": false}, "photos": [{"height": 3000, "html_attributions": ["<a href=\"https://maps.google.com/maps/contrib/113886624631968924507\">HAVE Knowledge</a>"], "photo_reference": "Aap_uECDE99NjVpGEfGf72ollHbFSk32BCwRUkefyz0M51Is2vPBtCidWbfSmm7gEOTOvF6zHpiFWJwsqHaoa5eKvkPQTzW-yEgUmOnkTBRzXeKZcEnq5ehsH2uWJX6-l3P1dig32Ompm__KfWf88iL4drgLxepRmM6mY3vkbYtGBF6OMBf2", "width": 4000}], "place_id": "ChIJo9DHQ1bWnjkRuRcNA-2iX0g", "rating": 4.6, "reference": "ChIJo9DHQ1bWnjkRuRcNA-2iX0g", "scope": "GOOGLE", "types": ["hospital", "health", "point_of_interest", "establishment"], "user_ratings_total": 9, "vicinity": "HM8M+MMH, Sitapur"}, {"business_status": "OPERATIONAL", "geometry": {"location": {"lat": 27.5610195, "lng": 80.68102619999999}, "viewport": {"northeast": {"lat": 27.5624083802915, "lng": 80.6824032302915}, "southwest": {"lat": 27.5597104197085, "lng": 80.67970526970849}}}, "icon": "https://maps.gstatic.com/mapfiles/place_api/icons/v1/png_71/hospital-71.png", "icon_background_color": "#F88181", "icon_mask_base_uri": "https://maps.gstatic.com/mapfiles/place_api/icons/v2/hospital-H_pinlet", "name": "Madhusoodan Dixit Ayurvedic Hospital", "opening_hours": {"open_now": false}, "place_id": "ChIJL18KvfLXnjkRZoiEbC8rWHw", "rating": 2, "reference": "ChIJL18KvfLXnjkRZoiEbC8rWHw", "scope": "GOOGLE", "types": ["hospital", "health", "point_of_interest", "establishment"], "user_ratings_total": 1, "vicinity": "HM6J+CC2, Sanjay Nagar, Sitapur"}, {"business_status": "OPERATIONAL", "geometry": {"location": {"lat": 27.5648181, "lng": 80.6810014}, "viewport": {"northeast": {"lat": 27.56618093029151, "lng": 80.68231298029151}, "southwest": {"lat": 27.5634829697085, "lng": 80.67961501970849}}}, "icon": "https://maps.gstatic.com/mapfiles/place_api/icons/v1/png_71/hospital-71.png", "icon_background_color": "#F88181", "icon_mask_base_uri": "https://maps.gstatic.com/mapfiles/place_api/icons/v2/hospital-H_pinlet", "name": "Saigal Hospital", "photos": [{"height": 1970, "html_attributions": ["<a href=\"https://maps.google.com/maps/contrib/105050041517814765649\">SHIVAM YADAV</a>"], "photo_reference": "Aap_uEDYXVuo5Vf3px79NQw22mNAlpVIisMd_St9ycSyTU9pFx3E98t9g3T1QKw_qL3Y_ks2tuv1zXkPXhr9KD_MbWUek1Rnb31N0DgtkzXQ8cWdlprDREySLOCSNyT4bp6KH952aRx3AlIp-CEEHBXCYIq_foAnCoVeeDBFtF5yBK0fkEe7", "width": 4160}], "place_id": "ChIJo9m7i1XWnjkR-jOdrBOGVUo", "plus_code": {"compound_code": "HM7J+WC Sitapur, Uttar Pradesh, India", "global_code": "7MV2HM7J+WC"}, "rating": 4.1, "reference": "ChIJo9m7i1XWnjkR-jOdrBOGVUo", "scope": "GOOGLE", "types": ["hospital", "health", "point_of_interest", "establishment"], "user_ratings_total": 19, "vicinity": "Lohar Bagh, Sitapur"}, {"business_status": "OPERATIONAL", "geometry": {"location": {"lat": 27.5643535, "lng": 80.6805724}, "viewport": {"northeast": {"lat": 27.56564693029151, "lng": 80.68190083029151}, "southwest": {"lat": 27.5629489697085, "lng": 80.6792028697085}}}, "icon": "https://maps.gstatic.com/mapfiles/place_api/icons/v1/png_71/hospital-71.png", "icon_background_color": "#F88181", "icon_mask_base_uri": "https://maps.gstatic.com/mapfiles/place_api/icons/v2/hospital-H_pinlet", "name": "RADHA RAMAN MEDICAL STORE", "opening_hours": {"open_now": true}, "photos": [{"height": 1536, "html_attributions": ["<a href=\"https://maps.google.com/maps/contrib/106622649312599545280\">RADHA RAMAN MEDICAL STORE</a>"], "photo_reference": "Aap_uEDlwiVWhJiatvj8BqCy1eiZL10y-htFl2z-lE3JpHyeF8LZGfQ9Ppnrn2L6kU4cieNiSltQgs3GTMWRy4lf9nqXuUVa4U80PUwWDiJjOCxCbxJ_n838yyk6LjzSIUK2eSfi13MeO70qY6br-uen-A_-jXkPzjgOXtUrhjpgDRM7SR0R", "width": 864}], "place_id": "ChIJbd7zko7XnjkRyv0xlLZ7FX0", "plus_code": {"compound_code": "HM7J+P6 Sitapur, Uttar Pradesh, India", "global_code": "7MV2HM7J+P6"}, "reference": "ChIJbd7zko7XnjkRyv0xlLZ7FX0", "scope": "GOOGLE", "types": ["hospital", "health", "point_of_interest", "establishment"], "vicinity": "7, Lohar Bagh, Vijay Laxmi Nagar, Sitapur"}, {"business_status": "OPERATIONAL", "geometry": {"location": {"lat": 27.56547549999999, "lng": 80.6812186}, "viewport": {"northeast": {"lat": 27.5668318302915, "lng": 80.68252228029151}, "southwest": {"lat": 27.5641338697085, "lng": 80.6798243197085}}}, "icon": "https://maps.gstatic.com/mapfiles/place_api/icons/v1/png_71/hospital-71.png", "icon_background_color": "#F88181", "icon_mask_base_uri": "https://maps.gstatic.com/mapfiles/place_api/icons/v2/hospital-H_pinlet", "name": "Dhavan daygnosteks", "photos": [{"height": 1920, "html_attributions": ["<a href=\"https://maps.google.com/maps/contrib/108358808598684159200\">Ankul Singh</a>"], "photo_reference": "Aap_uEApQ7W5yYwwvKXgtsgFlZsqHq8-1hXwMo__zx1pzIJBq1VugZDXm7y3Iz9WTFArI5Uzi57BzrYSEOO7_iWCuYuYyYzLgn_dEQAZvlVCdA_nZQHZNrperjCBjGbWa8jQHHU5hmAeR862opIPUNPEX1jSiPNilOSMrEpXbeQssaT8y6ji", "width": 1080}], "place_id": "ChIJBTDF-g3XnjkRTy1LJMOVs9Y", "plus_code": {"compound_code": "HM8J+5F Sitapur, Uttar Pradesh, India", "global_code": "7MV2HM8J+5F"}, "rating": 1, "reference": "ChIJBTDF-g3XnjkRTy1LJMOVs9Y", "scope": "GOOGLE", "types": ["hospital", "health", "point_of_interest", "establishment"], "user_ratings_total": 2, "vicinity": "83, Nigam Niwas, Lohar Bagh, Vijay Laxmi Nagar, Sitapur"}, {"business_status": "OPERATIONAL", "geometry": {"location": {"lat": 27.5661957, "lng": 80.68116739999999}, "viewport": {"northeast": {"lat": 27.5675385302915, "lng": 80.6825590802915}, "southwest": {"lat": 27.5648405697085, "lng": 80.67986111970849}}}, "icon": "https://maps.gstatic.com/mapfiles/place_api/icons/v1/png_71/hospital-71.png", "icon_background_color": "#F88181", "icon_mask_base_uri": "https://maps.gstatic.com/mapfiles/place_api/icons/v2/hospital-H_pinlet", "name": "\u092a\u0930\u0938\u0947\u0902\u0921\u0940 \u0905\u0938\u094d\u092a\u0924\u093e\u0932 \u0938\u0940\u0924\u093e\u092a\u0941\u0930", "place_id": "ChIJ8VUoyTXXnjkR0s5oIWwnMm4", "plus_code": {"compound_code": "HM8J+FF Sitapur, Uttar Pradesh, India", "global_code": "7MV2HM8J+FF"}, "reference": "ChIJ8VUoyTXXnjkR0s5oIWwnMm4", "scope": "GOOGLE", "types": ["hospital", "health", "point_of_interest", "establishment"], "vicinity": "Unnamed Road, Arya Nagar, Sitapur"}], "status": "OK"}