{"html_attributions": [], "results": [{"business_status": "OPERATIONAL", "geometry": {"location": {"lat": 27.675165, "lng": 80.728706}, "viewport": {"northeast": {"lat": 27.6764697302915, "lng": 80.73027833029151}, "southwest": {"lat": 27.6737717697085, "lng": 80.7275803697085}}}, "icon": "https://maps.gstatic.com/mapfiles/place_api/icons/v1/png_71/hospital-71.png", "icon_background_color": "#F88181", "icon_mask_base_uri": "https://maps.gstatic.com/mapfiles/place_api/icons/v2/hospital-H_pinlet", "name": "Dr.S K Verma", "opening_hours": {"open_now": true}, "photos": [{"height": 3120, "html_attributions": ["<a href=\"https://maps.google.com/maps/contrib/104836959822308980691\">sumit verma</a>"], "photo_reference": "Aap_uEBTmvRzTvY_ef0n6xEbLA15duy86x0a1fPCFgZkFU5SSx5H8EAj2vmrOs4GfU2ZS0Ip35YMii_QSrNvOZi5lKJDjksdZiZReEewwbVQ4L7A9KWoKKygcvntVFk38jaHLsqz1T0OXFBaLqPLktwgjmTPWnq3MmK7Hr2jGGZ3didBxJ4O", "width": 4160}], "place_id": "ChIJGeQukUsrnzkRVRWhWDTdzXc", "reference": "ChIJGeQukUsrnzkRVRWhWDTdzXc", "scope": "GOOGLE", "types": ["hospital", "health", "point_of_interest", "establishment"], "vicinity": "MPGH+3F8, Selumau"}, {"business_status": "OPERATIONAL", "geometry": {"location": {"lat": 27.6725, "lng": 80.7314}, "viewport": {"northeast": {"lat": 27.6738503302915, "lng": 80.73279693029151}, "southwest": {"lat": 27.6711523697085, "lng": 80.7300989697085}}}, "icon": "https://maps.gstatic.com/mapfiles/place_api/icons/v1/png_71/hospital-71.png", "icon_background_color": "#F88181", "icon_mask_base_uri": "https://maps.gstatic.com/mapfiles/place_api/icons/v2/hospital-H_pinlet", "name": "Shifa Clinic Motipuar", "opening_hours": {"open_now": false}, "photos": [{"height": 4128, "html_attributions": ["<a href=\"https://maps.google.com/maps/contrib/109117977067118736637\">mohit singh</a>"], "photo_reference": "Aap_uEDCGJ6APWPpAuYZzrhSMAXHJpjABBxRFIScrZjN4MrWY7OdLZ5FgfSue4bPIJrIzy0X0aweJIxvglMSGxtEMD_Sgt0gZcxblYT0cq8Rc3lw12GMyMEHP0gvnpxRk5MhN8KyJ4hUi9dG_1SRdSvd-h0LpRWmFAf6ElAOy9EEQPlOgmu8", "width": 2322}], "place_id": "ChIJ_3dHCtArnzkR77hB4ZShgWQ", "plus_code": {"compound_code": "MPCJ+XH Sitapur, Uttar Pradesh, India", "global_code": "7MV2MPCJ+XH"}, "rating": 2.3, "reference": "ChIJ_3dHCtArnzkR77hB4ZShgWQ", "scope": "GOOGLE", "types": ["hospital", "health", "point_of_interest", "establishment"], "user_ratings_total": 3, "vicinity": "State Highway 21, Sitapur"}, {"business_status": "OPERATIONAL", "geometry": {"location": {"lat": 27.6736339, "lng": 80.7363404}, "viewport": {"northeast": {"lat": 27.6750160802915, "lng": 80.7377043302915}, "southwest": {"lat": 27.6723181197085, "lng": 80.73500636970849}}}, "icon": "https://maps.gstatic.com/mapfiles/place_api/icons/v1/png_71/hospital-71.png", "icon_background_color": "#F88181", "icon_mask_base_uri": "https://maps.gstatic.com/mapfiles/place_api/icons/v2/hospital-H_pinlet", "name": "Atif Medical Store MOTIPUR", "photos": [{"height": 1920, "html_attributions": ["<a href=\"https://maps.google.com/maps/contrib/115900394998227155959\">Tayyab Ansari</a>"], "photo_reference": "Aap_uEA4HIMhbWstFgNUZvn6fqesWmoxXhjAdTxmUaW29etENOfIuAGnZKhrdAvXGRHkevtHdjja2aCFQ1kGBif-83fEQSN83BbxMPZyIGCMj5ubama8343yUFm1FP0WxBAGqjQeybnb3nHkxOluXnhk4wFukfC2Vg4ecg--EjGxPSgozXf3", "width": 1080}], "place_id": "ChIJ86bijcUrnzkRnSNRr3wk1v0", "rating": 2.3, "reference": "ChIJ86bijcUrnzkRnSNRr3wk1v0", "scope": "GOOGLE", "types": ["hospital", "health", "point_of_interest", "establishment"], "user_ratings_total": 3, "vicinity": "MPFP+FG4, Selumau"}, {"business_status": "OPERATIONAL", "geometry": {"location": {"lat": 27.67631, "lng": 80.7391943}, "viewport": {"northeast": {"lat": 27.6776726302915, "lng": 80.7404548802915}, "southwest": {"lat": 27.6749746697085, "lng": 80.73775691970849}}}, "icon": "https://maps.gstatic.com/mapfiles/place_api/icons/v1/png_71/hospital-71.png", "icon_background_color": "#F88181", "icon_mask_base_uri": "https://maps.gstatic.com/mapfiles/place_api/icons/v2/hospital-H_pinlet", "name": "Shifa Clinic Motipur Sitapur", "place_id": "ChIJ25fAi8YrnzkRgwSOn0OA1Z4", "plus_code": {"compound_code": "MPGQ+GM Selumau, Uttar Pradesh, India", "global_code": "7MV2MPGQ+GM"}, "reference": "ChIJ25fAi8YrnzkRgwSOn0OA1Z4", "scope": "GOOGLE", "types": ["hospital", "health", "point_of_interest", "establishment"], "vicinity": "Sitapur Road, Motipur"}], "status": "OK"}