{"html_attributions": [], "results": [{"business_status": "OPERATIONAL", "geometry": {"location": {"lat": 27.1215574, "lng": 80.74330069999999}, "viewport": {"northeast": {"lat": 27.1229210302915, "lng": 80.7446632802915}, "southwest": {"lat": 27.1202230697085, "lng": 80.74196531970848}}}, "icon": "https://maps.gstatic.com/mapfiles/place_api/icons/v1/png_71/hospital-71.png", "icon_background_color": "#F88181", "icon_mask_base_uri": "https://maps.gstatic.com/mapfiles/place_api/icons/v2/hospital-H_pinlet", "name": "B.D HEALTH CARE CENTER", "opening_hours": {"open_now": true}, "photos": [{"height": 1872, "html_attributions": ["<a href=\"https://maps.google.com/maps/contrib/111400970034087400839\">Sanjeet Kumar</a>"], "photo_reference": "Aap_uEBHS4evPxEWWc_yq8uBD70z6jlDaaS3UCWz7BdzFVM1eOgow0Fw83rr8cwE3IhNBGctmz6qeYrpOgFLVCNbSDaevIma4ocj60UcQ1D1yDd9MTLSGhaqXagjEWOorfNO_K8f5Fql6sZ73MVmk1zOg8ppkbvlLP0JQpfz7xrRk9oxAWYx", "width": 4160}], "place_id": "ChIJ0b_9w2yznjkRNH_Xp_2wDdk", "rating": 5, "reference": "ChIJ0b_9w2yznjkRNH_Xp_2wDdk", "scope": "GOOGLE", "types": ["hospital", "health", "point_of_interest", "establishment"], "user_ratings_total": 1, "vicinity": "4PCV+J8F, Newada Bijay"}, {"business_status": "OPERATIONAL", "geometry": {"location": {"lat": 27.1219751, "lng": 80.7424448}, "viewport": {"northeast": {"lat": 27.1233223302915, "lng": 80.7438160302915}, "southwest": {"lat": 27.12062436970849, "lng": 80.74111806970849}}}, "icon": "https://maps.gstatic.com/mapfiles/place_api/icons/v1/png_71/hospital-71.png", "icon_background_color": "#F88181", "icon_mask_base_uri": "https://maps.gstatic.com/mapfiles/place_api/icons/v2/hospital-H_pinlet", "name": "Roy Nursing HomeNewada", "place_id": "ChIJPee172GznjkRRdZUVuUrNLE", "reference": "ChIJPee172GznjkRRdZUVuUrNLE", "scope": "GOOGLE", "types": ["hospital", "health", "point_of_interest", "establishment"], "vicinity": "4PCR+QXW, Sanda Dakhlor"}, {"business_status": "OPERATIONAL", "geometry": {"location": {"lat": 27.1204699, "lng": 80.7427438}, "viewport": {"northeast": {"lat": 27.1218196302915, "lng": 80.7440974302915}, "southwest": {"lat": 27.11912166970849, "lng": 80.74139946970848}}}, "icon": "https://maps.gstatic.com/mapfiles/place_api/icons/v1/png_71/hospital-71.png", "icon_background_color": "#F88181", "icon_mask_base_uri": "https://maps.gstatic.com/mapfiles/place_api/icons/v2/hospital-H_pinlet", "name": "Amar Pali Clinic", "opening_hours": {"open_now": true}, "photos": [{"height": 2448, "html_attributions": ["<a href=\"https://maps.google.com/maps/contrib/118173037589142830851\">nagendra yadav</a>"], "photo_reference": "Aap_uEDL1zTKsJl92_kMHZHn01rgxw_ZMu15k42dB006CxYENpT9KUve7Za12SBM8zdBbBq3Jd1s3iMUhbzNjiX0ojelhjjziQzU_J4FUc3zr_EgUlSIjFOkM_ywJyGWG7_Zm_QMVOiII0zT614UvIenlU6b949yI9caO9Gfe11i_Uayd_Ce", "width": 3264}], "place_id": "ChIJnZkds8CznjkRJ8_bnhHSMdg", "plus_code": {"compound_code": "4PCV+53 Sanda Dakhlor, Uttar Pradesh, India", "global_code": "7MV24PCV+53"}, "rating": 3, "reference": "ChIJnZkds8CznjkRJ8_bnhHSMdg", "scope": "GOOGLE", "types": ["hospital", "health", "point_of_interest", "establishment"], "user_ratings_total": 2, "vicinity": "MDR 74C, Sanda Dakhlor"}, {"business_status": "OPERATIONAL", "geometry": {"location": {"lat": 27.12191099999999, "lng": 80.7419797}, "viewport": {"northeast": {"lat": 27.1232078802915, "lng": 80.7432888302915}, "southwest": {"lat": 27.12050991970849, "lng": 80.74059086970848}}}, "icon": "https://maps.gstatic.com/mapfiles/place_api/icons/v1/png_71/hospital-71.png", "icon_background_color": "#F88181", "icon_mask_base_uri": "https://maps.gstatic.com/mapfiles/place_api/icons/v2/hospital-H_pinlet", "name": "C. L. Nursing Home", "opening_hours": {"open_now": true}, "photos": [{"height": 1920, "html_attributions": ["<a href=\"https://maps.google.com/maps/contrib/100446536740498510632\">Rinku Rajput</a>"], "photo_reference": "Aap_uEC0_HNOOzIR22natvzc_cDKtchDCS2jyioxA7kZW2gxocVBvPwX85UcWSqCpC-3_xmcUKlsQbzOSrvtsm2OLT7FQ4zs3M3_7xSaaYhk_HwLgbSyUUmnwYjui-UHvLwbkrejtre2UR6C8eYPXhCTALo6vvxyr8qSvd2Me1k7qpF3AH3S", "width": 1080}], "place_id": "ChIJqYBf0myznjkR5G51VKWaRqI", "plus_code": {"compound_code": "4PCR+QQ Sanda Dakhlor, Uttar Pradesh, India", "global_code": "7MV24PCR+QQ"}, "rating": 5, "reference": "ChIJqYBf0myznjkR5G51VKWaRqI", "scope": "GOOGLE", "types": ["hospital", "health", "point_of_interest", "establishment"], "user_ratings_total": 1, "vicinity": "MDR 74C, Sanda Dakhlor"}, {"business_status": "OPERATIONAL", "geometry": {"location": {"lat": 27.1193828, "lng": 80.7429229}, "viewport": {"northeast": {"lat": 27.1207369302915, "lng": 80.7443078302915}, "southwest": {"lat": 27.1180389697085, "lng": 80.7416098697085}}}, "icon": "https://maps.gstatic.com/mapfiles/place_api/icons/v1/png_71/hospital-71.png", "icon_background_color": "#F88181", "icon_mask_base_uri": "https://maps.gstatic.com/mapfiles/place_api/icons/v2/hospital-H_pinlet", "name": "Maa Clinic", "opening_hours": {"open_now": true}, "photos": [{"height": 1280, "html_attributions": ["<a href=\"https://maps.google.com/maps/contrib/108349711548857195267\">sachin saxena</a>"], "photo_reference": "Aap_uEAmyOcRxnKzmqSMSiMnLHZx2Hxan6l-YgDiPT3tnK0VtWLc6mmOkC8Ph4gvXnZER6zu0dKg8Rta1VOv4ubQ3iJ9HTBkxDiEHNtzUloaF-sAKcfxTxy-xcpeCclfplrfAtZ96ObkNGL3wliPBLLe-oIdiiqMdj13siXRgtDVZtVY2toq", "width": 720}], "place_id": "ChIJbU4zW8eznjkROGGSbvMNeWI", "plus_code": {"compound_code": "4P9V+Q5 Sanda Dakhlor, Uttar Pradesh, India", "global_code": "7MV24P9V+Q5"}, "rating": 5, "reference": "ChIJbU4zW8eznjkROGGSbvMNeWI", "scope": "GOOGLE", "types": ["hospital", "health", "point_of_interest", "establishment"], "user_ratings_total": 1, "vicinity": "clinic tiraha, maa clinic, newada, Hardoi, near, maa, Newada"}, {"business_status": "OPERATIONAL", "geometry": {"location": {"lat": 27.1156202, "lng": 80.7525476}, "viewport": {"northeast": {"lat": 27.1169356802915, "lng": 80.7538558802915}, "southwest": {"lat": 27.11423771970849, "lng": 80.75115791970849}}}, "icon": "https://maps.gstatic.com/mapfiles/place_api/icons/v1/png_71/hospital-71.png", "icon_background_color": "#F88181", "icon_mask_base_uri": "https://maps.gstatic.com/mapfiles/place_api/icons/v2/hospital-H_pinlet", "name": "Shiv Madical Store & Clinic", "place_id": "ChIJ97XU2qWznjkRVlN7lzk-CD8", "reference": "ChIJ97XU2qWznjkRVlN7lzk-CD8", "scope": "GOOGLE", "types": ["hospital", "health", "point_of_interest", "establishment"], "vicinity": "4Q83+62V, Usrha"}], "status": "OK"}