{"html_attributions": [], "results": [{"business_status": "OPERATIONAL", "geometry": {"location": {"lat": 26.9273177, "lng": 80.7749639}, "viewport": {"northeast": {"lat": 26.9291447802915, "lng": 80.7767474302915}, "southwest": {"lat": 26.9264468197085, "lng": 80.77404946970849}}}, "icon": "https://maps.gstatic.com/mapfiles/place_api/icons/v1/png_71/hospital-71.png", "icon_background_color": "#F88181", "icon_mask_base_uri": "https://maps.gstatic.com/mapfiles/place_api/icons/v2/hospital-H_pinlet", "name": "Vijay", "opening_hours": {"open_now": false}, "place_id": "ChIJLRlr8KCrnjkRp7Nl3L4ThWQ", "reference": "ChIJLRlr8KCrnjkRp7Nl3L4ThWQ", "scope": "GOOGLE", "types": ["hospital", "health", "point_of_interest", "establishment"], "vicinity": "WQGF+WXG, kasmandi Kalan, Malihabad"}, {"business_status": "OPERATIONAL", "geometry": {"location": {"lat": 26.9319658, "lng": 80.7743387}, "viewport": {"northeast": {"lat": 26.9336165802915, "lng": 80.7761538302915}, "southwest": {"lat": 26.93091861970849, "lng": 80.77345586970849}}}, "icon": "https://maps.gstatic.com/mapfiles/place_api/icons/v1/png_71/hospital-71.png", "icon_background_color": "#F88181", "icon_mask_base_uri": "https://maps.gstatic.com/mapfiles/place_api/icons/v2/hospital-H_pinlet", "name": "Anand hospital", "opening_hours": {"open_now": false}, "photos": [{"height": 4624, "html_attributions": ["<a href=\"https://maps.google.com/maps/contrib/102963648918108411244\">Anshu Anand</a>"], "photo_reference": "Aap_uEBKMifJWROe-pvlvO48NZR6TIlQS8X7ScSLGYfSsadG8CSDIRLSqospIkJaOSCnASyJ5QSILu2Ve-y7Pgl1aHKyUQi8uE_zgTaHSybUZE1bxc0ZvJHFxKI669hM597cio16Blazo2UhKi1sRsv030g9Lj4V3cFVGgw0d8iMXK-0yzEO", "width": 2136}], "place_id": "ChIJf1NvneernjkR-TJWSGVLBJc", "plus_code": {"compound_code": "WQJF+QP Kithai Para, Uttar Pradesh, India", "global_code": "7MR2WQJF+QP"}, "rating": 5, "reference": "ChIJf1NvneernjkR-TJWSGVLBJc", "scope": "GOOGLE", "types": ["hospital", "health", "point_of_interest", "establishment"], "user_ratings_total": 2, "vicinity": "Badi Masjid, Nabipanah Road, Badi Kasmandi, Kasmandi Kalan"}, {"business_status": "OPERATIONAL", "geometry": {"location": {"lat": 26.9329747, "lng": 80.7740932}, "viewport": {"northeast": {"lat": 26.9343337302915, "lng": 80.7754342302915}, "southwest": {"lat": 26.9316357697085, "lng": 80.77273626970849}}}, "icon": "https://maps.gstatic.com/mapfiles/place_api/icons/v1/png_71/hospital-71.png", "icon_background_color": "#F88181", "icon_mask_base_uri": "https://maps.gstatic.com/mapfiles/place_api/icons/v2/hospital-H_pinlet", "name": "Government Homeopathic Hospital", "opening_hours": {"open_now": false}, "place_id": "ChIJi-ZhVQ6rnjkROCJEHuMDWew", "reference": "ChIJi-ZhVQ6rnjkROCJEHuMDWew", "scope": "GOOGLE", "types": ["hospital", "health", "point_of_interest", "establishment"], "vicinity": "WQMF+5JP, Kithai Para"}], "status": "OK"}