{"html_attributions": [], "results": [{"business_status": "OPERATIONAL", "geometry": {"location": {"lat": 26.9788067, "lng": 80.2632433}, "viewport": {"northeast": {"lat": 26.9800271802915, "lng": 80.26445663029149}, "southwest": {"lat": 26.9773292197085, "lng": 80.26175866970848}}}, "icon": "https://maps.gstatic.com/mapfiles/place_api/icons/v1/png_71/school-71.png", "icon_background_color": "#7B9EB0", "icon_mask_base_uri": "https://maps.gstatic.com/mapfiles/place_api/icons/v2/school_pinlet", "name": "Ucch Prathmik Vidyalaya Maholia", "place_id": "ChIJkUq4oyeFnjkRtDNhGIZQsxU", "rating": 5, "reference": "ChIJkUq4oyeFnjkRtDNhGIZQsxU", "scope": "GOOGLE", "types": ["school", "point_of_interest", "establishment"], "user_ratings_total": 1, "vicinity": "X7H7+G7H, Maholia"}, {"business_status": "OPERATIONAL", "geometry": {"location": {"lat": 26.9835349, "lng": 80.26157359999999}, "viewport": {"northeast": {"lat": 26.9848511302915, "lng": 80.26268438029152}, "southwest": {"lat": 26.9821531697085, "lng": 80.25998641970851}}}, "icon": "https://maps.gstatic.com/mapfiles/place_api/icons/v1/png_71/school-71.png", "icon_background_color": "#7B9EB0", "icon_mask_base_uri": "https://maps.gstatic.com/mapfiles/place_api/icons/v2/school_pinlet", "name": "Lalta Prasad Inter Collage Maholiya Unnao", "place_id": "ChIJZURN7MuFnjkRLN7iBdtTISM", "rating": 5, "reference": "ChIJZURN7MuFnjkRLN7iBdtTISM", "scope": "GOOGLE", "types": ["school", "point_of_interest", "establishment"], "user_ratings_total": 1, "vicinity": "X7M6+CJ8, Maholia"}, {"business_status": "OPERATIONAL", "geometry": {"location": {"lat": 26.978651, "lng": 80.26228909999999}, "viewport": {"northeast": {"lat": 26.9800962302915, "lng": 80.26371378029151}, "southwest": {"lat": 26.9773982697085, "lng": 80.26101581970849}}}, "icon": "https://maps.gstatic.com/mapfiles/place_api/icons/v1/png_71/school-71.png", "icon_background_color": "#7B9EB0", "icon_mask_base_uri": "https://maps.gstatic.com/mapfiles/place_api/icons/v2/school_pinlet", "name": "Prathmik Vidyalaya Maholia", "place_id": "ChIJ5-78DCeFnjkRh8FoJTj-BUs", "rating": 5, "reference": "ChIJ5-78DCeFnjkRh8FoJTj-BUs", "scope": "GOOGLE", "types": ["school", "point_of_interest", "establishment"], "user_ratings_total": 1, "vicinity": "X7H6+FW7, Maholia"}, {"business_status": "OPERATIONAL", "geometry": {"location": {"lat": 26.9716346, "lng": 80.2607584}, "viewport": {"northeast": {"lat": 26.9731004302915, "lng": 80.26220458029151}, "southwest": {"lat": 26.9704024697085, "lng": 80.2595066197085}}}, "icon": "https://maps.gstatic.com/mapfiles/place_api/icons/v1/png_71/school-71.png", "icon_background_color": "#7B9EB0", "icon_mask_base_uri": "https://maps.gstatic.com/mapfiles/place_api/icons/v2/school_pinlet", "name": "Primary School", "place_id": "ChIJo22SWtmEnjkRn1MMQxjnVW0", "rating": 3, "reference": "ChIJo22SWtmEnjkRn1MMQxjnVW0", "scope": "GOOGLE", "types": ["primary_school", "school", "point_of_interest", "establishment"], "user_ratings_total": 1, "vicinity": "X7C6+M82, Jahangeerabad"}], "status": "OK"}