{"html_attributions": [], "results": [{"business_status": "OPERATIONAL", "geometry": {"location": {"lat": 27.2247679, "lng": 80.2555996}, "viewport": {"northeast": {"lat": 27.2263024802915, "lng": 80.2571353802915}, "southwest": {"lat": 27.2236045197085, "lng": 80.2544374197085}}}, "icon": "https://maps.gstatic.com/mapfiles/place_api/icons/v1/png_71/school-71.png", "icon_background_color": "#7B9EB0", "icon_mask_base_uri": "https://maps.gstatic.com/mapfiles/place_api/icons/v2/school_pinlet", "name": "Archisha International School", "opening_hours": {"open_now": false}, "place_id": "ChIJb-CWjbjynjkRZM8qxgegMLI", "reference": "ChIJb-CWjbjynjkRZM8qxgegMLI", "scope": "GOOGLE", "types": ["school", "point_of_interest", "establishment"], "vicinity": "67F4+W65, Khajur Mai"}, {"business_status": "OPERATIONAL", "geometry": {"location": {"lat": 27.22531, "lng": 80.25494499999999}, "viewport": {"northeast": {"lat": 27.2268324302915, "lng": 80.2564407302915}, "southwest": {"lat": 27.2241344697085, "lng": 80.2537427697085}}}, "icon": "https://maps.gstatic.com/mapfiles/place_api/icons/v1/png_71/school-71.png", "icon_background_color": "#7B9EB0", "icon_mask_base_uri": "https://maps.gstatic.com/mapfiles/place_api/icons/v2/school_pinlet", "name": "Archisha International School", "opening_hours": {"open_now": true}, "photos": [{"height": 672, "html_attributions": ["<a href=\"https://maps.google.com/maps/contrib/116300084522647647000\">Archisha International School</a>"], "photo_reference": "Aap_uEDYswECfIYVnzpw34_F6db3MPs0T_0T1IA07tdQksXwnXMbAKu3RGE2iW954HK0nT-HKrlsx7nj3Gy5LlaCqMYqAp5JbN7kQwygb9b-3lcSgzrfRMxEzRwFCxmaLLKxoxqEnJpJA0v_paE1trZxUqwOI8unrBi9V9QBt1fLg79Fg8AT", "width": 1200}], "place_id": "ChIJZ4dhmrjynjkRCzPnvdNWunA", "plus_code": {"compound_code": "67G3+4X Baghauli, Uttar Pradesh, India", "global_code": "7MV267G3+4X"}, "rating": 4.5, "reference": "ChIJZ4dhmrjynjkRCzPnvdNWunA", "scope": "GOOGLE", "types": ["school", "point_of_interest", "establishment"], "user_ratings_total": 30, "vicinity": "Lucknow- Hardoi Road, HARDOI, Baghauli"}, {"business_status": "OPERATIONAL", "geometry": {"location": {"lat": 27.213598, "lng": 80.2650982}, "viewport": {"northeast": {"lat": 27.2149311302915, "lng": 80.2664358302915}, "southwest": {"lat": 27.2122331697085, "lng": 80.26373786970849}}}, "icon": "https://maps.gstatic.com/mapfiles/place_api/icons/v1/png_71/school-71.png", "icon_background_color": "#7B9EB0", "icon_mask_base_uri": "https://maps.gstatic.com/mapfiles/place_api/icons/v2/school_pinlet", "name": "Purv Madhyamik Vidyalaya", "opening_hours": {"open_now": false}, "place_id": "ChIJZeeie7LynjkRDfBqWx7p5i8", "plus_code": {"compound_code": "6778+C2 Rao Bahadur, Uttar Pradesh, India", "global_code": "7MV26778+C2"}, "reference": "ChIJZeeie7LynjkRDfBqWx7p5i8", "scope": "GOOGLE", "types": ["school", "point_of_interest", "establishment"], "vicinity": "Baghauli, Hardoi, SH-25, Lucknow Road, Hardoi, Hardoi"}, {"business_status": "OPERATIONAL", "geometry": {"location": {"lat": 27.2134, "lng": 80.2653}, "viewport": {"northeast": {"lat": 27.2146603802915, "lng": 80.2666597802915}, "southwest": {"lat": 27.2119624197085, "lng": 80.26396181970848}}}, "icon": "https://maps.gstatic.com/mapfiles/place_api/icons/v1/png_71/school-71.png", "icon_background_color": "#7B9EB0", "icon_mask_base_uri": "https://maps.gstatic.com/mapfiles/place_api/icons/v2/school_pinlet", "name": "Prathmik Vidyalaya", "opening_hours": {"open_now": false}, "photos": [{"height": 1840, "html_attributions": ["<a href=\"https://maps.google.com/maps/contrib/102035962655162922314\">Satendra220780 Verma</a>"], "photo_reference": "Aap_uEBWhhOKcPXTntoMJogfVBAf3KS8OkyCPzcnvjnKy40rkAVWQjAfhWFLOhRpr1MykpJB6CxIkZC9iaexvGJOEB3i8gIDNTgAb5lca7vtseFz7fn7wEi3IMSRrfO1d-CU8-WVxzPTH5rlONiKjrgnvfbkVuuW_2A5MLHSN__b6wyN1IYj", "width": 4000}], "place_id": "ChIJr6yWfrLynjkRhzYoVdugCXE", "plus_code": {"compound_code": "6778+94 Rao Bahadur, Uttar Pradesh, India", "global_code": "7MV26778+94"}, "rating": 5, "reference": "ChIJr6yWfrLynjkRhzYoVdugCXE", "scope": "GOOGLE", "types": ["school", "point_of_interest", "establishment"], "user_ratings_total": 1, "vicinity": "Baghauli, Hardoi, SH-25, Lucknow Road, Hardoi, Hardoi"}, {"business_status": "OPERATIONAL", "geometry": {"location": {"lat": 27.2178055, "lng": 80.2773437}, "viewport": {"northeast": {"lat": 27.2191385302915, "lng": 80.2787073302915}, "southwest": {"lat": 27.2164405697085, "lng": 80.27600936970849}}}, "icon": "https://maps.gstatic.com/mapfiles/place_api/icons/v1/png_71/school-71.png", "icon_background_color": "#7B9EB0", "icon_mask_base_uri": "https://maps.gstatic.com/mapfiles/place_api/icons/v2/school_pinlet", "name": "\u0906\u0930\u094d\u092f \u0926\u0947\u0938\u0940 \u0917\u094c\u0918\u0943\u0924", "opening_hours": {"open_now": true}, "place_id": "ChIJ_bOKGlbtnjkRAFNTl0Nzk00", "plus_code": {"compound_code": "679G+4W Rao Bahadur, Uttar Pradesh, India", "global_code": "7MV2679G+4W"}, "rating": 2, "reference": "ChIJ_bOKGlbtnjkRAFNTl0Nzk00", "scope": "GOOGLE", "types": ["school", "point_of_interest", "establishment"], "user_ratings_total": 1, "vicinity": "Aadarsh Saraswati Gyan mandir, Shikarpur"}, {"business_status": "OPERATIONAL", "geometry": {"location": {"lat": 27.2181212, "lng": 80.256407}, "viewport": {"northeast": {"lat": 27.2199056302915, "lng": 80.25806618029151}, "southwest": {"lat": 27.21720766970849, "lng": 80.25536821970849}}}, "icon": "https://maps.gstatic.com/mapfiles/place_api/icons/v1/png_71/school-71.png", "icon_background_color": "#7B9EB0", "icon_mask_base_uri": "https://maps.gstatic.com/mapfiles/place_api/icons/v2/school_pinlet", "name": "\u0930\u093e\u092e\u0926\u092f\u093e\u0932 \u0938\u094d\u092e\u093e\u0930\u0915 \u0921\u093f\u0917\u094d\u0930\u0940 \u0915\u0949\u0932\u0947\u091c", "place_id": "ChIJ69clz3bznjkR8quwfxZQ7GU", "reference": "ChIJ69clz3bznjkR8quwfxZQ7GU", "scope": "GOOGLE", "types": ["school", "point_of_interest", "establishment"], "vicinity": "6794+6HV, Baghauli"}, {"business_status": "OPERATIONAL", "geometry": {"location": {"lat": 27.2117079, "lng": 80.2631368}, "viewport": {"northeast": {"lat": 27.2131866802915, "lng": 80.2644532802915}, "southwest": {"lat": 27.2104887197085, "lng": 80.2617553197085}}}, "icon": "https://maps.gstatic.com/mapfiles/place_api/icons/v1/png_71/school-71.png", "icon_background_color": "#7B9EB0", "icon_mask_base_uri": "https://maps.gstatic.com/mapfiles/place_api/icons/v2/school_pinlet", "name": "Maa Yasoda Public Inter College Baghuli Chauraha Hardoi", "place_id": "ChIJ46vqKIzznjkR5E0XMnyalw4", "rating": 4, "reference": "ChIJ46vqKIzznjkR5E0XMnyalw4", "scope": "GOOGLE", "types": ["school", "point_of_interest", "establishment"], "user_ratings_total": 2, "vicinity": "6767+M7J, Lodhi"}, {"business_status": "OPERATIONAL", "geometry": {"location": {"lat": 27.2097733, "lng": 80.26804609999999}, "viewport": {"northeast": {"lat": 27.2111486802915, "lng": 80.2694240802915}, "southwest": {"lat": 27.20845071970849, "lng": 80.2667261197085}}}, "icon": "https://maps.gstatic.com/mapfiles/place_api/icons/v1/png_71/school-71.png", "icon_background_color": "#7B9EB0", "icon_mask_base_uri": "https://maps.gstatic.com/mapfiles/place_api/icons/v2/school_pinlet", "name": "Bhaktesh rajput", "place_id": "ChIJTxOPWE2NnjkRqdtLyYopWBw", "plus_code": {"compound_code": "6759+W6 Rao Bahadur, Uttar Pradesh, India", "global_code": "7MV26759+W6"}, "reference": "ChIJTxOPWE2NnjkRqdtLyYopWBw", "scope": "GOOGLE", "types": ["school", "point_of_interest", "establishment"], "vicinity": "Chehka road nagla lodhi sahawar"}], "status": "OK"}