{"html_attributions": [], "results": [{"business_status": "OPERATIONAL", "geometry": {"location": {"lat": 27.7400223, "lng": 80.2562428}, "viewport": {"northeast": {"lat": 27.7412614802915, "lng": 80.25754558029149}, "southwest": {"lat": 27.7385635197085, "lng": 80.25484761970849}}}, "icon": "https://maps.gstatic.com/mapfiles/place_api/icons/v1/png_71/school-71.png", "icon_background_color": "#7B9EB0", "icon_mask_base_uri": "https://maps.gstatic.com/mapfiles/place_api/icons/v2/school_pinlet", "name": "Sonpur", "place_id": "ChIJTSVL66MFnzkRd6n66bYZ2hs", "plus_code": {"compound_code": "P7R4+2F Deomalpur, Uttar Pradesh, India", "global_code": "7MV2P7R4+2F"}, "reference": "ChIJTSVL66MFnzkRd6n66bYZ2hs", "scope": "GOOGLE", "types": ["school", "point_of_interest", "establishment"], "vicinity": "National Highway 30, Deomalpur"}, {"business_status": "OPERATIONAL", "geometry": {"location": {"lat": 27.74197539999999, "lng": 80.2786047}, "viewport": {"northeast": {"lat": 27.7430762802915, "lng": 80.27999913029151}, "southwest": {"lat": 27.74037831970849, "lng": 80.27730116970851}}}, "icon": "https://maps.gstatic.com/mapfiles/place_api/icons/v1/png_71/school-71.png", "icon_background_color": "#7B9EB0", "icon_mask_base_uri": "https://maps.gstatic.com/mapfiles/place_api/icons/v2/school_pinlet", "name": "Babe Ke School", "photos": [{"height": 429, "html_attributions": ["<a href=\"https://maps.google.com/maps/contrib/102630635168594076526\">ateet Singh thakur</a>"], "photo_reference": "Aap_uEDmeK4hPJAGkFjkLmsnWyVqzoMTisWotxhRo0I5O0zIpEciyvLM_uqk2XmykdMAKTDMra9qQlPFDA1LjcNuy1H_WjK6084y8fBwweCprHJuZ_Vs66eEGmek_1Ss9bjB_EBhimKDu67L6xTsb3koPipXmoEHqVDq8VBCDxseE2-XU_OF", "width": 714}], "place_id": "ChIJx1_FE8sanzkRwrMktjs3rB8", "rating": 3.4, "reference": "ChIJx1_FE8sanzkRwrMktjs3rB8", "scope": "GOOGLE", "types": ["school", "point_of_interest", "establishment"], "user_ratings_total": 17, "vicinity": "P7RH+QCX, Chapartala"}, {"business_status": "OPERATIONAL", "geometry": {"location": {"lat": 27.7421131, "lng": 80.279648}, "viewport": {"northeast": {"lat": 27.7432198802915, "lng": 80.28104138029151}, "southwest": {"lat": 27.7405219197085, "lng": 80.27834341970849}}}, "icon": "https://maps.gstatic.com/mapfiles/place_api/icons/v1/png_71/school-71.png", "icon_background_color": "#7B9EB0", "icon_mask_base_uri": "https://maps.gstatic.com/mapfiles/place_api/icons/v2/school_pinlet", "name": "Babe Ke Inter College", "photos": [{"height": 2000, "html_attributions": ["<a href=\"https://maps.google.com/maps/contrib/108484101026386281512\">Shivam Dixit</a>"], "photo_reference": "Aap_uEAW2uJzd4qytsC9C8Q6EjSDaVgZQ0fZ0AcijmMjdnqJYfPdhIuqdzySjWD4Aemuhzq9GSRQ9irbbivhgFvu9_WcYYE88_OJ-nSS5qcvVIwaFv4koXrEK9Glf5r8GHZMepnZY9HOGHqoKjDi85LVKTinhQxVA-k_26xYrkslbtgeFR11", "width": 1500}], "place_id": "ChIJc5Bf7tobnzkR1b4ChjlaXl8", "rating": 4, "reference": "ChIJc5Bf7tobnzkR1b4ChjlaXl8", "scope": "GOOGLE", "types": ["school", "point_of_interest", "establishment"], "user_ratings_total": 4, "vicinity": "P7RH+RVR, Chapartala"}, {"business_status": "OPERATIONAL", "geometry": {"location": {"lat": 27.7420317, "lng": 80.2800067}, "viewport": {"northeast": {"lat": 27.74320318029151, "lng": 80.28138818029151}, "southwest": {"lat": 27.7405052197085, "lng": 80.2786902197085}}}, "icon": "https://maps.gstatic.com/mapfiles/place_api/icons/v1/png_71/school-71.png", "icon_background_color": "#7B9EB0", "icon_mask_base_uri": "https://maps.gstatic.com/mapfiles/place_api/icons/v2/school_pinlet", "name": "\u092c\u093e\u0902\u092c\u0947 \u0915\u0947 \u0938\u094d\u0915\u0942\u0932", "photos": [{"height": 1920, "html_attributions": ["<a href=\"https://maps.google.com/maps/contrib/114121697206980986606\">Paritama Singh</a>"], "photo_reference": "Aap_uEC0togr45Fl5-0QKSpUEjl2yIxzRC7pfTcOIOvo2xvSnIWqn1YNFPwiOKnGFoGQN_3BZSbAkU3yMm2fYK48Fr7PCJPKdqHF0SGwIiRXsQ7f23-VBWXVK7lEEOkOYGACVGxYdUVw2xlFK9xZUKF_ABRbn1fpIv8mkJA9EyLsi8qTf5SC", "width": 1080}], "place_id": "ChIJmaLsJUkbnzkRGDEl9Te_Mfw", "plus_code": {"compound_code": "P7RJ+R2 Chapartala, Uttar Pradesh, India", "global_code": "7MV2P7RJ+R2"}, "reference": "ChIJmaLsJUkbnzkRGDEl9Te_Mfw", "scope": "GOOGLE", "types": ["school", "point_of_interest", "establishment"], "vicinity": "Lucknow - Shahjahanpur Road, Chapartala"}], "status": "OK"}