{"html_attributions": [], "results": [{"business_status": "OPERATIONAL", "geometry": {"location": {"lat": 27.241775, "lng": 80.3100043}, "viewport": {"northeast": {"lat": 27.2431146802915, "lng": 80.3113424302915}, "southwest": {"lat": 27.2404167197085, "lng": 80.30864446970848}}}, "icon": "https://maps.gstatic.com/mapfiles/place_api/icons/v1/png_71/school-71.png", "icon_background_color": "#7B9EB0", "icon_mask_base_uri": "https://maps.gstatic.com/mapfiles/place_api/icons/v2/school_pinlet", "name": "Gopar baghauli hardoi", "opening_hours": {"open_now": false}, "photos": [{"height": 3264, "html_attributions": ["<a href=\"https://maps.google.com/maps/contrib/113092461024490777305\">Adesh Raj</a>"], "photo_reference": "Aap_uEA_BIOv_H1JC1s52GJP97MYaLtywWDShwVyXyCovvSE-bKx6Bw5z1XEYHa2OMl6Prbfs65Z0JOLKEo1d_BweAEu4UJn5rpsdp-KFdeHSxintSTMyU-gbHeeFLwT93erkiONCr4GK8Yhfm6PWf7EniC-5TDEKjQ9XyQIRp9kNfg0hAg8", "width": 2448}], "place_id": "ChIJBYLcLa_tnjkRV-zxoMSQlZU", "rating": 2, "reference": "ChIJBYLcLa_tnjkRV-zxoMSQlZU", "scope": "GOOGLE", "types": ["school", "point_of_interest", "establishment"], "user_ratings_total": 1, "vicinity": "68R6+P26, Baghauli"}, {"business_status": "OPERATIONAL", "geometry": {"location": {"lat": 27.237833, "lng": 80.29652709999999}, "viewport": {"northeast": {"lat": 27.2391219802915, "lng": 80.29793158029149}, "southwest": {"lat": 27.2364240197085, "lng": 80.29523361970848}}}, "icon": "https://maps.gstatic.com/mapfiles/place_api/icons/v1/png_71/school-71.png", "icon_background_color": "#7B9EB0", "icon_mask_base_uri": "https://maps.gstatic.com/mapfiles/place_api/icons/v2/school_pinlet", "name": "BIBONA", "photos": [{"height": 2000, "html_attributions": ["<a href=\"https://maps.google.com/maps/contrib/110127476084225371798\">kuldeep verma</a>"], "photo_reference": "Aap_uEBe1sPyvPTdqJIhNTcCHkY9Qrlulvko-Scff1bUF6ZU6UhH7mScnJcxH9k6KPkvAx8gDceqdJgmfQqIj2CmDsBvIzdRjA8T9fv05P6PRxYLjYXa9fzmYf6cY-aLW_ty1fTBmUizYCGiiVRLH4ucssqiuV44hFdWvicGDZ5jPbKOGjZX", "width": 4000}], "place_id": "ChIJT1iPj_ntnjkRnGty90Zyx7U", "plus_code": {"compound_code": "67QW+4J Gopar, Uttar Pradesh, India", "global_code": "7MV267QW+4J"}, "rating": 4.7, "reference": "ChIJT1iPj_ntnjkRnGty90Zyx7U", "scope": "GOOGLE", "types": ["school", "point_of_interest", "establishment"], "user_ratings_total": 3, "vicinity": "Unnamed Road, Gopar"}, {"business_status": "OPERATIONAL", "geometry": {"location": {"lat": 27.235315, "lng": 80.29747669999999}, "viewport": {"northeast": {"lat": 27.2365103802915, "lng": 80.2990999302915}, "southwest": {"lat": 27.2338124197085, "lng": 80.29640196970848}}}, "icon": "https://maps.gstatic.com/mapfiles/place_api/icons/v1/png_71/school-71.png", "icon_background_color": "#7B9EB0", "icon_mask_base_uri": "https://maps.gstatic.com/mapfiles/place_api/icons/v2/school_pinlet", "name": "dr bnkd mahavidyaly", "photos": [{"height": 2448, "html_attributions": ["<a href=\"https://maps.google.com/maps/contrib/115887274925210874484\">\u0936\u094d\u092f\u093e\u092e \u0938\u093f\u0902\u0939 \u0915\u0941\u0936\u0935\u093e\u0939\u093e</a>"], "photo_reference": "Aap_uEBj0nx1V_3GDjnUbz2eRVsfouaz6ONeFbH933yNNIQFJMHh9svMvIuJ5YkaFzF1wg7_Xn-9j8c2obhYBDkcgD-M0ekTTaCJEIekTKkdbjD1G4yHO6tW1JHtLh7hBdg7z9og9LfGm0EQcKjQNak8yQKuiGTrtHSOcKRqIT5SoiK0QfUG", "width": 3264}], "place_id": "ChIJF-Y1IkDtnjkRmcUyi_7cL0E", "plus_code": {"compound_code": "67PW+4X Baghauli, Uttar Pradesh, India", "global_code": "7MV267PW+4X"}, "reference": "ChIJF-Y1IkDtnjkRmcUyi_7cL0E", "scope": "GOOGLE", "types": ["school", "point_of_interest", "establishment"], "vicinity": "Baghauli"}, {"business_status": "OPERATIONAL", "geometry": {"location": {"lat": 27.2366707, "lng": 80.2942977}, "viewport": {"northeast": {"lat": 27.2379820302915, "lng": 80.2955976802915}, "southwest": {"lat": 27.2352840697085, "lng": 80.29289971970849}}}, "icon": "https://maps.gstatic.com/mapfiles/place_api/icons/v1/png_71/school-71.png", "icon_background_color": "#7B9EB0", "icon_mask_base_uri": "https://maps.gstatic.com/mapfiles/place_api/icons/v2/school_pinlet", "name": "Shri Jai Narayan Inter College Baghauli Hardoi", "place_id": "ChIJnZQuF2rtnjkRmucrD6Mc3ZE", "plus_code": {"compound_code": "67PV+MP Baghauli, Uttar Pradesh, India", "global_code": "7MV267PV+MP"}, "rating": 4, "reference": "ChIJnZQuF2rtnjkRmucrD6Mc3ZE", "scope": "GOOGLE", "types": ["school", "point_of_interest", "establishment"], "user_ratings_total": 3, "vicinity": "Baghauli"}], "status": "OK"}