{"html_attributions": [], "results": [{"business_status": "OPERATIONAL", "geometry": {"location": {"lat": 27.2770033, "lng": 80.30459669999999}, "viewport": {"northeast": {"lat": 27.2785058302915, "lng": 80.3057876802915}, "southwest": {"lat": 27.2758078697085, "lng": 80.3030897197085}}}, "icon": "https://maps.gstatic.com/mapfiles/place_api/icons/v1/png_71/school-71.png", "icon_background_color": "#7B9EB0", "icon_mask_base_uri": "https://maps.gstatic.com/mapfiles/place_api/icons/v2/school_pinlet", "name": "Jugul Kisor", "place_id": "ChIJeVvBBtjtnjkRz8w1KChv2ns", "reference": "ChIJeVvBBtjtnjkRz8w1KChv2ns", "scope": "GOOGLE", "types": ["school", "point_of_interest", "establishment"], "vicinity": "78G3+RR5, Thok Bandho"}, {"business_status": "OPERATIONAL", "geometry": {"location": {"lat": 27.2770033, "lng": 80.30459669999999}, "viewport": {"northeast": {"lat": 27.2785058302915, "lng": 80.3057876802915}, "southwest": {"lat": 27.2758078697085, "lng": 80.3030897197085}}}, "icon": "https://maps.gstatic.com/mapfiles/place_api/icons/v1/png_71/school-71.png", "icon_background_color": "#7B9EB0", "icon_mask_base_uri": "https://maps.gstatic.com/mapfiles/place_api/icons/v2/school_pinlet", "name": "Mohit kumar", "photos": [{"height": 4608, "html_attributions": ["<a href=\"https://maps.google.com/maps/contrib/109593241121749910372\">Mohit kumar</a>"], "photo_reference": "Aap_uEA1hy9gl1rO5mKqMEmPGZmBhk-OhOPUh2Bz0oUeZi_ovaKRmbAsnVpZ0byUOm4D32SbaW2za-oCQjpEwKYDAD1ZRebuh5QHFxIa2-OOJtCL3JT_81mAyK_oZ64vJtVwIvaa9GtFJlB1bTPSdXb7kSSMTL6EecomNkw7FL00MD7qM4rN", "width": 2304}], "place_id": "ChIJETzFEh3tnjkRbLbPs9U8D_E", "plus_code": {"compound_code": "78G3+RR Thok Bandho, Uttar Pradesh, India", "global_code": "7MV278G3+RR"}, "rating": 1, "reference": "ChIJETzFEh3tnjkRbLbPs9U8D_E", "scope": "GOOGLE", "types": ["school", "point_of_interest", "establishment"], "user_ratings_total": 1, "vicinity": "Village chanokhar post Thokbandho, Hardoi"}, {"business_status": "OPERATIONAL", "geometry": {"location": {"lat": 27.2750324, "lng": 80.29833479999999}, "viewport": {"northeast": {"lat": 27.27641618029151, "lng": 80.2995570302915}, "southwest": {"lat": 27.2737182197085, "lng": 80.29685906970849}}}, "icon": "https://maps.gstatic.com/mapfiles/place_api/icons/v1/png_71/school-71.png", "icon_background_color": "#7B9EB0", "icon_mask_base_uri": "https://maps.gstatic.com/mapfiles/place_api/icons/v2/school_pinlet", "name": "OM PRAKASH RANI PUBLIC HIGH SCHOOL VICTORIYA GANJ AHIRORI HARDOI", "opening_hours": {"open_now": true}, "place_id": "ChIJPxkHzTjtnjkRMq0706q42Zs", "reference": "ChIJPxkHzTjtnjkRMq0706q42Zs", "scope": "GOOGLE", "types": ["school", "point_of_interest", "establishment"], "vicinity": "77GX+288, Thok Bandho"}], "status": "OK"}