{"html_attributions": [], "results": [{"business_status": "OPERATIONAL", "geometry": {"location": {"lat": 27.1471962, "lng": 80.3282711}, "viewport": {"northeast": {"lat": 27.14850513029151, "lng": 80.3296006302915}, "southwest": {"lat": 27.1458071697085, "lng": 80.32690266970849}}}, "icon": "https://maps.gstatic.com/mapfiles/place_api/icons/v1/png_71/school-71.png", "icon_background_color": "#7B9EB0", "icon_mask_base_uri": "https://maps.gstatic.com/mapfiles/place_api/icons/v2/school_pinlet", "name": "\u092a\u094d\u0930\u093e\u0925\u092e\u093f\u0915 \u0935\u093f\u0926\u094d\u092f\u093e\u0932\u092f", "place_id": "ChIJUfJgujaTnjkRsFhgrfH268k", "reference": "ChIJUfJgujaTnjkRsFhgrfH268k", "scope": "GOOGLE", "types": ["school", "point_of_interest", "establishment"], "vicinity": "48WH+V8C"}, {"business_status": "OPERATIONAL", "geometry": {"location": {"lat": 27.1474053, "lng": 80.3179084}, "viewport": {"northeast": {"lat": 27.1483583802915, "lng": 80.3189726802915}, "southwest": {"lat": 27.14566041970849, "lng": 80.31627471970849}}}, "icon": "https://maps.gstatic.com/mapfiles/place_api/icons/v1/png_71/school-71.png", "icon_background_color": "#7B9EB0", "icon_mask_base_uri": "https://maps.gstatic.com/mapfiles/place_api/icons/v2/school_pinlet", "name": "Prathamik Vidyalaya Baburaha", "photos": [{"height": 1440, "html_attributions": ["<a href=\"https://maps.google.com/maps/contrib/104434108369930942693\">ARJUN SINGH YADAV</a>"], "photo_reference": "Aap_uECjG6RmXhZnsZpQvfrZT8gtxRHM1MUAxXB6TMPVkW8hGo1N0fGWl8pV4OlghWLDTNqTk_dTEW7KSliseEDhd9biv93U3bItISbZhzijbZcf2gpm0Sg_aRMv3ocTo9Fk2OtwzGkBpJtaBzzGSGxhRhOL6d9cVRyft7io1OmC4rqnIr-J", "width": 2560}], "place_id": "ChIJ3wg_rkuSnjkRzTrVJnI8rJw", "rating": 5, "reference": "ChIJ3wg_rkuSnjkRzTrVJnI8rJw", "scope": "GOOGLE", "types": ["primary_school", "school", "point_of_interest", "establishment"], "user_ratings_total": 10, "vicinity": "48W9+X57, Baburaha Kalauli, Sandila"}, {"business_status": "OPERATIONAL", "geometry": {"location": {"lat": 27.1427752, "lng": 80.31577539999999}, "viewport": {"northeast": {"lat": 27.1442330802915, "lng": 80.31698428029149}, "southwest": {"lat": 27.14153511970849, "lng": 80.31428631970849}}}, "icon": "https://maps.gstatic.com/mapfiles/place_api/icons/v1/png_71/school-71.png", "icon_background_color": "#7B9EB0", "icon_mask_base_uri": "https://maps.gstatic.com/mapfiles/place_api/icons/v2/school_pinlet", "name": "\ud83d\udd49Bhole Nath Tempel", "place_id": "ChIJi6WleaSTnjkRnIpdG1Lx4K8", "reference": "ChIJi6WleaSTnjkRnIpdG1Lx4K8", "scope": "GOOGLE", "types": ["school", "point_of_interest", "establishment"], "vicinity": "48V8+486, Narayan Deo"}, {"business_status": "OPERATIONAL", "geometry": {"location": {"lat": 27.1456296, "lng": 80.3143475}, "viewport": {"northeast": {"lat": 27.1467439302915, "lng": 80.3158200802915}, "southwest": {"lat": 27.1440459697085, "lng": 80.3131221197085}}}, "icon": "https://maps.gstatic.com/mapfiles/place_api/icons/v1/png_71/school-71.png", "icon_background_color": "#7B9EB0", "icon_mask_base_uri": "https://maps.gstatic.com/mapfiles/place_api/icons/v2/school_pinlet", "name": "Prathmik Vidyalaya Baburaha", "place_id": "ChIJM8Uc1GyTnjkRorUTpKO7dt4", "plus_code": {"compound_code": "48W7+7P Shamshpur, Uttar Pradesh, India", "global_code": "7MV248W7+7P"}, "reference": "ChIJM8Uc1GyTnjkRorUTpKO7dt4", "scope": "GOOGLE", "types": ["school", "point_of_interest", "establishment"], "vicinity": "Railway Line"}], "status": "OK"}