{"html_attributions": [], "results": [{"business_status": "OPERATIONAL", "geometry": {"location": {"lat": 27.1665577, "lng": 80.3271303}, "viewport": {"northeast": {"lat": 27.1678635302915, "lng": 80.32845123029149}, "southwest": {"lat": 27.1651655697085, "lng": 80.32575326970849}}}, "icon": "https://maps.gstatic.com/mapfiles/place_api/icons/v1/png_71/school-71.png", "icon_background_color": "#7B9EB0", "icon_mask_base_uri": "https://maps.gstatic.com/mapfiles/place_api/icons/v2/school_pinlet", "name": "Seema", "place_id": "ChIJHSlIYg-TnjkRXOKau056VME", "reference": "ChIJHSlIYg-TnjkRXOKau056VME", "scope": "GOOGLE", "types": ["primary_school", "school", "point_of_interest", "establishment"], "vicinity": "588G+JVC, Jamunapur"}, {"business_status": "OPERATIONAL", "geometry": {"location": {"lat": 27.1612981, "lng": 80.3372427}, "viewport": {"northeast": {"lat": 27.1626225302915, "lng": 80.33856948029151}, "southwest": {"lat": 27.1599245697085, "lng": 80.3358715197085}}}, "icon": "https://maps.gstatic.com/mapfiles/place_api/icons/v1/png_71/school-71.png", "icon_background_color": "#7B9EB0", "icon_mask_base_uri": "https://maps.gstatic.com/mapfiles/place_api/icons/v2/school_pinlet", "name": "Sunshine Convent School Kachhauna", "photos": [{"height": 717, "html_attributions": ["<a href=\"https://maps.google.com/maps/contrib/112133926305943514201\">Arshad Lateef</a>"], "photo_reference": "Aap_uECXiQyX1u0pcIo3T3QGZ6iAK7FeZRNpAZaDCs-zIpcoeeJbgnwxjuIYWO88uCycHB04cAALITW9p-UW9eu6mJ5xSZGo9JcK43dpb43LmgkKfsv87IFRyBDHeIkYH45yMZA2G3az-PJPHZqjUo1zs4Hg0tzXp_fQUuii3XZTZpHHe4eI", "width": 720}], "place_id": "ChIJCb0Z226TnjkRMOYYN0Lceww", "rating": 5, "reference": "ChIJCb0Z226TnjkRMOYYN0Lceww", "scope": "GOOGLE", "types": ["school", "point_of_interest", "establishment"], "user_ratings_total": 1, "vicinity": "586P+GV9, Kachhauna Patseni"}, {"business_status": "OPERATIONAL", "geometry": {"location": {"lat": 27.1604117, "lng": 80.3373605}, "viewport": {"northeast": {"lat": 27.1617741302915, "lng": 80.3386789302915}, "southwest": {"lat": 27.1590761697085, "lng": 80.33598096970849}}}, "icon": "https://maps.gstatic.com/mapfiles/place_api/icons/v1/png_71/school-71.png", "icon_background_color": "#7B9EB0", "icon_mask_base_uri": "https://maps.gstatic.com/mapfiles/place_api/icons/v2/school_pinlet", "name": "Shivam pustak bhandar", "photos": [{"height": 2855, "html_attributions": ["<a href=\"https://maps.google.com/maps/contrib/111217206981257693154\">Sharad Patel</a>"], "photo_reference": "Aap_uEDeKPPz4Nn_PmdGrjYATTs8rDhJQ7h7kqIU7DpE0bEioYP7ht9xkx0Z60ZW-9RIHaRqsi8wpViUA8K2-hWi7D6KBfTTm7ucKzOP7D89LvLWfT7Jzf5ivrTDmtygoJRAUGdZjDBTg79hfUvr0jUJVHx1GGPE8ziT8cVdYWHgXmMCE1Np", "width": 2234}], "place_id": "ChIJk1qcqkeTnjkRzs_iPtfQnuw", "plus_code": {"compound_code": "586P+5W Kachona Dehat, Uttar Pradesh, India", "global_code": "7MV2586P+5W"}, "rating": 5, "reference": "ChIJk1qcqkeTnjkRzs_iPtfQnuw", "scope": "GOOGLE", "types": ["school", "point_of_interest", "establishment"], "user_ratings_total": 3, "vicinity": "NEAR JANKI PRASAD INTER COLLEGE KE SAMNE KACHHAUNA, Tiraha -Sandila Road, Kachona Dehat"}, {"business_status": "OPERATIONAL", "geometry": {"location": {"lat": 27.16182229999999, "lng": 80.33767390000001}, "viewport": {"northeast": {"lat": 27.1632394302915, "lng": 80.33908078029151}, "southwest": {"lat": 27.16054146970849, "lng": 80.3363828197085}}}, "icon": "https://maps.gstatic.com/mapfiles/place_api/icons/v1/png_71/school-71.png", "icon_background_color": "#7B9EB0", "icon_mask_base_uri": "https://maps.gstatic.com/mapfiles/place_api/icons/v2/school_pinlet", "name": "SATGURU EDUCATION POINT", "place_id": "ChIJWy6UhDGTnjkRKH32jhYmSaQ", "reference": "ChIJWy6UhDGTnjkRKH32jhYmSaQ", "scope": "GOOGLE", "types": ["school", "point_of_interest", "establishment"], "vicinity": "586Q+Q2J, Kachhauna Patseni"}, {"business_status": "OPERATIONAL", "geometry": {"location": {"lat": 27.1611344, "lng": 80.3379028}, "viewport": {"northeast": {"lat": 27.1623896302915, "lng": 80.3391670302915}, "southwest": {"lat": 27.1596916697085, "lng": 80.3364690697085}}}, "icon": "https://maps.gstatic.com/mapfiles/place_api/icons/v1/png_71/school-71.png", "icon_background_color": "#7B9EB0", "icon_mask_base_uri": "https://maps.gstatic.com/mapfiles/place_api/icons/v2/school_pinlet", "name": "\u092a\u094d\u0930\u093e\u0907\u092e\u0930\u0940 \u0935\u093f\u0926\u094d\u092f\u093e\u0932\u092f", "place_id": "ChIJJTWsrOSTnjkR1tYkXFINGJ8", "reference": "ChIJJTWsrOSTnjkR1tYkXFINGJ8", "scope": "GOOGLE", "types": ["school", "point_of_interest", "establishment"], "vicinity": "586Q+F52, Jamukhiya"}, {"business_status": "OPERATIONAL", "geometry": {"location": {"lat": 27.1605257, "lng": 80.33888519999999}, "viewport": {"northeast": {"lat": 27.1617529802915, "lng": 80.3401250302915}, "southwest": {"lat": 27.1590550197085, "lng": 80.3374270697085}}}, "icon": "https://maps.gstatic.com/mapfiles/place_api/icons/v1/png_71/school-71.png", "icon_background_color": "#7B9EB0", "icon_mask_base_uri": "https://maps.gstatic.com/mapfiles/place_api/icons/v2/school_pinlet", "name": "G. P. Public Jr. High School", "opening_hours": {"open_now": false}, "photos": [{"height": 809, "html_attributions": ["<a href=\"https://maps.google.com/maps/contrib/113075755230495378394\">G. P. Public Jr. High School</a>"], "photo_reference": "Aap_uECtnqwlEs1-haYii1i2VEZizOkMMGqVhDxAxaQy1YQIgS9tu5m3fi_m5IRfDuXQcFSAa7bTAog5HVccsfUwOB1Vz6NuHSSUJ76ifv1lccEaydEB8uqwgxw6J-1jUQF0wK67cUojNLXFP08QI-aGNt9_cieUNIFg9-zE-wxT9dPhakYY", "width": 1440}], "place_id": "ChIJM0pVg6OTnjkRrUcfGQ0Faxc", "plus_code": {"compound_code": "586Q+6H Kachhauna Patseni, Uttar Pradesh, India", "global_code": "7MV2586Q+6H"}, "rating": 5, "reference": "ChIJM0pVg6OTnjkRrUcfGQ0Faxc", "scope": "GOOGLE", "types": ["school", "point_of_interest", "establishment"], "user_ratings_total": 2, "vicinity": "Guru Kripa Tyres, Lucknow - Hardoi - Shahjahanpur Road, Hardoi Road, Kachhauna Patseni"}, {"business_status": "OPERATIONAL", "geometry": {"location": {"lat": 27.158298, "lng": 80.34011579999999}, "viewport": {"northeast": {"lat": 27.1598523802915, "lng": 80.3417164802915}, "southwest": {"lat": 27.1571544197085, "lng": 80.33901851970849}}}, "icon": "https://maps.gstatic.com/mapfiles/place_api/icons/v1/png_71/school-71.png", "icon_background_color": "#7B9EB0", "icon_mask_base_uri": "https://maps.gstatic.com/mapfiles/place_api/icons/v2/school_pinlet", "name": "Chand", "place_id": "ChIJa_JEmRmTnjkRAvEC5dletIA", "plus_code": {"compound_code": "585R+82 Kachona Dehat, Uttar Pradesh, India", "global_code": "7MV2585R+82"}, "reference": "ChIJa_JEmRmTnjkRAvEC5dletIA", "scope": "GOOGLE", "types": ["school", "point_of_interest", "establishment"], "vicinity": "Tiraha -Sandila Road, Kachona Dehat"}], "status": "OK"}