{"html_attributions": [], "results": [{"business_status": "OPERATIONAL", "geometry": {"location": {"lat": 27.2005452, "lng": 80.3352364}, "viewport": {"northeast": {"lat": 27.2018874302915, "lng": 80.33609164999999}, "southwest": {"lat": 27.19918946970849, "lng": 80.33267065}}}, "icon": "https://maps.gstatic.com/mapfiles/place_api/icons/v1/png_71/school-71.png", "icon_background_color": "#7B9EB0", "icon_mask_base_uri": "https://maps.gstatic.com/mapfiles/place_api/icons/v2/school_pinlet", "name": "Saraswati Gyan Mandir School", "place_id": "ChIJ_____zqTnjkRTFx09jmnMC4", "plus_code": {"compound_code": "682P+63 Purwa, Uttar Pradesh, India", "global_code": "7MV2682P+63"}, "reference": "ChIJ_____zqTnjkRTFx09jmnMC4", "scope": "GOOGLE", "types": ["school", "point_of_interest", "establishment"], "vicinity": "radhey road, azad nagar, Purwa"}, {"business_status": "OPERATIONAL", "geometry": {"location": {"lat": 27.2079075, "lng": 80.3208752}, "viewport": {"northeast": {"lat": 27.2092218302915, "lng": 80.32216358029152}, "southwest": {"lat": 27.2065238697085, "lng": 80.3194656197085}}}, "icon": "https://maps.gstatic.com/mapfiles/place_api/icons/v1/png_71/school-71.png", "icon_background_color": "#7B9EB0", "icon_mask_base_uri": "https://maps.gstatic.com/mapfiles/place_api/icons/v2/school_pinlet", "name": "\u0938\u0930\u0938\u094d\u0935\u0924\u0940 \u0936\u093f\u0936\u0941 \u0935\u093f\u0926\u094d\u092f\u093e \u092e\u0928\u094d\u0926\u093f\u0930 \u092a\u0941\u0930\u0935\u093e \u0939\u0930\u0926\u094b\u0908", "opening_hours": {"open_now": false}, "photos": [{"height": 1280, "html_attributions": ["<a href=\"https://maps.google.com/maps/contrib/114777440721823320020\">\u0938\u0930\u0938\u094d\u0935\u0924\u0940 \u0936\u093f\u0936\u0941 \u0935\u093f\u0926\u094d\u092f\u093e \u092e\u0928\u094d\u0926\u093f\u0930 \u092a\u0941\u0930\u0935\u093e \u0939\u0930\u0926\u094b\u0908</a>"], "photo_reference": "Aap_uEBJbyQ6zV1L0raguAY73Zl6prr_uFHgt-wzCPNPZ5f_HKi22qNo0fXR74qCOlvL9aD5q6Z7XXGWG20PIsF7zP06d-xcBG_9yuPLf8XeHjx1Ui_J0MUaGVmCop2B-_TJ-_DEv3tKvj_SgKygs7bDXQE1B_MbL7_SGWpdbo6QsX9dVgkb", "width": 721}], "place_id": "ChIJlwkfAdaSnjkRX9rnT3ElYbo", "plus_code": {"compound_code": "685C+59 Purwa, Uttar Pradesh, India", "global_code": "7MV2685C+59"}, "rating": 4.4, "reference": "ChIJlwkfAdaSnjkRX9rnT3ElYbo", "scope": "GOOGLE", "types": ["school", "point_of_interest", "establishment"], "user_ratings_total": 9, "vicinity": "Baghauli Road, Purwa"}, {"business_status": "OPERATIONAL", "geometry": {"location": {"lat": 27.20470659999999, "lng": 80.3397382}, "viewport": {"northeast": {"lat": 27.2061019802915, "lng": 80.3410863802915}, "southwest": {"lat": 27.20340401970849, "lng": 80.3383884197085}}}, "icon": "https://maps.gstatic.com/mapfiles/place_api/icons/v1/png_71/school-71.png", "icon_background_color": "#7B9EB0", "icon_mask_base_uri": "https://maps.gstatic.com/mapfiles/place_api/icons/v2/school_pinlet", "name": "Umesh Maurya", "place_id": "ChIJ2z_3vnyTnjkR7T4zwkn5iiI", "reference": "ChIJ2z_3vnyTnjkR7T4zwkn5iiI", "scope": "GOOGLE", "types": ["primary_school", "school", "point_of_interest", "establishment"], "vicinity": "683Q+VVQ, Purwa"}], "status": "OK"}