{"html_attributions": [], "results": [{"business_status": "OPERATIONAL", "geometry": {"location": {"lat": 27.3653878, "lng": 80.3497482}, "viewport": {"northeast": {"lat": 27.3669704302915, "lng": 80.3510330302915}, "southwest": {"lat": 27.36427246970849, "lng": 80.3483350697085}}}, "icon": "https://maps.gstatic.com/mapfiles/place_api/icons/v1/png_71/school-71.png", "icon_background_color": "#7B9EB0", "icon_mask_base_uri": "https://maps.gstatic.com/mapfiles/place_api/icons/v2/school_pinlet", "name": "Maa Bhagwati inter College", "opening_hours": {"open_now": false}, "place_id": "ChIJFynymiTvnjkRJbQbYJonufo", "rating": 5, "reference": "ChIJFynymiTvnjkRJbQbYJonufo", "scope": "GOOGLE", "types": ["school", "point_of_interest", "establishment"], "user_ratings_total": 4, "vicinity": "988X+5V5, Saripur Bramhnan"}, {"business_status": "OPERATIONAL", "geometry": {"location": {"lat": 27.3650176, "lng": 80.3513509}, "viewport": {"northeast": {"lat": 27.36635018029151, "lng": 80.35257083029151}, "southwest": {"lat": 27.3636522197085, "lng": 80.34987286970849}}}, "icon": "https://maps.gstatic.com/mapfiles/place_api/icons/v1/png_71/school-71.png", "icon_background_color": "#7B9EB0", "icon_mask_base_uri": "https://maps.gstatic.com/mapfiles/place_api/icons/v2/school_pinlet", "name": "Maa Bhagwati Mahavidyalaya Hunsepur,hardoi", "photos": [{"height": 1080, "html_attributions": ["<a href=\"https://maps.google.com/maps/contrib/111866008540802134330\">bramha yadav</a>"], "photo_reference": "Aap_uEAeeOvKcCCZrrbpTKkKkWleLBRhmPbSEbryfo6vEGcPq93-3I0gJnAu1JCJ7HtLcEfKEWIBa1KwP-_ZyyMnid6omIeARuanmYy5Gnft8oZK_UIhanem4eFVdu4XVhht0e3XI2iMWoa7kDSwBjOOP2uWVozVZB8BAgJQid5wFTyjmTse", "width": 1920}], "place_id": "ChIJWcAj-iTvnjkRQScYl7JolXg", "rating": 4.7, "reference": "ChIJWcAj-iTvnjkRQScYl7JolXg", "scope": "GOOGLE", "types": ["school", "point_of_interest", "establishment"], "user_ratings_total": 6, "vicinity": "9982+2G5, Saripur Bramhnan"}, {"business_status": "OPERATIONAL", "geometry": {"location": {"lat": 27.3570509, "lng": 80.34716829999999}, "viewport": {"northeast": {"lat": 27.3584606802915, "lng": 80.3484355802915}, "southwest": {"lat": 27.3557627197085, "lng": 80.34573761970849}}}, "icon": "https://maps.gstatic.com/mapfiles/place_api/icons/v1/png_71/school-71.png", "icon_background_color": "#7B9EB0", "icon_mask_base_uri": "https://maps.gstatic.com/mapfiles/place_api/icons/v2/school_pinlet", "name": "AWASTHI ACADEMY HUNSEPUR", "place_id": "ChIJk34KSk7vnjkRevkUy5oTIx8", "reference": "ChIJk34KSk7vnjkRevkUy5oTIx8", "scope": "GOOGLE", "types": ["school", "point_of_interest", "establishment"], "vicinity": "984W+RVF, Hunsepur"}, {"business_status": "OPERATIONAL", "geometry": {"location": {"lat": 27.3563359, "lng": 80.3435346}, "viewport": {"northeast": {"lat": 27.3570486802915, "lng": 80.3446816802915}, "southwest": {"lat": 27.3543507197085, "lng": 80.3419837197085}}}, "icon": "https://maps.gstatic.com/mapfiles/place_api/icons/v1/png_71/school-71.png", "icon_background_color": "#7B9EB0", "icon_mask_base_uri": "https://maps.gstatic.com/mapfiles/place_api/icons/v2/school_pinlet", "name": "SHRI RAM CHANDRA SHIKSHAN SANSTHAN", "opening_hours": {"open_now": false}, "photos": [{"height": 641, "html_attributions": ["<a href=\"https://maps.google.com/maps/contrib/110111224239334123552\">Sirish Tiwari</a>"], "photo_reference": "Aap_uEA_n5r5K_IuB5kkDApZwkS-rOlJWcnlS8HUP-KBkYemY450aFamBqMxFQTWIBouommRLsqLIuPMV1SiGXj9kNkABkEzires7V2tcfZoatdLc-8mFIrsX0sdComyspQ5-ndVQtJcvCpv1Vq426BzkUCF5hkba7pqA1zTB_AvdbNPpL6r", "width": 854}], "place_id": "ChIJc6s33gbvnjkR_dweZ9L6Hyo", "rating": 5, "reference": "ChIJc6s33gbvnjkR_dweZ9L6Hyo", "scope": "GOOGLE", "types": ["school", "point_of_interest", "establishment"], "user_ratings_total": 4, "vicinity": "984V+GCM, Sardapur"}, {"business_status": "OPERATIONAL", "geometry": {"location": {"lat": 27.36284299999999, "lng": 80.3381383}, "viewport": {"northeast": {"lat": 27.3642233302915, "lng": 80.33940428029149}, "southwest": {"lat": 27.36152536970849, "lng": 80.33670631970848}}}, "icon": "https://maps.gstatic.com/mapfiles/place_api/icons/v1/png_71/school-71.png", "icon_background_color": "#7B9EB0", "icon_mask_base_uri": "https://maps.gstatic.com/mapfiles/place_api/icons/v2/school_pinlet", "name": "P.S. SARDAPUR", "opening_hours": {"open_now": false}, "place_id": "ChIJhyxUKGDvnjkRNdGT28FoO3A", "rating": 4, "reference": "ChIJhyxUKGDvnjkRNdGT28FoO3A", "scope": "GOOGLE", "types": ["school", "point_of_interest", "establishment"], "user_ratings_total": 1, "vicinity": "987Q+47J, Sardapur"}, {"business_status": "OPERATIONAL", "geometry": {"location": {"lat": 27.3536427, "lng": 80.3455783}, "viewport": {"northeast": {"lat": 27.3549788302915, "lng": 80.34707303029151}, "southwest": {"lat": 27.3522808697085, "lng": 80.34437506970849}}}, "icon": "https://maps.gstatic.com/mapfiles/place_api/icons/v1/png_71/school-71.png", "icon_background_color": "#7B9EB0", "icon_mask_base_uri": "https://maps.gstatic.com/mapfiles/place_api/icons/v2/school_pinlet", "name": "Primary school hunsepur", "opening_hours": {"open_now": false}, "photos": [{"height": 1080, "html_attributions": ["<a href=\"https://maps.google.com/maps/contrib/101347931063471498118\">manish k pal personal blog</a>"], "photo_reference": "Aap_uEDiy80BWfp2yHK5m_mWBBzz1PPD3BZucSyaQjTPATxCjGlDeMejLKq7gl5ss0wWslAPz60RES4f5g_c1-sYzUe1Mr4GJ85_6UT54cF_JchOcqtvYf-1SJXiSkSNyZLt8qn2EkayOa-GPwxyjY3dBz6UQrDgGG53rbomFAC3Go2IDQe1", "width": 1920}], "place_id": "ChIJLQx7Gx3vnjkRiq5pcmCq5e4", "plus_code": {"compound_code": "983W+F6 Sardapur, Uttar Pradesh, India", "global_code": "7MV2983W+F6"}, "reference": "ChIJLQx7Gx3vnjkRiq5pcmCq5e4", "scope": "GOOGLE", "types": ["primary_school", "school", "point_of_interest", "establishment"], "vicinity": "Unnamed Road, Sardapur"}, {"business_status": "OPERATIONAL", "geometry": {"location": {"lat": 27.3662468, "lng": 80.3387126}, "viewport": {"northeast": {"lat": 27.3675830802915, "lng": 80.3401633802915}, "southwest": {"lat": 27.3648851197085, "lng": 80.3374654197085}}}, "icon": "https://maps.gstatic.com/mapfiles/place_api/icons/v1/png_71/school-71.png", "icon_background_color": "#7B9EB0", "icon_mask_base_uri": "https://maps.gstatic.com/mapfiles/place_api/icons/v2/school_pinlet", "name": "\u0917\u0935\u0930\u094d\u092e\u0947\u0928\u094d\u091f \u0938\u094d\u0915\u0942\u0932 \u0938\u0930\u0926\u093e\u092a\u0941\u0930", "opening_hours": {"open_now": true}, "place_id": "ChIJvZfHS-LvnjkRmg01zHUT8AY", "plus_code": {"compound_code": "988Q+FF Kala Aam, Uttar Pradesh, India", "global_code": "7MV2988Q+FF"}, "rating": 4, "reference": "ChIJvZfHS-LvnjkRmg01zHUT8AY", "scope": "GOOGLE", "types": ["school", "point_of_interest", "establishment"], "user_ratings_total": 1, "vicinity": "Unnamed Road"}, {"business_status": "OPERATIONAL", "geometry": {"location": {"lat": 27.3572262, "lng": 80.33814799999999}, "viewport": {"northeast": {"lat": 27.3583749302915, "lng": 80.33960408029151}, "southwest": {"lat": 27.3556769697085, "lng": 80.33690611970849}}}, "icon": "https://maps.gstatic.com/mapfiles/place_api/icons/v1/png_71/school-71.png", "icon_background_color": "#7B9EB0", "icon_mask_base_uri": "https://maps.gstatic.com/mapfiles/place_api/icons/v2/school_pinlet", "name": "\u0917\u0935\u0930\u094d\u0928\u092e\u0947\u0902\u091f \u0938\u094d\u0915\u0942\u0932 \u0925\u094b\u0915\u0915\u092c\u0942\u0932\u092a\u0941\u0930", "opening_hours": {"open_now": true}, "place_id": "ChIJ_0YkaEvvnjkRF7mX5rVtSd0", "plus_code": {"compound_code": "984Q+V7 Jagrauli, Uttar Pradesh, India", "global_code": "7MV2984Q+V7"}, "rating": 5, "reference": "ChIJ_0YkaEvvnjkRF7mX5rVtSd0", "scope": "GOOGLE", "types": ["school", "point_of_interest", "establishment"], "user_ratings_total": 1, "vicinity": "Unnamed Road, Jagrauli"}, {"business_status": "OPERATIONAL", "geometry": {"location": {"lat": 27.3570535, "lng": 80.33702889999999}, "viewport": {"northeast": {"lat": 27.3584446302915, "lng": 80.33839638029151}, "southwest": {"lat": 27.3557466697085, "lng": 80.3356984197085}}}, "icon": "https://maps.gstatic.com/mapfiles/place_api/icons/v1/png_71/school-71.png", "icon_background_color": "#7B9EB0", "icon_mask_base_uri": "https://maps.gstatic.com/mapfiles/place_api/icons/v2/school_pinlet", "name": "P.S. THOK KABULPUR", "opening_hours": {"open_now": false}, "place_id": "ChIJXy_P8_rvnjkRYLYorEAEzK4", "reference": "ChIJXy_P8_rvnjkRYLYorEAEzK4", "scope": "GOOGLE", "types": ["school", "point_of_interest", "establishment"], "vicinity": "984P+RRC, Thok Kaboolpur"}, {"business_status": "OPERATIONAL", "geometry": {"location": {"lat": 27.3571866, "lng": 80.3362228}, "viewport": {"northeast": {"lat": 27.3585884302915, "lng": 80.3375826802915}, "southwest": {"lat": 27.35589046970849, "lng": 80.3348847197085}}}, "icon": "https://maps.gstatic.com/mapfiles/place_api/icons/v1/png_71/school-71.png", "icon_background_color": "#7B9EB0", "icon_mask_base_uri": "https://maps.gstatic.com/mapfiles/place_api/icons/v2/school_pinlet", "name": "J.H.S. THOK KABULPUR", "opening_hours": {"open_now": false}, "place_id": "ChIJd2ZQ2S3vnjkRboLuwtVGtmI", "plus_code": {"compound_code": "984P+VF Jagrauli, Uttar Pradesh, India", "global_code": "7MV2984P+VF"}, "reference": "ChIJd2ZQ2S3vnjkRboLuwtVGtmI", "scope": "GOOGLE", "types": ["school", "point_of_interest", "establishment"], "vicinity": "THOK, Kabul Pur"}, {"business_status": "OPERATIONAL", "geometry": {"location": {"lat": 27.3564006, "lng": 80.3366676}, "viewport": {"northeast": {"lat": 27.3577311302915, "lng": 80.3380483802915}, "southwest": {"lat": 27.35503316970849, "lng": 80.33535041970849}}}, "icon": "https://maps.gstatic.com/mapfiles/place_api/icons/v1/png_71/school-71.png", "icon_background_color": "#7B9EB0", "icon_mask_base_uri": "https://maps.gstatic.com/mapfiles/place_api/icons/v2/school_pinlet", "name": "Vishal thok kaboolpur", "opening_hours": {"open_now": false}, "place_id": "ChIJ3Uy_ovrvnjkRp2Dyp45TdJc", "plus_code": {"compound_code": "984P+HM Jagrauli, Uttar Pradesh, India", "global_code": "7MV2984P+HM"}, "reference": "ChIJ3Uy_ovrvnjkRp2Dyp45TdJc", "scope": "GOOGLE", "types": ["school", "point_of_interest", "establishment"], "vicinity": "Unnamed Road, Jagrauli"}, {"business_status": "OPERATIONAL", "geometry": {"location": {"lat": 27.3735386, "lng": 80.34184619999999}, "viewport": {"northeast": {"lat": 27.3749301802915, "lng": 80.3432152802915}, "southwest": {"lat": 27.37223221970849, "lng": 80.3405173197085}}}, "icon": "https://maps.gstatic.com/mapfiles/place_api/icons/v1/png_71/school-71.png", "icon_background_color": "#7B9EB0", "icon_mask_base_uri": "https://maps.gstatic.com/mapfiles/place_api/icons/v2/school_pinlet", "name": "\u0936\u093e\u0939\u092c\u093e\u0926\u092a\u0941\u0930", "photos": [{"height": 1920, "html_attributions": ["<a href=\"https://maps.google.com/maps/contrib/107865324449649458292\">Anup Kumar</a>"], "photo_reference": "Aap_uEDbmheKcmJOfUkmGZvRTeJuDKRk-kn1KZHgPqnOcqG1kB7pU5GAVyrKZ8YBpNjv3BDl1hLszLT1j6hv80dV3Va5e0dCeJAQEOU-785fWtIZYIroaftPinKrvsxKZG8nS6fM1OZb_03pwv2UjrGSp9vlfxR7DkRUAsgmckYiPr1-4UbL", "width": 1080}], "place_id": "ChIJ6f-geW7vnjkR1v4KJEikGZA", "plus_code": {"compound_code": "98FR+CP Kala Aam, Uttar Pradesh, India", "global_code": "7MV298FR+CP"}, "reference": "ChIJ6f-geW7vnjkR1v4KJEikGZA", "scope": "GOOGLE", "types": ["school", "point_of_interest", "establishment"], "vicinity": "Baddupur - Mohabbatpur Road, Kala Aam"}, {"business_status": "OPERATIONAL", "geometry": {"location": {"lat": 27.3730317, "lng": 80.3537856}, "viewport": {"northeast": {"lat": 27.3744151802915, "lng": 80.3551458302915}, "southwest": {"lat": 27.3717172197085, "lng": 80.35244786970848}}}, "icon": "https://maps.gstatic.com/mapfiles/place_api/icons/v1/png_71/school-71.png", "icon_background_color": "#7B9EB0", "icon_mask_base_uri": "https://maps.gstatic.com/mapfiles/place_api/icons/v2/school_pinlet", "name": "P.S. SARIPUR BRAHMNAN", "opening_hours": {"open_now": false}, "place_id": "ChIJETxSx0DvnjkRJocPfepHoHM", "plus_code": {"compound_code": "99F3+6G Gopalpur, Uttar Pradesh, India", "global_code": "7MV299F3+6G"}, "rating": 5, "reference": "ChIJETxSx0DvnjkRJocPfepHoHM", "scope": "GOOGLE", "types": ["school", "point_of_interest", "establishment"], "user_ratings_total": 1, "vicinity": "SARIPUR BRAHMNAN"}, {"business_status": "OPERATIONAL", "geometry": {"location": {"lat": 27.3735811, "lng": 80.3414202}, "viewport": {"northeast": {"lat": 27.3750220802915, "lng": 80.3428126302915}, "southwest": {"lat": 27.3723241197085, "lng": 80.3401146697085}}}, "icon": "https://maps.gstatic.com/mapfiles/place_api/icons/v1/png_71/school-71.png", "icon_background_color": "#7B9EB0", "icon_mask_base_uri": "https://maps.gstatic.com/mapfiles/place_api/icons/v2/school_pinlet", "name": "Krishna Mobile Shop", "photos": [{"height": 5184, "html_attributions": ["<a href=\"https://maps.google.com/maps/contrib/115269087864215887662\">vishal mishra</a>"], "photo_reference": "Aap_uECqXhmZvWcPbUUhy_i7yqG2h_cHvLnKswNyckRYYYlgLp6jA_JABbtq0-mHynDegk7WjkXs206Xax_UYQO3cL_JAYvtd0HOx8wW8GWywNKMX4P4gotfwgQ-H__efGCo5bRVPmOlqcyxwTMAYRDwq9Gxo4AHZaUrwNfpbzOAX4TCstiY", "width": 3880}], "place_id": "ChIJs7Mj0nvvnjkR3WTXLdOMq0k", "plus_code": {"compound_code": "98FR+CH Kala Aam, Uttar Pradesh, India", "global_code": "7MV298FR+CH"}, "rating": 5, "reference": "ChIJs7Mj0nvvnjkR3WTXLdOMq0k", "scope": "GOOGLE", "types": ["school", "point_of_interest", "establishment"], "user_ratings_total": 1, "vicinity": "Baddupur - Mohabbatpur Road, Kala Aam"}], "status": "OK"}