{"html_attributions": [], "results": [{"business_status": "OPERATIONAL", "geometry": {"location": {"lat": 27.0485428, "lng": 80.3652556}, "viewport": {"northeast": {"lat": 27.0497778302915, "lng": 80.36666688029149}, "southwest": {"lat": 27.0470798697085, "lng": 80.36396891970848}}}, "icon": "https://maps.gstatic.com/mapfiles/place_api/icons/v1/png_71/school-71.png", "icon_background_color": "#7B9EB0", "icon_mask_base_uri": "https://maps.gstatic.com/mapfiles/place_api/icons/v2/school_pinlet", "name": "Keshan kirana store", "opening_hours": {"open_now": false}, "photos": [{"height": 1920, "html_attributions": ["<a href=\"https://maps.google.com/maps/contrib/114399115437704109619\">Vimal Kumar</a>"], "photo_reference": "Aap_uEB6lbnLc-TP-m3nCuHSnq_YexI9QiX4B1zk-lF73OZ0rZzvpv8o9UqhbE6uu9Q07rnkANA10msH76r7qstZ8XzeiKpgI-6SPBMOqz-5Vdlcla0c4bwh_pw_amdY0l0ptnIAkGA7aVY7TzVQBqV0ZcnjKozHCjCMKlsG6DfGnUO1-k2R", "width": 1080}], "place_id": "ChIJe1c6Y4aRnjkRiCP2cbRaqcg", "reference": "ChIJe1c6Y4aRnjkRiCP2cbRaqcg", "scope": "GOOGLE", "types": ["school", "point_of_interest", "establishment"], "vicinity": "29X8+C46, Sarsand"}, {"business_status": "OPERATIONAL", "geometry": {"location": {"lat": 27.0503534, "lng": 80.37310389999999}, "viewport": {"northeast": {"lat": 27.0516499802915, "lng": 80.3744358802915}, "southwest": {"lat": 27.0489520197085, "lng": 80.3717379197085}}}, "icon": "https://maps.gstatic.com/mapfiles/place_api/icons/v1/png_71/school-71.png", "icon_background_color": "#7B9EB0", "icon_mask_base_uri": "https://maps.gstatic.com/mapfiles/place_api/icons/v2/school_pinlet", "name": "Mohd. AJmal", "place_id": "ChIJx3JR3RSXnjkRa1gNo9y61Go", "plus_code": {"compound_code": "392F+46 Dhudhera, Uttar Pradesh, India", "global_code": "7MV2392F+46"}, "reference": "ChIJx3JR3RSXnjkRa1gNo9y61Go", "scope": "GOOGLE", "types": ["primary_school", "school", "point_of_interest", "establishment"], "vicinity": "Unnamed Road, Dhudhera"}, {"business_status": "OPERATIONAL", "geometry": {"location": {"lat": 27.053338, "lng": 80.3715529}, "viewport": {"northeast": {"lat": 27.0546627302915, "lng": 80.3729183802915}, "southwest": {"lat": 27.0519647697085, "lng": 80.37022041970849}}}, "icon": "https://maps.gstatic.com/mapfiles/place_api/icons/v1/png_71/school-71.png", "icon_background_color": "#7B9EB0", "icon_mask_base_uri": "https://maps.gstatic.com/mapfiles/place_api/icons/v2/school_pinlet", "name": "Jay Gurudev Traders Dhudhera Chauraha", "place_id": "ChIJJahjxkyXnjkRFKiFRxqI04o", "reference": "ChIJJahjxkyXnjkRFKiFRxqI04o", "scope": "GOOGLE", "types": ["school", "point_of_interest", "establishment"], "vicinity": "393C+8JM"}, {"business_status": "OPERATIONAL", "geometry": {"location": {"lat": 27.0536074, "lng": 80.37182179999999}, "viewport": {"northeast": {"lat": 27.0549540302915, "lng": 80.3731688802915}, "southwest": {"lat": 27.0522560697085, "lng": 80.3704709197085}}}, "icon": "https://maps.gstatic.com/mapfiles/place_api/icons/v1/png_71/school-71.png", "icon_background_color": "#7B9EB0", "icon_mask_base_uri": "https://maps.gstatic.com/mapfiles/place_api/icons/v2/school_pinlet", "name": "Karam Traders", "photos": [{"height": 3120, "html_attributions": ["<a href=\"https://maps.google.com/maps/contrib/108762507114977837004\">mohd asif</a>"], "photo_reference": "Aap_uEBLKpyaXi1LtDTp3x7AjsPDIUDUxmnMUnqNqRVy6xzRvO1bCszbGEU9rpfMMTx1F2pt09er_4-GRF63UC0-nGPnWkZSHgdUzqt2JkgNFMRZgT1gpzVTFuvgu5E97cYznm9kMrPNOqcGNgbMgxYDAavRQIZXdIfNTmCPWqGyPSMpRWvS", "width": 4160}], "place_id": "ChIJh4QjTPiXnjkRHvLbLqx3kZg", "rating": 5, "reference": "ChIJh4QjTPiXnjkRHvLbLqx3kZg", "scope": "GOOGLE", "types": ["school", "point_of_interest", "establishment"], "user_ratings_total": 1, "vicinity": "393C+CPW, Ghughera, Hiya"}, {"business_status": "OPERATIONAL", "geometry": {"location": {"lat": 27.053668, "lng": 80.37185029999999}, "viewport": {"northeast": {"lat": 27.0550138302915, "lng": 80.3731966802915}, "southwest": {"lat": 27.05231586970849, "lng": 80.3704987197085}}}, "icon": "https://maps.gstatic.com/mapfiles/place_api/icons/v1/png_71/school-71.png", "icon_background_color": "#7B9EB0", "icon_mask_base_uri": "https://maps.gstatic.com/mapfiles/place_api/icons/v2/school_pinlet", "name": "Dhudhera bazaar", "photos": [{"height": 4160, "html_attributions": ["<a href=\"https://maps.google.com/maps/contrib/104104824785048089685\">Safik Safik</a>"], "photo_reference": "Aap_uEAqgB7dbLzNPD3CIIlkydfcCQFWCLCwy4hNA0gBXFdwzcxdbRkPnEVIyss5Pnmn3EdvwmrpMu89fB1ZPI8lMCn-KhsM91SEVxkoYRQP2ZJ9TQ4vniohY3dzLq9MVzyHUWJ4CciCFhBYa-Jsfmn_kcibL16h5vGDaPbgSxaxm54zwXf3", "width": 3120}], "place_id": "ChIJb9eWkf2XnjkR7JbEqbggNfo", "plus_code": {"compound_code": "393C+FP Dhudhera, Uttar Pradesh, India", "global_code": "7MV2393C+FP"}, "reference": "ChIJb9eWkf2XnjkR7JbEqbggNfo", "scope": "GOOGLE", "types": ["school", "point_of_interest", "establishment"], "vicinity": "Unnamed Road, Dhudhera"}], "status": "OK"}