{"html_attributions": [], "results": [{"business_status": "OPERATIONAL", "geometry": {"location": {"lat": 27.36195399999999, "lng": 80.366038}, "viewport": {"northeast": {"lat": 27.3634369802915, "lng": 80.3676847302915}, "southwest": {"lat": 27.3607390197085, "lng": 80.3649867697085}}}, "icon": "https://maps.gstatic.com/mapfiles/place_api/icons/v1/png_71/school-71.png", "icon_background_color": "#7B9EB0", "icon_mask_base_uri": "https://maps.gstatic.com/mapfiles/place_api/icons/v2/school_pinlet", "name": "Maa Bhagwati Mahavidyalaya bahipara badauli hardoi", "place_id": "ChIJFUk8CfzpnjkRRgZs2vPy53Y", "reference": "ChIJFUk8CfzpnjkRRgZs2vPy53Y", "scope": "GOOGLE", "types": ["school", "point_of_interest", "establishment"], "vicinity": "9968+QCM, Badauli"}, {"business_status": "OPERATIONAL", "geometry": {"location": {"lat": 27.36082239999999, "lng": 80.3673822}, "viewport": {"northeast": {"lat": 27.3621681802915, "lng": 80.3687351302915}, "southwest": {"lat": 27.3594702197085, "lng": 80.36603716970849}}}, "icon": "https://maps.gstatic.com/mapfiles/place_api/icons/v1/png_71/school-71.png", "icon_background_color": "#7B9EB0", "icon_mask_base_uri": "https://maps.gstatic.com/mapfiles/place_api/icons/v2/school_pinlet", "name": "Shyam Sundar Inter College Shuklapur", "opening_hours": {"open_now": false}, "place_id": "ChIJzwWz6dTonjkRfkVwEQhlY-s", "plus_code": {"compound_code": "9968+8X Badauli, Uttar Pradesh, India", "global_code": "7MV29968+8X"}, "rating": 3.8, "reference": "ChIJzwWz6dTonjkRfkVwEQhlY-s", "scope": "GOOGLE", "types": ["school", "point_of_interest", "establishment"], "user_ratings_total": 5, "vicinity": "241304, Shuklapur Road, Mohammadi"}, {"business_status": "OPERATIONAL", "geometry": {"location": {"lat": 27.3632835, "lng": 80.3655619}, "viewport": {"northeast": {"lat": 27.3647366802915, "lng": 80.36700713029151}, "southwest": {"lat": 27.3620387197085, "lng": 80.3643091697085}}}, "icon": "https://maps.gstatic.com/mapfiles/place_api/icons/v1/png_71/school-71.png", "icon_background_color": "#7B9EB0", "icon_mask_base_uri": "https://maps.gstatic.com/mapfiles/place_api/icons/v2/school_pinlet", "name": "P.S. Dighiyapur", "opening_hours": {"open_now": false}, "place_id": "ChIJVdHPrSzvnjkR7tEee141WLQ", "plus_code": {"compound_code": "9978+86 Badauli, Uttar Pradesh, India", "global_code": "7MV29978+86"}, "reference": "ChIJVdHPrSzvnjkR7tEee141WLQ", "scope": "GOOGLE", "types": ["school", "point_of_interest", "establishment"], "vicinity": "Shuklapur Amethi Road, Badauli"}, {"business_status": "OPERATIONAL", "geometry": {"location": {"lat": 27.3643516, "lng": 80.3678498}, "viewport": {"northeast": {"lat": 27.36506475, "lng": 80.3685398802915}, "southwest": {"lat": 27.36221215, "lng": 80.36584191970849}}}, "icon": "https://maps.gstatic.com/mapfiles/place_api/icons/v1/png_71/school-71.png", "icon_background_color": "#7B9EB0", "icon_mask_base_uri": "https://maps.gstatic.com/mapfiles/place_api/icons/v2/school_pinlet", "name": "Adarsh Saraswati Gyan Mandir Shuklapur", "opening_hours": {"open_now": true}, "photos": [{"height": 2322, "html_attributions": ["<a href=\"https://maps.google.com/maps/contrib/101648242912183402622\">Ankit Shukla</a>"], "photo_reference": "Aap_uEBt_ElAxxms_GEQ2s_fYC-3nmM-wosbg2XjLm7AReTUMvST83st-IXXBAh0bDsggC9g_P5-MKM_uueQBN_Gx_SFcRXCrwLFXdiv2lnby6KhIlivGk6SX9DwcMb939VF87WBtiJ6fvFSb2l0Afq76yBR3Z_z_4Oi_gFkR0AcWeXdI4BS", "width": 4128}], "place_id": "ChIJCQcUGNjonjkRIyz6ZvGHV-s", "plus_code": {"compound_code": "9979+P4 Badauli, Uttar Pradesh, India", "global_code": "7MV29979+P4"}, "rating": 2.5, "reference": "ChIJCQcUGNjonjkRIyz6ZvGHV-s", "scope": "GOOGLE", "types": ["school", "point_of_interest", "establishment"], "user_ratings_total": 2, "vicinity": "Shuklapur, Badauli"}, {"business_status": "OPERATIONAL", "geometry": {"location": {"lat": 27.3658164, "lng": 80.362544}, "viewport": {"northeast": {"lat": 27.3671688802915, "lng": 80.3638947802915}, "southwest": {"lat": 27.3644709197085, "lng": 80.3611968197085}}}, "icon": "https://maps.gstatic.com/mapfiles/place_api/icons/v1/png_71/school-71.png", "icon_background_color": "#7B9EB0", "icon_mask_base_uri": "https://maps.gstatic.com/mapfiles/place_api/icons/v2/school_pinlet", "name": "Ma Bhagwati Inter College", "place_id": "ChIJRSXrY6HvnjkR-ozsvANpB1k", "plus_code": {"compound_code": "9987+82 Hunsepur, Uttar Pradesh, India", "global_code": "7MV29987+82"}, "rating": 3, "reference": "ChIJRSXrY6HvnjkR-ozsvANpB1k", "scope": "GOOGLE", "types": ["school", "point_of_interest", "establishment"], "user_ratings_total": 1, "vicinity": "Sitapur - Hardoi Road, Hunsepur"}, {"business_status": "OPERATIONAL", "geometry": {"location": {"lat": 27.35524149999999, "lng": 80.3684322}, "viewport": {"northeast": {"lat": 27.3564970302915, "lng": 80.36996648029152}, "southwest": {"lat": 27.3537990697085, "lng": 80.36726851970852}}}, "icon": "https://maps.gstatic.com/mapfiles/place_api/icons/v1/png_71/school-71.png", "icon_background_color": "#7B9EB0", "icon_mask_base_uri": "https://maps.gstatic.com/mapfiles/place_api/icons/v2/school_pinlet", "name": "P.S. Dighiya", "opening_hours": {"open_now": false}, "place_id": "ChIJs6uE9irpnjkR7Hc5F0YzLU0", "reference": "ChIJs6uE9irpnjkR7Hc5F0YzLU0", "scope": "GOOGLE", "types": ["school", "point_of_interest", "establishment"], "vicinity": "9949+39V, Dighiya"}, {"business_status": "OPERATIONAL", "geometry": {"location": {"lat": 27.3669209, "lng": 80.3608194}, "viewport": {"northeast": {"lat": 27.3681983802915, "lng": 80.36230073029151}, "southwest": {"lat": 27.3655004197085, "lng": 80.3596027697085}}}, "icon": "https://maps.gstatic.com/mapfiles/place_api/icons/v1/png_71/school-71.png", "icon_background_color": "#7B9EB0", "icon_mask_base_uri": "https://maps.gstatic.com/mapfiles/place_api/icons/v2/school_pinlet", "name": "S s inter college sitapur road hardoi", "opening_hours": {"open_now": false}, "photos": [{"height": 1080, "html_attributions": ["<a href=\"https://maps.google.com/maps/contrib/101347931063471498118\">manish k pal personal blog</a>"], "photo_reference": "Aap_uEA14uMm16uagM84ox7ViGcSZSqBtWU2HR9s92Ljq53twijPpfRLBuhYt3FfxeCRqe18_pWQe5-g2XJiLxSjMnQCeupV0gXti4AVcMHfiCS7Uqsh2FRZpY76yAo1yQ_E862pKBK_0B3wKQLNA69ka5bWv5xWZrrd7ZElx-DXY1UEjWls", "width": 1920}], "place_id": "ChIJrSgAFg3vnjkRWLdqF2nW2UU", "plus_code": {"compound_code": "9986+Q8 Saripur Bramhnan, Uttar Pradesh, India", "global_code": "7MV29986+Q8"}, "rating": 5, "reference": "ChIJrSgAFg3vnjkRWLdqF2nW2UU", "scope": "GOOGLE", "types": ["school", "point_of_interest", "establishment"], "user_ratings_total": 1, "vicinity": "MDR 27C, Saripur Bramhnan"}, {"business_status": "OPERATIONAL", "geometry": {"location": {"lat": 27.3688065, "lng": 80.3720702}, "viewport": {"northeast": {"lat": 27.3701495302915, "lng": 80.3734276802915}, "southwest": {"lat": 27.3674515697085, "lng": 80.37072971970849}}}, "icon": "https://maps.gstatic.com/mapfiles/place_api/icons/v1/png_71/school-71.png", "icon_background_color": "#7B9EB0", "icon_mask_base_uri": "https://maps.gstatic.com/mapfiles/place_api/icons/v2/school_pinlet", "name": "P.S. BAKSAPUR", "opening_hours": {"open_now": true}, "place_id": "ChIJF-Egk57pnjkRHAphOnRaVn4", "reference": "ChIJF-Egk57pnjkRHAphOnRaVn4", "scope": "GOOGLE", "types": ["school", "point_of_interest", "establishment"], "vicinity": "999C+GRG, Baksapur"}, {"business_status": "OPERATIONAL", "geometry": {"location": {"lat": 27.3683107, "lng": 80.3600797}, "viewport": {"northeast": {"lat": 27.3694974802915, "lng": 80.36147348029151}, "southwest": {"lat": 27.36679951970849, "lng": 80.35877551970849}}}, "icon": "https://maps.gstatic.com/mapfiles/place_api/icons/v1/png_71/school-71.png", "icon_background_color": "#7B9EB0", "icon_mask_base_uri": "https://maps.gstatic.com/mapfiles/place_api/icons/v2/school_pinlet", "name": "P.S. BADAULI", "place_id": "ChIJmxA9tI3vnjkR5RxV8Z2K8_I", "reference": "ChIJmxA9tI3vnjkR5RxV8Z2K8_I", "scope": "GOOGLE", "types": ["school", "point_of_interest", "establishment"], "vicinity": "9996+82G, Badauli"}, {"business_status": "OPERATIONAL", "geometry": {"location": {"lat": 27.3691285, "lng": 80.3736029}, "viewport": {"northeast": {"lat": 27.3706071302915, "lng": 80.37468988029151}, "southwest": {"lat": 27.36790916970849, "lng": 80.3719919197085}}}, "icon": "https://maps.gstatic.com/mapfiles/place_api/icons/v1/png_71/school-71.png", "icon_background_color": "#7B9EB0", "icon_mask_base_uri": "https://maps.gstatic.com/mapfiles/place_api/icons/v2/school_pinlet", "name": "J.H.S. BAKSAPUR", "opening_hours": {"open_now": false}, "place_id": "ChIJvRErFa7pnjkRgrdWlLp7WxY", "reference": "ChIJvRErFa7pnjkRgrdWlLp7WxY", "scope": "GOOGLE", "types": ["school", "point_of_interest", "establishment"], "vicinity": "999F+MC5, Baksapur"}, {"business_status": "OPERATIONAL", "geometry": {"location": {"lat": 27.3616226, "lng": 80.3791432}, "viewport": {"northeast": {"lat": 27.3630045802915, "lng": 80.3805109302915}, "southwest": {"lat": 27.3603066197085, "lng": 80.3778129697085}}}, "icon": "https://maps.gstatic.com/mapfiles/place_api/icons/v1/png_71/school-71.png", "icon_background_color": "#7B9EB0", "icon_mask_base_uri": "https://maps.gstatic.com/mapfiles/place_api/icons/v2/school_pinlet", "name": "P.S. Kuiyan", "opening_hours": {"open_now": false}, "place_id": "ChIJd4YmpdnonjkR-T-jTZVPzdk", "reference": "ChIJd4YmpdnonjkR-T-jTZVPzdk", "scope": "GOOGLE", "types": ["school", "point_of_interest", "establishment"], "vicinity": "996H+JMR, Baksapur"}, {"business_status": "OPERATIONAL", "geometry": {"location": {"lat": 27.3607781, "lng": 80.3797834}, "viewport": {"northeast": {"lat": 27.3624726302915, "lng": 80.38133838029151}, "southwest": {"lat": 27.3597746697085, "lng": 80.37864041970849}}}, "icon": "https://maps.gstatic.com/mapfiles/place_api/icons/v1/png_71/school-71.png", "icon_background_color": "#7B9EB0", "icon_mask_base_uri": "https://maps.gstatic.com/mapfiles/place_api/icons/v2/school_pinlet", "name": "\u0906\u0926\u0930\u094d\u0936 \u0938\u0930\u0938\u094d\u0935\u0924\u0940 \u091c\u094d\u091e\u093e\u0928 \u091c\u0942\u0928\u093f\u092f\u0930 \u0939\u093e\u0908 \u0938\u094d\u0915\u0942\u0932 \u0936\u0941\u0915\u094d\u0932\u093e\u092a\u0941\u0930", "place_id": "ChIJDcQzjOjpnjkRX07-lLP7vYY", "plus_code": {"compound_code": "996H+8W Baksapur, Uttar Pradesh, India", "global_code": "7MV2996H+8W"}, "reference": "ChIJDcQzjOjpnjkRX07-lLP7vYY", "scope": "GOOGLE", "types": ["school", "point_of_interest", "establishment"], "vicinity": "Shuklapur kuiyan, Baksapur"}, {"business_status": "OPERATIONAL", "geometry": {"location": {"lat": 27.37368409999999, "lng": 80.3667625}, "viewport": {"northeast": {"lat": 27.37532128029149, "lng": 80.3683631302915}, "southwest": {"lat": 27.37262331970849, "lng": 80.36566516970849}}}, "icon": "https://maps.gstatic.com/mapfiles/place_api/icons/v1/png_71/school-71.png", "icon_background_color": "#7B9EB0", "icon_mask_base_uri": "https://maps.gstatic.com/mapfiles/place_api/icons/v2/school_pinlet", "name": "Adarsh Saraswati Gyan Mandir J.H.S. Shuklapur Hardoi", "place_id": "ChIJlfQsu8zonjkRpmdCGseis1E", "rating": 5, "reference": "ChIJlfQsu8zonjkRpmdCGseis1E", "scope": "GOOGLE", "types": ["school", "point_of_interest", "establishment"], "user_ratings_total": 1, "vicinity": "99F8+FPC, Badauli"}, {"business_status": "OPERATIONAL", "geometry": {"location": {"lat": 27.3629497, "lng": 80.3802815}, "viewport": {"northeast": {"lat": 27.3642506802915, "lng": 80.38159698029149}, "southwest": {"lat": 27.3615527197085, "lng": 80.37889901970848}}}, "icon": "https://maps.gstatic.com/mapfiles/place_api/icons/v1/png_71/school-71.png", "icon_background_color": "#7B9EB0", "icon_mask_base_uri": "https://maps.gstatic.com/mapfiles/place_api/icons/v2/school_pinlet", "name": "Devriya yahan per kahan padati hai", "place_id": "ChIJEzhuQ5bpnjkRFlF7l3Zi3U0", "plus_code": {"compound_code": "997J+54 Baksapur, Uttar Pradesh, India", "global_code": "7MV2997J+54"}, "reference": "ChIJEzhuQ5bpnjkRFlF7l3Zi3U0", "scope": "GOOGLE", "types": ["school", "point_of_interest", "establishment"], "vicinity": "Unnamed Road, Baksapur"}], "status": "OK"}