{"html_attributions": [], "results": [{"business_status": "OPERATIONAL", "geometry": {"location": {"lat": 27.7779705, "lng": 80.3599229}, "viewport": {"northeast": {"lat": 27.7791253802915, "lng": 80.3611252302915}, "southwest": {"lat": 27.7764274197085, "lng": 80.3584272697085}}}, "icon": "https://maps.gstatic.com/mapfiles/place_api/icons/v1/png_71/school-71.png", "icon_background_color": "#7B9EB0", "icon_mask_base_uri": "https://maps.gstatic.com/mapfiles/place_api/icons/v2/school_pinlet", "name": "Shiv Madhuri Vidyalaya, Takiyapar", "photos": [{"height": 3136, "html_attributions": ["<a href=\"https://maps.google.com/maps/contrib/104479133806757461257\">rahul rahul</a>"], "photo_reference": "Aap_uEApJ1PkD0BqfNMyWcFjpibBx0Ku8sT_oAWL2ir-MQTCE7VD69hsL603dJ_ZIoREC7Wv-sSV4IJHSRSgcgmOn7_xbyWnzhnDkK_gVxJmKCC2le6f2wDmgMfS1BxdEyuTfXMkZLF_f2VYPbQ1TW2O-xf1UtxntPl0HSiXF2orkaSI4h6A", "width": 1568}], "place_id": "ChIJAQAA8KYQnzkRdnzUQ5pb2DA", "plus_code": {"compound_code": "Q9H5+5X Aurangabad, Uttar Pradesh, India", "global_code": "7MV2Q9H5+5X"}, "rating": 5, "reference": "ChIJAQAA8KYQnzkRdnzUQ5pb2DA", "scope": "GOOGLE", "types": ["school", "point_of_interest", "establishment"], "user_ratings_total": 1, "vicinity": "UP, Aurangabad"}, {"business_status": "OPERATIONAL", "geometry": {"location": {"lat": 27.7772862, "lng": 80.3559502}, "viewport": {"northeast": {"lat": 27.7785788302915, "lng": 80.35732083029151}, "southwest": {"lat": 27.77588086970849, "lng": 80.3546228697085}}}, "icon": "https://maps.gstatic.com/mapfiles/place_api/icons/v1/png_71/school-71.png", "icon_background_color": "#7B9EB0", "icon_mask_base_uri": "https://maps.gstatic.com/mapfiles/place_api/icons/v2/school_pinlet", "name": "\u092a\u094d\u0930\u093e\u0925\u092e\u093f\u0915 \u0935\u093f\u0926\u094d\u092f\u093e\u0932\u092f \u0916\u0947\u0930\u093e \u092e\u094b\u0939\u0932\u094d\u0932\u093e", "place_id": "ChIJsbPYYKgQnzkRZHCb7elIH10", "reference": "ChIJsbPYYKgQnzkRZHCb7elIH10", "scope": "GOOGLE", "types": ["school", "point_of_interest", "establishment"], "vicinity": "Q9G4+W98, Lakhimpur"}, {"business_status": "OPERATIONAL", "geometry": {"location": {"lat": 27.7770014, "lng": 80.35605269999999}, "viewport": {"northeast": {"lat": 27.7784354802915, "lng": 80.3573689802915}, "southwest": {"lat": 27.7757375197085, "lng": 80.35467101970849}}}, "icon": "https://maps.gstatic.com/mapfiles/place_api/icons/v1/png_71/school-71.png", "icon_background_color": "#7B9EB0", "icon_mask_base_uri": "https://maps.gstatic.com/mapfiles/place_api/icons/v2/school_pinlet", "name": "\u0924\u093f\u0935\u093e\u0930\u0940 \u0939\u0935\u0947\u0932\u0940", "photos": [{"height": 1280, "html_attributions": ["<a href=\"https://maps.google.com/maps/contrib/106423648611752470110\">P.K MISHRA 9566</a>"], "photo_reference": "Aap_uEDt6lJQX2sR-hEYoOqzJxCa-IKanzUitK0gThS18dhG9CPQHjZDo5my1uy98tIgWzIu4rXosel_TAF66owT7ovIxB-8jtVynUYwC69RNNiKLxTEA4WfEvOcnfq4DHdVvgt-kgoCMcdDnjZSPqzwjSyv4CDembvzxhbPTPwtxTkxu_E6", "width": 720}], "place_id": "ChIJ270luIURnzkR1hB_1RNv8Ng", "plus_code": {"compound_code": "Q9G4+RC Aurangabad, Uttar Pradesh, India", "global_code": "7MV2Q9G4+RC"}, "reference": "ChIJ270luIURnzkR1hB_1RNv8Ng", "scope": "GOOGLE", "types": ["school", "point_of_interest", "establishment"], "vicinity": "Unnamed Road, Aurangabad"}, {"business_status": "OPERATIONAL", "geometry": {"location": {"lat": 27.7932974, "lng": 80.3653429}, "viewport": {"northeast": {"lat": 27.79456948029151, "lng": 80.3666153802915}, "southwest": {"lat": 27.7918715197085, "lng": 80.3639174197085}}}, "icon": "https://maps.gstatic.com/mapfiles/place_api/icons/v1/png_71/school-71.png", "icon_background_color": "#7B9EB0", "icon_mask_base_uri": "https://maps.gstatic.com/mapfiles/place_api/icons/v2/school_pinlet", "name": "Dhakhiya Davi", "opening_hours": {"open_now": true}, "place_id": "ChIJpw8ltwQRnzkRgTpHO4ymwwk", "plus_code": {"compound_code": "Q9V8+84 Tirkapur, Uttar Pradesh, India", "global_code": "7MV2Q9V8+84"}, "reference": "ChIJpw8ltwQRnzkRgTpHO4ymwwk", "scope": "GOOGLE", "types": ["school", "point_of_interest", "establishment"], "vicinity": "Village-Dhakhiya Davi Post office-Khamhariya , Thana-Mangal ganj, Tahseel-Mithila"}], "status": "OK"}