{"html_attributions": [], "results": [{"business_status": "OPERATIONAL", "geometry": {"location": {"lat": 27.2606662, "lng": 80.3874695}, "viewport": {"northeast": {"lat": 27.2620147802915, "lng": 80.3888510802915}, "southwest": {"lat": 27.25931681970849, "lng": 80.38615311970848}}}, "icon": "https://maps.gstatic.com/mapfiles/place_api/icons/v1/png_71/school-71.png", "icon_background_color": "#7B9EB0", "icon_mask_base_uri": "https://maps.gstatic.com/mapfiles/place_api/icons/v2/school_pinlet", "name": "Prathmik vidyalay santa", "photos": [{"height": 4144, "html_attributions": ["<a href=\"https://maps.google.com/maps/contrib/106218392902446997625\">Veer sen Kashyap</a>"], "photo_reference": "Aap_uEAhgidu6Ku8bc4r4m1k-M14XRtYSEtm5F6sI9n1a6dl1sERzE_eGEufJwpOEiDB-lEMZY0kZfcc5hYBN2OQfyp_sHGDYfxUCwPAdoFECPimg_yqnXtC_1M1YlIn5_BsoCiKThqDXxcAJl2SxzmeIrZcUItcdO_eVcOrS_iRyJmhorGW", "width": 1968}], "place_id": "ChIJaf_wLirrnjkRUW3JB_aYLAs", "plus_code": {"compound_code": "796P+7X Umrari, Uttar Pradesh, India", "global_code": "7MV2796P+7X"}, "reference": "ChIJaf_wLirrnjkRUW3JB_aYLAs", "scope": "GOOGLE", "types": ["school", "point_of_interest", "establishment"], "vicinity": "Unnamed Road, Umrari"}, {"business_status": "OPERATIONAL", "geometry": {"location": {"lat": 27.2678034, "lng": 80.38531669999999}, "viewport": {"northeast": {"lat": 27.26879, "lng": 80.38729113029152}, "southwest": {"lat": 27.2648436, "lng": 80.3845931697085}}}, "icon": "https://maps.gstatic.com/mapfiles/place_api/icons/v1/png_71/school-71.png", "icon_background_color": "#7B9EB0", "icon_mask_base_uri": "https://maps.gstatic.com/mapfiles/place_api/icons/v2/school_pinlet", "name": "Lallan", "place_id": "ChIJrxjISd7rnjkR6YLmVTE-pCI", "reference": "ChIJrxjISd7rnjkR6YLmVTE-pCI", "scope": "GOOGLE", "types": ["school", "point_of_interest", "establishment"], "vicinity": "799P+44G, Umrari"}, {"business_status": "OPERATIONAL", "geometry": {"location": {"lat": 27.2641442, "lng": 80.39572969999999}, "viewport": {"northeast": {"lat": 27.2655462802915, "lng": 80.3968881802915}, "southwest": {"lat": 27.2628483197085, "lng": 80.39419021970848}}}, "icon": "https://maps.gstatic.com/mapfiles/place_api/icons/v1/png_71/school-71.png", "icon_background_color": "#7B9EB0", "icon_mask_base_uri": "https://maps.gstatic.com/mapfiles/place_api/icons/v2/school_pinlet", "name": "Baldev purwa and chiroli Purwa", "photos": [{"height": 4000, "html_attributions": ["<a href=\"https://maps.google.com/maps/contrib/109937678543493302407\">Kapil Kapil</a>"], "photo_reference": "Aap_uEC31RIVzSzOHi6KdHlRNv3_ZyWie9f-fLYaKWNFac9GnyFfmBkYSGDUhoO8QnNCWgvDG5FZi2F4wm31F3cTB1NUHRDwAhImL2qoeVkIwmmbOO81qwv0bX4ebfko2ERCUa0-y_ZuxCd2lqD_Dt1MZ8cRvMnT9rCqIztYHclAzFJ8vVLW", "width": 3000}], "place_id": "ChIJufekGrvrnjkRdtz4UuObXVs", "plus_code": {"compound_code": "797W+M7 Beniganj, Uttar Pradesh, India", "global_code": "7MV2797W+M7"}, "reference": "ChIJufekGrvrnjkRdtz4UuObXVs", "scope": "GOOGLE", "types": ["primary_school", "school", "point_of_interest", "establishment"], "vicinity": "Post umrari, Beniganj"}, {"business_status": "OPERATIONAL", "geometry": {"location": {"lat": 27.2734408, "lng": 80.3901329}, "viewport": {"northeast": {"lat": 27.2748222802915, "lng": 80.39144073029149}, "southwest": {"lat": 27.2721243197085, "lng": 80.38874276970849}}}, "icon": "https://maps.gstatic.com/mapfiles/place_api/icons/v1/png_71/school-71.png", "icon_background_color": "#7B9EB0", "icon_mask_base_uri": "https://maps.gstatic.com/mapfiles/place_api/icons/v2/school_pinlet", "name": "Upendra mishra", "place_id": "ChIJ_4kM6QTrnjkR4xNwxAHKXyo", "rating": 5, "reference": "ChIJ_4kM6QTrnjkR4xNwxAHKXyo", "scope": "GOOGLE", "types": ["school", "point_of_interest", "establishment"], "user_ratings_total": 1, "vicinity": "79FR+93C, Umrari"}, {"business_status": "OPERATIONAL", "geometry": {"location": {"lat": 27.2604111, "lng": 80.3891689}, "viewport": {"northeast": {"lat": 27.2617600802915, "lng": 80.3905178802915}, "southwest": {"lat": 27.2590621197085, "lng": 80.38781991970849}}}, "icon": "https://maps.gstatic.com/mapfiles/place_api/icons/v1/png_71/school-71.png", "icon_background_color": "#7B9EB0", "icon_mask_base_uri": "https://maps.gstatic.com/mapfiles/place_api/icons/v2/school_pinlet", "name": "\u0938\u093e\u0902\u0924\u093e SANTA \u092e\u091c\u0930\u093e \u0906\u0901\u091f \u0938\u093e\u091f", "place_id": "ChIJj-Bchb7rnjkRpN06YGI8vM8", "plus_code": {"compound_code": "796Q+5M Umrari, Uttar Pradesh, India", "global_code": "7MV2796Q+5M"}, "reference": "ChIJj-Bchb7rnjkRpN06YGI8vM8", "scope": "GOOGLE", "types": ["school", "point_of_interest", "establishment"], "vicinity": "Unnamed Road, Umrari"}], "status": "OK"}