{"html_attributions": [], "results": [{"business_status": "OPERATIONAL", "geometry": {"location": {"lat": 27.3629497, "lng": 80.3802815}, "viewport": {"northeast": {"lat": 27.3642506802915, "lng": 80.38159698029149}, "southwest": {"lat": 27.3615527197085, "lng": 80.37889901970848}}}, "icon": "https://maps.gstatic.com/mapfiles/place_api/icons/v1/png_71/school-71.png", "icon_background_color": "#7B9EB0", "icon_mask_base_uri": "https://maps.gstatic.com/mapfiles/place_api/icons/v2/school_pinlet", "name": "Devriya yahan per kahan padati hai", "place_id": "ChIJEzhuQ5bpnjkRFlF7l3Zi3U0", "plus_code": {"compound_code": "997J+54 Baksapur, Uttar Pradesh, India", "global_code": "7MV2997J+54"}, "reference": "ChIJEzhuQ5bpnjkRFlF7l3Zi3U0", "scope": "GOOGLE", "types": ["school", "point_of_interest", "establishment"], "vicinity": "Unnamed Road, Baksapur"}, {"business_status": "OPERATIONAL", "geometry": {"location": {"lat": 27.3648307, "lng": 80.39322489999999}, "viewport": {"northeast": {"lat": 27.3661932802915, "lng": 80.39454938029151}, "southwest": {"lat": 27.36349531970849, "lng": 80.39185141970849}}}, "icon": "https://maps.gstatic.com/mapfiles/place_api/icons/v1/png_71/school-71.png", "icon_background_color": "#7B9EB0", "icon_mask_base_uri": "https://maps.gstatic.com/mapfiles/place_api/icons/v2/school_pinlet", "name": "P. S. Sadiapur", "opening_hours": {"open_now": false}, "photos": [{"height": 2304, "html_attributions": ["<a href=\"https://maps.google.com/maps/contrib/101887266210870808409\">Rajat Srivastav</a>"], "photo_reference": "Aap_uED-y0Mj-Fc04WRIS2Kms0HLdSEbb-wocsE3m_xAUqrd1Fpr0OYGWXkgHpE3pCsR6t3xdC80kXVKm6kZrgcfwMaBbAY69arFIkkidqNo4uN9F2mZPBf1VWT3Hq99ms6o1FRGZ-8ul4mBNoveCJteI5Qu6zsjQTVzxUSlBDe09p9IS0pQ", "width": 4096}], "place_id": "ChIJAQAAwBzpnjkRddTA6JzQpJw", "rating": 4, "reference": "ChIJAQAAwBzpnjkRddTA6JzQpJw", "scope": "GOOGLE", "types": ["school", "point_of_interest", "establishment"], "user_ratings_total": 1, "vicinity": "997V+W7Q, Sadiapur"}, {"business_status": "OPERATIONAL", "geometry": {"location": {"lat": 27.3607781, "lng": 80.3797834}, "viewport": {"northeast": {"lat": 27.3624726302915, "lng": 80.38133838029151}, "southwest": {"lat": 27.3597746697085, "lng": 80.37864041970849}}}, "icon": "https://maps.gstatic.com/mapfiles/place_api/icons/v1/png_71/school-71.png", "icon_background_color": "#7B9EB0", "icon_mask_base_uri": "https://maps.gstatic.com/mapfiles/place_api/icons/v2/school_pinlet", "name": "\u0906\u0926\u0930\u094d\u0936 \u0938\u0930\u0938\u094d\u0935\u0924\u0940 \u091c\u094d\u091e\u093e\u0928 \u091c\u0942\u0928\u093f\u092f\u0930 \u0939\u093e\u0908 \u0938\u094d\u0915\u0942\u0932 \u0936\u0941\u0915\u094d\u0932\u093e\u092a\u0941\u0930", "place_id": "ChIJDcQzjOjpnjkRX07-lLP7vYY", "plus_code": {"compound_code": "996H+8W Baksapur, Uttar Pradesh, India", "global_code": "7MV2996H+8W"}, "reference": "ChIJDcQzjOjpnjkRX07-lLP7vYY", "scope": "GOOGLE", "types": ["school", "point_of_interest", "establishment"], "vicinity": "Shuklapur kuiyan, Baksapur"}, {"business_status": "OPERATIONAL", "geometry": {"location": {"lat": 27.3616226, "lng": 80.3791432}, "viewport": {"northeast": {"lat": 27.3630045802915, "lng": 80.3805109302915}, "southwest": {"lat": 27.3603066197085, "lng": 80.3778129697085}}}, "icon": "https://maps.gstatic.com/mapfiles/place_api/icons/v1/png_71/school-71.png", "icon_background_color": "#7B9EB0", "icon_mask_base_uri": "https://maps.gstatic.com/mapfiles/place_api/icons/v2/school_pinlet", "name": "P.S. Kuiyan", "opening_hours": {"open_now": false}, "place_id": "ChIJd4YmpdnonjkR-T-jTZVPzdk", "reference": "ChIJd4YmpdnonjkR-T-jTZVPzdk", "scope": "GOOGLE", "types": ["school", "point_of_interest", "establishment"], "vicinity": "996H+JMR, Baksapur"}, {"business_status": "OPERATIONAL", "geometry": {"location": {"lat": 27.3686038, "lng": 80.3812082}, "viewport": {"northeast": {"lat": 27.3698826802915, "lng": 80.3825202302915}, "southwest": {"lat": 27.36718471970849, "lng": 80.37982226970848}}}, "icon": "https://maps.gstatic.com/mapfiles/place_api/icons/v1/png_71/school-71.png", "icon_background_color": "#7B9EB0", "icon_mask_base_uri": "https://maps.gstatic.com/mapfiles/place_api/icons/v2/school_pinlet", "name": "P.S. Daulatpur", "opening_hours": {"open_now": false}, "place_id": "ChIJz39dR9vonjkRh4ySd7hOqoU", "rating": 5, "reference": "ChIJz39dR9vonjkRh4ySd7hOqoU", "scope": "GOOGLE", "types": ["school", "point_of_interest", "establishment"], "user_ratings_total": 1, "vicinity": "999J+CFW, Baksapur"}, {"business_status": "OPERATIONAL", "geometry": {"location": {"lat": 27.3583462, "lng": 80.3965762}, "viewport": {"northeast": {"lat": 27.3597436802915, "lng": 80.39794788029153}, "southwest": {"lat": 27.3570457197085, "lng": 80.3952499197085}}}, "icon": "https://maps.gstatic.com/mapfiles/place_api/icons/v1/png_71/school-71.png", "icon_background_color": "#7B9EB0", "icon_mask_base_uri": "https://maps.gstatic.com/mapfiles/place_api/icons/v2/school_pinlet", "name": "P.S. Ekghara First", "opening_hours": {"open_now": false}, "place_id": "ChIJn0AjeB3pnjkR602Q0SUThYs", "reference": "ChIJn0AjeB3pnjkR602Q0SUThYs", "scope": "GOOGLE", "types": ["school", "point_of_interest", "establishment"], "vicinity": "995W+8JP, Ekghara"}, {"business_status": "OPERATIONAL", "geometry": {"location": {"lat": 27.3621198, "lng": 80.3978446}, "viewport": {"northeast": {"lat": 27.3634352802915, "lng": 80.3992325302915}, "southwest": {"lat": 27.36073731970849, "lng": 80.39653456970848}}}, "icon": "https://maps.gstatic.com/mapfiles/place_api/icons/v1/png_71/school-71.png", "icon_background_color": "#7B9EB0", "icon_mask_base_uri": "https://maps.gstatic.com/mapfiles/place_api/icons/v2/school_pinlet", "name": "Ekghara", "photos": [{"height": 1970, "html_attributions": ["<a href=\"https://maps.google.com/maps/contrib/102378080368268041732\">Kashyap Roli</a>"], "photo_reference": "Aap_uEAI5qcQJJYeWc2tUH6A5makrrOnd84ml4vh9889f6NSb1mrQiitF5OSu2xgBLrx6f3q_2L26hAh8B_5_yXD4PKw5q8Q6e97MY1k-frgqxs3dHnYUxEGkkzZ2W24nW0oSrQB2Ms7YAgtSqpjUyRR3VAV32LlFVJ1l9-BXdBgpXbC_gZh", "width": 4160}], "place_id": "ChIJuTMLWtjpnjkRGjh2OJm-3oE", "plus_code": {"compound_code": "996X+R4 Akbarpur, Uttar Pradesh, India", "global_code": "7MV2996X+R4"}, "rating": 3, "reference": "ChIJuTMLWtjpnjkRGjh2OJm-3oE", "scope": "GOOGLE", "types": ["secondary_school", "school", "point_of_interest", "establishment"], "user_ratings_total": 1, "vicinity": "Unnamed Road, ek ghara"}, {"business_status": "OPERATIONAL", "geometry": {"location": {"lat": 27.3723887, "lng": 80.39028979999999}, "viewport": {"northeast": {"lat": 27.37371373029151, "lng": 80.3916905802915}, "southwest": {"lat": 27.3710157697085, "lng": 80.38899261970847}}}, "icon": "https://maps.gstatic.com/mapfiles/place_api/icons/v1/png_71/school-71.png", "icon_background_color": "#7B9EB0", "icon_mask_base_uri": "https://maps.gstatic.com/mapfiles/place_api/icons/v2/school_pinlet", "name": "PS Akbarpur sadiya", "place_id": "ChIJYxWU5gfpnjkR206g18w4Zfc", "plus_code": {"compound_code": "99CR+X4 Maheen Kund, Uttar Pradesh, India", "global_code": "7MV299CR+X4"}, "reference": "ChIJYxWU5gfpnjkR206g18w4Zfc", "scope": "GOOGLE", "types": ["primary_school", "school", "point_of_interest", "establishment"], "vicinity": "H No 103, Akbarpur, Post Kuinyan, Maheen Kund"}, {"business_status": "OPERATIONAL", "geometry": {"location": {"lat": 27.3733395, "lng": 80.39279859999999}, "viewport": {"northeast": {"lat": 27.3745923802915, "lng": 80.39415903029149}, "southwest": {"lat": 27.3718944197085, "lng": 80.39146106970848}}}, "icon": "https://maps.gstatic.com/mapfiles/place_api/icons/v1/png_71/school-71.png", "icon_background_color": "#7B9EB0", "icon_mask_base_uri": "https://maps.gstatic.com/mapfiles/place_api/icons/v2/school_pinlet", "name": "U.P.S Akabrpur Sadia", "opening_hours": {"open_now": false}, "place_id": "ChIJM5Z1J-nonjkRI18IOEsW7vE", "rating": 5, "reference": "ChIJM5Z1J-nonjkRI18IOEsW7vE", "scope": "GOOGLE", "types": ["school", "point_of_interest", "establishment"], "user_ratings_total": 1, "vicinity": "99FV+84M, Akbarpur, Sadia"}], "status": "OK"}