{"html_attributions": [], "results": [{"business_status": "OPERATIONAL", "geometry": {"location": {"lat": 27.2643013, "lng": 80.4151325}, "viewport": {"northeast": {"lat": 27.2656795802915, "lng": 80.41641508029151}, "southwest": {"lat": 27.2629816197085, "lng": 80.4137171197085}}}, "icon": "https://maps.gstatic.com/mapfiles/place_api/icons/v1/png_71/school-71.png", "icon_background_color": "#7B9EB0", "icon_mask_base_uri": "https://maps.gstatic.com/mapfiles/place_api/icons/v2/school_pinlet", "name": "\u092a\u094d\u0930\u093e\u0925\u092e\u093f\u0915 \u0935\u093f\u0926\u094d\u092f\u093e\u0932\u092f\u2013\u092e\u0941\u0920\u093f\u092f\u093e", "place_id": "ChIJd7qM8rXrnjkRG0JGIdsG4_Y", "plus_code": {"compound_code": "7C78+P3 Kothawan, Uttar Pradesh, India", "global_code": "7MV27C78+P3"}, "reference": "ChIJd7qM8rXrnjkRG0JGIdsG4_Y", "scope": "GOOGLE", "types": ["school", "point_of_interest", "establishment"], "vicinity": "Village:Muthiya, Block, Kothawan"}, {"business_status": "OPERATIONAL", "geometry": {"location": {"lat": 27.2534233, "lng": 80.4050433}, "viewport": {"northeast": {"lat": 27.2547759302915, "lng": 80.40638498029149}, "southwest": {"lat": 27.25207796970849, "lng": 80.40368701970849}}}, "icon": "https://maps.gstatic.com/mapfiles/place_api/icons/v1/png_71/school-71.png", "icon_background_color": "#7B9EB0", "icon_mask_base_uri": "https://maps.gstatic.com/mapfiles/place_api/icons/v2/school_pinlet", "name": "Prathmic Vidayalay Manpur", "opening_hours": {"open_now": false}, "place_id": "ChIJ_77QoRzrnjkROnKZ9Iijq0k", "rating": 3, "reference": "ChIJ_77QoRzrnjkROnKZ9Iijq0k", "scope": "GOOGLE", "types": ["school", "point_of_interest", "establishment"], "user_ratings_total": 2, "vicinity": "7C34+927, Muthiya"}, {"business_status": "OPERATIONAL", "geometry": {"location": {"lat": 27.2641442, "lng": 80.39572969999999}, "viewport": {"northeast": {"lat": 27.2655462802915, "lng": 80.3968881802915}, "southwest": {"lat": 27.2628483197085, "lng": 80.39419021970848}}}, "icon": "https://maps.gstatic.com/mapfiles/place_api/icons/v1/png_71/school-71.png", "icon_background_color": "#7B9EB0", "icon_mask_base_uri": "https://maps.gstatic.com/mapfiles/place_api/icons/v2/school_pinlet", "name": "Baldev purwa and chiroli Purwa", "photos": [{"height": 4000, "html_attributions": ["<a href=\"https://maps.google.com/maps/contrib/109937678543493302407\">Kapil Kapil</a>"], "photo_reference": "Aap_uEDR8-YntWd1wJ6mA5doKlh3Kt-2ywQ8W8fKavAFJiSX6dLpstzYZ_tfrfMXLqToaVLL40w8lsHQYvQMsWwxIqsONEEQoHkgm60jhlNrIbpVWDK3eguH4OFwn5c8FpK7wjZPg_6zyFSApjmNg9Zsz1Q6kO8qFPaVoYrFxtv8xgNeiXRx", "width": 3000}], "place_id": "ChIJufekGrvrnjkRdtz4UuObXVs", "plus_code": {"compound_code": "797W+M7 Beniganj, Uttar Pradesh, India", "global_code": "7MV2797W+M7"}, "reference": "ChIJufekGrvrnjkRdtz4UuObXVs", "scope": "GOOGLE", "types": ["primary_school", "school", "point_of_interest", "establishment"], "vicinity": "Post umrari, Beniganj"}, {"business_status": "OPERATIONAL", "geometry": {"location": {"lat": 27.2728439, "lng": 80.4144062}, "viewport": {"northeast": {"lat": 27.2742313302915, "lng": 80.41570913029152}, "southwest": {"lat": 27.2715333697085, "lng": 80.4130111697085}}}, "icon": "https://maps.gstatic.com/mapfiles/place_api/icons/v1/png_71/school-71.png", "icon_background_color": "#7B9EB0", "icon_mask_base_uri": "https://maps.gstatic.com/mapfiles/place_api/icons/v2/school_pinlet", "name": "\u092a\u094d\u0930\u093e\u0925\u092e\u093f\u0915 \u0935\u093f\u0927\u093e\u0932\u092f \u0915\u092e\u0932\u093e\u092a\u0941\u0930", "place_id": "ChIJs1xoHbnrnjkRUkjPykDVUM4", "plus_code": {"compound_code": "7CF7+4Q Girdharpur, Uttar Pradesh, India", "global_code": "7MV27CF7+4Q"}, "reference": "ChIJs1xoHbnrnjkRUkjPykDVUM4", "scope": "GOOGLE", "types": ["school", "point_of_interest", "establishment"], "vicinity": "Road, Girdharpur"}], "status": "OK"}