{"html_attributions": [], "results": [{"business_status": "OPERATIONAL", "geometry": {"location": {"lat": 27.1189442, "lng": 80.42384109999999}, "viewport": {"northeast": {"lat": 27.1202870802915, "lng": 80.4251995302915}, "southwest": {"lat": 27.1175891197085, "lng": 80.42250156970849}}}, "icon": "https://maps.gstatic.com/mapfiles/place_api/icons/v1/png_71/school-71.png", "icon_background_color": "#7B9EB0", "icon_mask_base_uri": "https://maps.gstatic.com/mapfiles/place_api/icons/v2/school_pinlet", "name": "M L Bal Siksha Niketan", "opening_hours": {"open_now": false}, "photos": [{"height": 3120, "html_attributions": ["<a href=\"https://maps.google.com/maps/contrib/114622941027096387104\">Rishabh Chaurasia</a>"], "photo_reference": "Aap_uEDWt9a5kIW1T1tJIU76Qp2NishApU7MDuC4QkE1lT4eGNPxrbJY3u6QqDz27Kz3P2qh4ES9C9a6iMi9gH19FJRHfk2SWhl7BLisfKo5PbNDMoZO3rigRRjHGe3zDJCk80swLo_6XcWFwk16PpitTWoNi1XXvDr-M7QmoxBD-CTKRT74", "width": 4160}], "place_id": "ChIJwa7rVnCWnjkR7LzhmW4cYDM", "plus_code": {"compound_code": "4C9F+HG Samodha, Uttar Pradesh, India", "global_code": "7MV24C9F+HG"}, "rating": 5, "reference": "ChIJwa7rVnCWnjkR7LzhmW4cYDM", "scope": "GOOGLE", "types": ["school", "point_of_interest", "establishment"], "user_ratings_total": 1, "vicinity": "India"}, {"business_status": "OPERATIONAL", "geometry": {"location": {"lat": 27.1202288, "lng": 80.4220277}, "viewport": {"northeast": {"lat": 27.1213971302915, "lng": 80.42326488029151}, "southwest": {"lat": 27.1186991697085, "lng": 80.4205669197085}}}, "icon": "https://maps.gstatic.com/mapfiles/place_api/icons/v1/png_71/school-71.png", "icon_background_color": "#7B9EB0", "icon_mask_base_uri": "https://maps.gstatic.com/mapfiles/place_api/icons/v2/school_pinlet", "name": "\u092e\u094b\u0939\u0928 \u0932\u093e\u0932 \u0938\u094d\u092e\u093e\u0930\u0915 \u091c\u0942\u0928\u093f\u092f\u0930 \u0939\u093e\u0908 \u0938\u094d\u0915\u0942\u0932", "opening_hours": {"open_now": false}, "photos": [{"height": 3120, "html_attributions": ["<a href=\"https://maps.google.com/maps/contrib/113773127545381418296\">Rahul Kumar</a>"], "photo_reference": "Aap_uECBzyNHh5u5V3j9wBGPF8E8iAaqorMPW0_3o3B-Dc9Db9PkDXnFaOHqmavigjgRzMgbjnGwWpHr504dCb_6CbSVYKwhN6UlPt2GD1QyKUtHWNs9mBmPXZrKeU9kf7mpNZGEwEYYA2qLcEWgC3GXeVox_cxo6x0vO4ttMWr04f5VPlxT", "width": 4160}], "place_id": "ChIJ7ROGJNCXnjkRn9M-APuoPWY", "plus_code": {"compound_code": "4CCC+3R Samodha, Uttar Pradesh, India", "global_code": "7MV24CCC+3R"}, "rating": 5, "reference": "ChIJ7ROGJNCXnjkRn9M-APuoPWY", "scope": "GOOGLE", "types": ["secondary_school", "school", "point_of_interest", "establishment"], "user_ratings_total": 2, "vicinity": "Unnamed Road, Samodha"}, {"business_status": "OPERATIONAL", "geometry": {"location": {"lat": 27.1185967, "lng": 80.4312219}, "viewport": {"northeast": {"lat": 27.1199213802915, "lng": 80.4325659802915}, "southwest": {"lat": 27.11722341970849, "lng": 80.4298680197085}}}, "icon": "https://maps.gstatic.com/mapfiles/place_api/icons/v1/png_71/school-71.png", "icon_background_color": "#7B9EB0", "icon_mask_base_uri": "https://maps.gstatic.com/mapfiles/place_api/icons/v2/school_pinlet", "name": "ALISHER MEMORIAL DEGREE COLLEGE", "photos": [{"height": 1840, "html_attributions": ["<a href=\"https://maps.google.com/maps/contrib/112987219432434687509\">Anand Computers &amp; Technology</a>"], "photo_reference": "Aap_uECkG6p0cPlTjH1Y_YgfAoRupa6upY114ZjXp6wiaSL4rwcJ9N5m5zUVhrTCi6PYLCqzGouowAM2OXAjly8YE6BZTAu17KUV29EpNhJwX1x-gduiv_wMliR4B1WRiLNo0XavIeGB72h9snW_6yNH6b4SUXjvZI4_c_cURgXen2TtOjpM", "width": 3264}], "place_id": "ChIJ1Y1y6nKWnjkRGWx3WzRyJUU", "rating": 2.8, "reference": "ChIJ1Y1y6nKWnjkRGWx3WzRyJUU", "scope": "GOOGLE", "types": ["school", "point_of_interest", "establishment"], "user_ratings_total": 4, "vicinity": "4C9J+CFQ, Dalel Nagar, Samodha"}, {"business_status": "OPERATIONAL", "geometry": {"location": {"lat": 27.1187003, "lng": 80.4219593}, "viewport": {"northeast": {"lat": 27.1198465302915, "lng": 80.42316843029151}, "southwest": {"lat": 27.1171485697085, "lng": 80.4204704697085}}}, "icon": "https://maps.gstatic.com/mapfiles/place_api/icons/v1/png_71/school-71.png", "icon_background_color": "#7B9EB0", "icon_mask_base_uri": "https://maps.gstatic.com/mapfiles/place_api/icons/v2/school_pinlet", "name": "Subhash Inter College Jahilapur Hardoi Uttar Pradesh", "opening_hours": {"open_now": false}, "photos": [{"height": 3000, "html_attributions": ["<a href=\"https://maps.google.com/maps/contrib/113283067541358637844\">saurabh sagar</a>"], "photo_reference": "Aap_uEBSweSa1Y8cbn2kVM8xFJkoIwFlvdBkEOymFiRtK8YKi7WnK74VmVQOch5F2OoGrzLJIAyNRXCAzBBxMdiuzDYmST36hlDvOiW_yucRj6ZO13Q0yRkye32Ht3fZwl930Nbjm_m5hphkdFx6a3zPUUeH1pEoEdHNtT7_gI_9Dz37KzdH", "width": 4000}], "place_id": "ChIJPZJ90eSXnjkR0t2Yf3WwWuU", "plus_code": {"compound_code": "4C9C+FQ Samodha, Uttar Pradesh, India", "global_code": "7MV24C9C+FQ"}, "reference": "ChIJPZJ90eSXnjkR0t2Yf3WwWuU", "scope": "GOOGLE", "types": ["school", "point_of_interest", "establishment"], "vicinity": "Subhash Inter College, Jalihapur"}, {"business_status": "OPERATIONAL", "geometry": {"location": {"lat": 27.1186549, "lng": 80.42194049999999}, "viewport": {"northeast": {"lat": 27.1198213302915, "lng": 80.42316358029149}, "southwest": {"lat": 27.1171233697085, "lng": 80.42046561970848}}}, "icon": "https://maps.gstatic.com/mapfiles/place_api/icons/v1/png_71/school-71.png", "icon_background_color": "#7B9EB0", "icon_mask_base_uri": "https://maps.gstatic.com/mapfiles/place_api/icons/v2/school_pinlet", "name": "Jay Shubhas Mahabali Inter Collage", "place_id": "ChIJWRvGe3CWnjkRNlF5YPxwaxQ", "rating": 4, "reference": "ChIJWRvGe3CWnjkRNlF5YPxwaxQ", "scope": "GOOGLE", "types": ["school", "point_of_interest", "establishment"], "user_ratings_total": 3, "vicinity": "4C9C+FQ8, Samodha"}, {"business_status": "OPERATIONAL", "geometry": {"location": {"lat": 27.1187276, "lng": 80.4196989}, "viewport": {"northeast": {"lat": 27.1201885302915, "lng": 80.42113863029151}, "southwest": {"lat": 27.1174905697085, "lng": 80.4184406697085}}}, "icon": "https://maps.gstatic.com/mapfiles/place_api/icons/v1/png_71/school-71.png", "icon_background_color": "#7B9EB0", "icon_mask_base_uri": "https://maps.gstatic.com/mapfiles/place_api/icons/v2/school_pinlet", "name": "J.H.S.Samodh", "place_id": "ChIJVVWV9nqWnjkRF4aYNDY5fuE", "plus_code": {"compound_code": "4C99+FV Samodha, Uttar Pradesh, India", "global_code": "7MV24C99+FV"}, "reference": "ChIJVVWV9nqWnjkRF4aYNDY5fuE", "scope": "GOOGLE", "types": ["school", "point_of_interest", "establishment"], "vicinity": "Samodha, Dalel Nagar"}, {"business_status": "OPERATIONAL", "geometry": {"location": {"lat": 27.1107677, "lng": 80.4270885}, "viewport": {"northeast": {"lat": 27.1122486802915, "lng": 80.4285394802915}, "southwest": {"lat": 27.1095507197085, "lng": 80.42584151970848}}}, "icon": "https://maps.gstatic.com/mapfiles/place_api/icons/v1/png_71/school-71.png", "icon_background_color": "#7B9EB0", "icon_mask_base_uri": "https://maps.gstatic.com/mapfiles/place_api/icons/v2/school_pinlet", "name": "Prabudh mahavidyalya samodha sandila Hardoi", "opening_hours": {"open_now": false}, "photos": [{"height": 3468, "html_attributions": ["<a href=\"https://maps.google.com/maps/contrib/113629599409302914820\">Prabudh mahavidyalya samodha sandila Hardoi</a>"], "photo_reference": "Aap_uEDNNPBRwqNjaQK3OjG3ow-JL6wo2_KGOsgpWSTp9ZqfJobenNJGcMbcvDFRMu_kZdMv1R7KKvbLckJdWyXXJAlWJ3GoCKNLrC0CKPT_rqXMUOZk0TxRS4uAh1emOtccvJUh6q6eAZEtUxln5kNsTrFpCtrt_xk_dQbAIgQIvMTxiQUC", "width": 4624}], "place_id": "ChIJkeDgPWOXnjkRY2ZgaB8kQIo", "plus_code": {"compound_code": "4C6G+8R Sandila, Uttar Pradesh, India", "global_code": "7MV24C6G+8R"}, "rating": 5, "reference": "ChIJkeDgPWOXnjkRY2ZgaB8kQIo", "scope": "GOOGLE", "types": ["school", "point_of_interest", "establishment"], "user_ratings_total": 1, "vicinity": "Samodha, Sandila"}], "status": "OK"}