{"html_attributions": [], "results": [{"business_status": "OPERATIONAL", "geometry": {"location": {"lat": 27.7653751, "lng": 80.4277657}, "viewport": {"northeast": {"lat": 27.7663510302915, "lng": 80.42978003029151}, "southwest": {"lat": 27.7636530697085, "lng": 80.42708206970849}}}, "icon": "https://maps.gstatic.com/mapfiles/place_api/icons/v1/png_71/school-71.png", "icon_background_color": "#7B9EB0", "icon_mask_base_uri": "https://maps.gstatic.com/mapfiles/place_api/icons/v2/school_pinlet", "name": "Hanuman Mandir", "place_id": "ChIJRauSs_wZnzkRfzP_UhIq1XA", "reference": "ChIJRauSs_wZnzkRfzP_UhIq1XA", "scope": "GOOGLE", "types": ["school", "point_of_interest", "establishment"], "vicinity": "QC8H+542, Kusmi"}, {"business_status": "OPERATIONAL", "geometry": {"location": {"lat": 27.761876, "lng": 80.42140789999999}, "viewport": {"northeast": {"lat": 27.7632830802915, "lng": 80.4226981802915}, "southwest": {"lat": 27.7605851197085, "lng": 80.42000021970848}}}, "icon": "https://maps.gstatic.com/mapfiles/place_api/icons/v1/png_71/school-71.png", "icon_background_color": "#7B9EB0", "icon_mask_base_uri": "https://maps.gstatic.com/mapfiles/place_api/icons/v2/school_pinlet", "name": "Baba Turant Nath Temple", "place_id": "ChIJv438OJ0ZnzkRfepi8mzat4s", "reference": "ChIJv438OJ0ZnzkRfepi8mzat4s", "scope": "GOOGLE", "types": ["school", "point_of_interest", "establishment"], "vicinity": "QC6C+QH3, Ballipur"}, {"business_status": "OPERATIONAL", "geometry": {"location": {"lat": 27.7620671, "lng": 80.438068}, "viewport": {"northeast": {"lat": 27.7634650802915, "lng": 80.4394497302915}, "southwest": {"lat": 27.7607671197085, "lng": 80.4367517697085}}}, "icon": "https://maps.gstatic.com/mapfiles/place_api/icons/v1/png_71/school-71.png", "icon_background_color": "#7B9EB0", "icon_mask_base_uri": "https://maps.gstatic.com/mapfiles/place_api/icons/v2/school_pinlet", "name": "Cheetatali Primary School", "opening_hours": {"open_now": false}, "photos": [{"height": 1080, "html_attributions": ["<a href=\"https://maps.google.com/maps/contrib/100548392687968443910\">Deepak Singh</a>"], "photo_reference": "Aap_uEANv8hYQAbiNnHBKv5ie2aly3SJA9634GXZuXTWfvNeFmOgj9dAjppv1JuwPVBuonnBZt4o-vNWiHEDPnmob-6sOVvfh2crL6cvOapAJTyQ_a4bBvyNNrJWrW7200w-oUi3jxDq6oE3wpSeqpfqVoiJQ4h4Tr1vJ56P5j-43rxQMyGI", "width": 1920}], "place_id": "ChIJAXKsCuEZnzkRCfRbD6Pcnhg", "rating": 4.5, "reference": "ChIJAXKsCuEZnzkRCfRbD6Pcnhg", "scope": "GOOGLE", "types": ["school", "point_of_interest", "establishment"], "user_ratings_total": 2, "vicinity": "QC6Q+R6G, Kusmi"}, {"business_status": "OPERATIONAL", "geometry": {"location": {"lat": 27.7615886, "lng": 80.4382171}, "viewport": {"northeast": {"lat": 27.7629442302915, "lng": 80.4395515802915}, "southwest": {"lat": 27.7602462697085, "lng": 80.43685361970849}}}, "icon": "https://maps.gstatic.com/mapfiles/place_api/icons/v1/png_71/school-71.png", "icon_background_color": "#7B9EB0", "icon_mask_base_uri": "https://maps.gstatic.com/mapfiles/place_api/icons/v2/school_pinlet", "name": "Gaurav Maurya Ghanshyam", "place_id": "ChIJz8riAt4ZnzkR8f0TxVhD-3k", "reference": "ChIJz8riAt4ZnzkR8f0TxVhD-3k", "scope": "GOOGLE", "types": ["school", "point_of_interest", "establishment"], "vicinity": "QC6Q+J7P, setataleeKusmi"}], "status": "OK"}