{"html_attributions": [], "results": [{"business_status": "OPERATIONAL", "geometry": {"location": {"lat": 27.3336281, "lng": 80.4475245}, "viewport": {"northeast": {"lat": 27.3349441302915, "lng": 80.4488614302915}, "southwest": {"lat": 27.3322461697085, "lng": 80.4461634697085}}}, "icon": "https://maps.gstatic.com/mapfiles/place_api/icons/v1/png_71/school-71.png", "icon_background_color": "#7B9EB0", "icon_mask_base_uri": "https://maps.gstatic.com/mapfiles/place_api/icons/v2/school_pinlet", "name": "mandir santoshi maa mahadura", "place_id": "ChIJadM7zF3pnjkRogy8IB392sk", "reference": "ChIJadM7zF3pnjkRogy8IB392sk", "scope": "GOOGLE", "types": ["school", "point_of_interest", "establishment"], "vicinity": "8CMX+F22"}, {"business_status": "OPERATIONAL", "geometry": {"location": {"lat": 27.3339462, "lng": 80.4506664}, "viewport": {"northeast": {"lat": 27.3353142302915, "lng": 80.4519823802915}, "southwest": {"lat": 27.3326162697085, "lng": 80.44928441970849}}}, "icon": "https://maps.gstatic.com/mapfiles/place_api/icons/v1/png_71/school-71.png", "icon_background_color": "#7B9EB0", "icon_mask_base_uri": "https://maps.gstatic.com/mapfiles/place_api/icons/v2/school_pinlet", "name": "School", "place_id": "ChIJI-qUlJTpnjkRzAZEwyiMRVM", "reference": "ChIJI-qUlJTpnjkRzAZEwyiMRVM", "scope": "GOOGLE", "types": ["primary_school", "school", "point_of_interest", "establishment"], "vicinity": "8FM2+H7F, Ghrohia"}, {"business_status": "CLOSED_TEMPORARILY", "geometry": {"location": {"lat": 27.332711, "lng": 80.4486292}, "viewport": {"northeast": {"lat": 27.3340483802915, "lng": 80.4499753802915}, "southwest": {"lat": 27.3313504197085, "lng": 80.4472774197085}}}, "icon": "https://maps.gstatic.com/mapfiles/place_api/icons/v1/png_71/school-71.png", "icon_background_color": "#7B9EB0", "icon_mask_base_uri": "https://maps.gstatic.com/mapfiles/place_api/icons/v2/school_pinlet", "name": "\u092e\u0939\u0921\u094c\u0930\u093e", "permanently_closed": true, "place_id": "ChIJBSP4RIXpnjkReZLGTFBAoDY", "reference": "ChIJBSP4RIXpnjkReZLGTFBAoDY", "scope": "GOOGLE", "types": ["school", "point_of_interest", "establishment"], "vicinity": "8CMX+3FJ, Ghrohia"}, {"business_status": "OPERATIONAL", "geometry": {"location": {"lat": 27.3513682, "lng": 80.4530748}, "viewport": {"northeast": {"lat": 27.3527020302915, "lng": 80.4544410302915}, "southwest": {"lat": 27.3500040697085, "lng": 80.4517430697085}}}, "icon": "https://maps.gstatic.com/mapfiles/place_api/icons/v1/png_71/school-71.png", "icon_background_color": "#7B9EB0", "icon_mask_base_uri": "https://maps.gstatic.com/mapfiles/place_api/icons/v2/school_pinlet", "name": "P.S. BARGADIYA", "opening_hours": {"open_now": false}, "photos": [{"height": 1080, "html_attributions": ["<a href=\"https://maps.google.com/maps/contrib/107131816005419712767\">mr status</a>"], "photo_reference": "Aap_uEDHxzBwMshTUXH6wuTDoHEvyluf9piFMouo0hiMTIutmCuECg-dcoDwZesfQYj-XnOrhPoiCqvVLXN5rAKIEh4zb2Nm7EdO_u5dNzIu6x6yb5M_x-ElIhr_JLBxiMvn4vTuqXRqBpE1V9sQLq2Zw4_4IO5KDjqeLN-B0qXMKRTXFjf_", "width": 1920}], "place_id": "ChIJAwxS_7vpnjkRV12tFnTtir0", "rating": 3, "reference": "ChIJAwxS_7vpnjkRV12tFnTtir0", "scope": "GOOGLE", "types": ["school", "point_of_interest", "establishment"], "user_ratings_total": 2, "vicinity": "9F23+G6W, Bargadiya"}], "status": "OK"}