{"html_attributions": [], "results": [{"business_status": "OPERATIONAL", "geometry": {"location": {"lat": 27.362113, "lng": 80.450997}, "viewport": {"northeast": {"lat": 27.3633705802915, "lng": 80.45236868029151}, "southwest": {"lat": 27.3606726197085, "lng": 80.4496707197085}}}, "icon": "https://maps.gstatic.com/mapfiles/place_api/icons/v1/png_71/school-71.png", "icon_background_color": "#7B9EB0", "icon_mask_base_uri": "https://maps.gstatic.com/mapfiles/place_api/icons/v2/school_pinlet", "name": "J.H.S. JAMUNIYA", "opening_hours": {"open_now": false}, "place_id": "ChIJ3SN9ioTpnjkRIAKz-Ya37D8", "reference": "ChIJ3SN9ioTpnjkRIAKz-Ya37D8", "scope": "GOOGLE", "types": ["school", "point_of_interest", "establishment"], "vicinity": "9F62+R9X, Jamunia"}, {"business_status": "OPERATIONAL", "geometry": {"location": {"lat": 27.3616752, "lng": 80.4514892}, "viewport": {"northeast": {"lat": 27.3630156302915, "lng": 80.4528472302915}, "southwest": {"lat": 27.36031766970849, "lng": 80.45014926970849}}}, "icon": "https://maps.gstatic.com/mapfiles/place_api/icons/v1/png_71/school-71.png", "icon_background_color": "#7B9EB0", "icon_mask_base_uri": "https://maps.gstatic.com/mapfiles/place_api/icons/v2/school_pinlet", "name": "P.S. JAMUNIYA", "opening_hours": {"open_now": false}, "place_id": "ChIJlflj29TpnjkRzlVpJjQwgXg", "reference": "ChIJlflj29TpnjkRzlVpJjQwgXg", "scope": "GOOGLE", "types": ["school", "point_of_interest", "establishment"], "vicinity": "9F62+MHH, Jamuniya"}, {"business_status": "OPERATIONAL", "geometry": {"location": {"lat": 27.3608166, "lng": 80.4344112}, "viewport": {"northeast": {"lat": 27.3621454302915, "lng": 80.4358104802915}, "southwest": {"lat": 27.3594474697085, "lng": 80.43311251970849}}}, "icon": "https://maps.gstatic.com/mapfiles/place_api/icons/v1/png_71/school-71.png", "icon_background_color": "#7B9EB0", "icon_mask_base_uri": "https://maps.gstatic.com/mapfiles/place_api/icons/v2/school_pinlet", "name": "P.S. PATTIPUR", "opening_hours": {"open_now": false}, "place_id": "ChIJEwbexcrpnjkRmTE8yq-UL_0", "reference": "ChIJEwbexcrpnjkRmTE8yq-UL_0", "scope": "GOOGLE", "types": ["school", "point_of_interest", "establishment"], "vicinity": "9C6M+8QF, Sonoiya"}, {"business_status": "OPERATIONAL", "geometry": {"location": {"lat": 27.3513682, "lng": 80.4530748}, "viewport": {"northeast": {"lat": 27.3527020302915, "lng": 80.4544410302915}, "southwest": {"lat": 27.3500040697085, "lng": 80.4517430697085}}}, "icon": "https://maps.gstatic.com/mapfiles/place_api/icons/v1/png_71/school-71.png", "icon_background_color": "#7B9EB0", "icon_mask_base_uri": "https://maps.gstatic.com/mapfiles/place_api/icons/v2/school_pinlet", "name": "P.S. BARGADIYA", "opening_hours": {"open_now": false}, "photos": [{"height": 1080, "html_attributions": ["<a href=\"https://maps.google.com/maps/contrib/107131816005419712767\">mr status</a>"], "photo_reference": "Aap_uEBtY6E2XLmMzGr71yBZ6IZ9XnXb4JUmF3H97Hu4riyOsjXt2OSa2dNAREqc4cPEFeaWWUr8uRUm3lbKdLRe5_TbkT7kNy-jpHlzil6yeEAOmmb0bXmx18kK9HQMrOCPLOv41SCtgkdvLSnq91GPSmu5RqblUH-Cpt_6CeLOLDioFqKI", "width": 1920}], "place_id": "ChIJAwxS_7vpnjkRV12tFnTtir0", "rating": 3, "reference": "ChIJAwxS_7vpnjkRV12tFnTtir0", "scope": "GOOGLE", "types": ["school", "point_of_interest", "establishment"], "user_ratings_total": 2, "vicinity": "9F23+G6W, Bargadiya"}], "status": "OK"}