{"html_attributions": [], "results": [{"business_status": "OPERATIONAL", "geometry": {"location": {"lat": 26.9977552, "lng": 80.4745937}, "viewport": {"northeast": {"lat": 26.9991641302915, "lng": 80.47603343029151}, "southwest": {"lat": 26.9964661697085, "lng": 80.4733354697085}}}, "icon": "https://maps.gstatic.com/mapfiles/place_api/icons/v1/png_71/school-71.png", "icon_background_color": "#7B9EB0", "icon_mask_base_uri": "https://maps.gstatic.com/mapfiles/place_api/icons/v2/school_pinlet", "name": "Juniar High School Sarwen", "place_id": "ChIJ9wE7gYyinjkR6r9WVA61Y9I", "rating": 4.5, "reference": "ChIJ9wE7gYyinjkR6r9WVA61Y9I", "scope": "GOOGLE", "types": ["school", "point_of_interest", "establishment"], "user_ratings_total": 2, "vicinity": "XFXF+4R4, Kakenduwa"}, {"business_status": "OPERATIONAL", "geometry": {"location": {"lat": 26.9975296, "lng": 80.47461729999999}, "viewport": {"northeast": {"lat": 26.9988651802915, "lng": 80.4761237802915}, "southwest": {"lat": 26.9961672197085, "lng": 80.4734258197085}}}, "icon": "https://maps.gstatic.com/mapfiles/place_api/icons/v1/png_71/school-71.png", "icon_background_color": "#7B9EB0", "icon_mask_base_uri": "https://maps.gstatic.com/mapfiles/place_api/icons/v2/school_pinlet", "name": "Prathmik Vidyalaya Sarven", "place_id": "ChIJz3uJgYyinjkRyqsusyJZQ3I", "rating": 5, "reference": "ChIJz3uJgYyinjkRyqsusyJZQ3I", "scope": "GOOGLE", "types": ["school", "point_of_interest", "establishment"], "user_ratings_total": 1, "vicinity": "XFXF+2R9, Sarven"}, {"business_status": "OPERATIONAL", "geometry": {"location": {"lat": 27.01162859999999, "lng": 80.4688061}, "viewport": {"northeast": {"lat": 27.0126374302915, "lng": 80.4700867802915}, "southwest": {"lat": 27.0099394697085, "lng": 80.46738881970849}}}, "icon": "https://maps.gstatic.com/mapfiles/place_api/icons/v1/png_71/school-71.png", "icon_background_color": "#7B9EB0", "icon_mask_base_uri": "https://maps.gstatic.com/mapfiles/place_api/icons/v2/school_pinlet", "name": "Virendra pratap Singh pG college", "photos": [{"height": 4160, "html_attributions": ["<a href=\"https://maps.google.com/maps/contrib/100069244016846331429\">MANOJ PAL</a>"], "photo_reference": "Aap_uEDGA9X49-gMh02_rkJLIGyq0j28DvsViTbwOUw2h37dAo3wSe3YZl-OdN8LCSNTYKZGwFffzD2rsqEnlNci0R5mldsa1Vq3q-wrr0ceGinnT-UpRGMgVptuBeFrkq_US0Wl3BqyOnTbArgboiDewWZxKmAzQp4xua7JsEkwuBiMFtc_", "width": 3120}], "place_id": "ChIJ1Xd0hzajnjkRMeRW7Xxg2kE", "reference": "ChIJ1Xd0hzajnjkRMeRW7Xxg2kE", "scope": "GOOGLE", "types": ["school", "point_of_interest", "establishment"], "vicinity": "2F69+MG3, Dakhwa"}], "status": "OK"}