{"html_attributions": [], "results": [{"business_status": "OPERATIONAL", "geometry": {"location": {"lat": 27.5436437, "lng": 80.4851876}, "viewport": {"northeast": {"lat": 27.54506803029151, "lng": 80.48657558029151}, "southwest": {"lat": 27.5423700697085, "lng": 80.48387761970851}}}, "icon": "https://maps.gstatic.com/mapfiles/place_api/icons/v1/png_71/school-71.png", "icon_background_color": "#7B9EB0", "icon_mask_base_uri": "https://maps.gstatic.com/mapfiles/place_api/icons/v2/school_pinlet", "name": "Vipin Prajapati", "photos": [{"height": 1080, "html_attributions": ["<a href=\"https://maps.google.com/maps/contrib/108271408489469386921\">All is well Vipin Prajapati</a>"], "photo_reference": "Aap_uECGZfzUIyD_jGsSnenoUV5k6g_stgTxMsPABSIn5aIQHM-hlLT_gefCSOFqwaDcHU54tjEiz0WCToFhz_SJrkT4ghFcvKbhWREiyanRTDHZCIKVjboPNbtbvov69kofErGtSAISr_8iqi3zyL1w4g2xcId9OwxWIt5ROoFQcW8Z2iHd", "width": 1080}], "place_id": "ChIJj65nua7fnjkR18D_SgU2hp0", "plus_code": {"compound_code": "GFVP+F3 Teni, Uttar Pradesh, India", "global_code": "7MV2GFVP+F3"}, "rating": 5, "reference": "ChIJj65nua7fnjkR18D_SgU2hp0", "scope": "GOOGLE", "types": ["school", "point_of_interest", "establishment"], "user_ratings_total": 1, "vicinity": "Unnamed Road"}, {"business_status": "OPERATIONAL", "geometry": {"location": {"lat": 27.5438967, "lng": 80.484675}, "viewport": {"northeast": {"lat": 27.5453021802915, "lng": 80.48604333029151}, "southwest": {"lat": 27.54260421970849, "lng": 80.48334536970849}}}, "icon": "https://maps.gstatic.com/mapfiles/place_api/icons/v1/png_71/school-71.png", "icon_background_color": "#7B9EB0", "icon_mask_base_uri": "https://maps.gstatic.com/mapfiles/place_api/icons/v2/school_pinlet", "name": "\u090f\u0915\u0932 \u0935\u093f\u0926\u094d\u092f\u093e\u0932\u092f \u0926\u0947\u0935\u0915\u0932\u0940", "place_id": "ChIJbZWIsprfnjkRLreEaoRAP6E", "plus_code": {"compound_code": "GFVM+HV Teni, Uttar Pradesh, India", "global_code": "7MV2GFVM+HV"}, "rating": 5, "reference": "ChIJbZWIsprfnjkRLreEaoRAP6E", "scope": "GOOGLE", "types": ["school", "point_of_interest", "establishment"], "user_ratings_total": 1, "vicinity": "Unnamed Road, Teni"}, {"business_status": "OPERATIONAL", "geometry": {"location": {"lat": 27.5460501, "lng": 80.4849091}, "viewport": {"northeast": {"lat": 27.5469729802915, "lng": 80.48591458029149}, "southwest": {"lat": 27.5442750197085, "lng": 80.48321661970849}}}, "icon": "https://maps.gstatic.com/mapfiles/place_api/icons/v1/png_71/school-71.png", "icon_background_color": "#7B9EB0", "icon_mask_base_uri": "https://maps.gstatic.com/mapfiles/place_api/icons/v2/school_pinlet", "name": "Vipin Prajapati", "photos": [{"height": 1080, "html_attributions": ["<a href=\"https://maps.google.com/maps/contrib/108271408489469386921\">All is well Vipin Prajapati</a>"], "photo_reference": "Aap_uEAa-wIIInwzzqb8qQJz0aefGmqPu_4D2IjpvXYGyLLZdP4ZuoFml-ctc-MVabNU9Iz-F9arDeFF3GNk5WraEWGX47DhU5nR5I37MuPnpKgP5Qy_v7i8cTof2lcOrl7fWi3SKrDmy2XEyICSViYhJKRkHuFItXRjpKJTCmzv8-o1V4nr", "width": 1080}], "place_id": "ChIJreLBf4nfnjkRAaQhkJEwe08", "reference": "ChIJreLBf4nfnjkRAaQhkJEwe08", "scope": "GOOGLE", "types": ["school", "point_of_interest", "establishment"], "vicinity": "GFWM+CXF, Fattepur"}, {"business_status": "OPERATIONAL", "geometry": {"location": {"lat": 27.5469901, "lng": 80.4836857}, "viewport": {"northeast": {"lat": 27.5484330802915, "lng": 80.48495468029151}, "southwest": {"lat": 27.5457351197085, "lng": 80.48225671970849}}}, "icon": "https://maps.gstatic.com/mapfiles/place_api/icons/v1/png_71/school-71.png", "icon_background_color": "#7B9EB0", "icon_mask_base_uri": "https://maps.gstatic.com/mapfiles/place_api/icons/v2/school_pinlet", "name": "Common Service Center Devkali Wazeer Nagar Sitapur", "photos": [{"height": 1280, "html_attributions": ["<a href=\"https://maps.google.com/maps/contrib/110083500334912427015\">Vishnu Computers</a>"], "photo_reference": "Aap_uEA7r2j4_FaL25DgFMpPx7N7Ab5-rWJjypUk81mTRcTdph2GortMheTlGplspPKWCGvMMOWb2YXfqnoW4kKhNJWqh5-V5n2HfXLS8hG36NYKdw-xrw72f9c4LXPs6nLqlS2bLMv5rteOhq2sz2GDox-QenUc2qpaoI-MYirEb0ob81uu", "width": 960}], "place_id": "ChIJefoboJLfnjkR8XsDMEbLT0A", "plus_code": {"compound_code": "GFWM+QF Fattepur, Uttar Pradesh, India", "global_code": "7MV2GFWM+QF"}, "reference": "ChIJefoboJLfnjkR8XsDMEbLT0A", "scope": "GOOGLE", "types": ["school", "point_of_interest", "establishment"], "vicinity": "Vill Devkali post wazeer nagar"}, {"business_status": "OPERATIONAL", "geometry": {"location": {"lat": 27.5358557, "lng": 80.4803155}, "viewport": {"northeast": {"lat": 27.53706998029151, "lng": 80.48164193029152}, "southwest": {"lat": 27.5343720197085, "lng": 80.47894396970851}}}, "icon": "https://maps.gstatic.com/mapfiles/place_api/icons/v1/png_71/school-71.png", "icon_background_color": "#7B9EB0", "icon_mask_base_uri": "https://maps.gstatic.com/mapfiles/place_api/icons/v2/school_pinlet", "name": "M.R.P.School Wazirnagar", "photos": [{"height": 2448, "html_attributions": ["<a href=\"https://maps.google.com/maps/contrib/117205508106926447849\">Suhail Ansari</a>"], "photo_reference": "Aap_uEAa7lnTICiV7uOSqdAyIftHer18_-JpddQArTYuv8MBnZMFoUOosK9Lh4OncluRohIQPJt0V-moJ3_5cPj9UDsGfXbcKcze2YHvFSppizyCflKFfMSEeebFTjYOblFDJ7oocYaS8NemffPnDxPuhdVYQ5Kv_lVaSIL2we7gbi4J12BP", "width": 3264}], "place_id": "ChIJVb84bGbfnjkRxVbOMyh4DlE", "reference": "ChIJVb84bGbfnjkRxVbOMyh4DlE", "scope": "GOOGLE", "types": ["school", "point_of_interest", "establishment"], "vicinity": "GFPJ+84W, Vajir Nagar"}, {"business_status": "OPERATIONAL", "geometry": {"location": {"lat": 27.534263, "lng": 80.48258729999999}, "viewport": {"northeast": {"lat": 27.5357101302915, "lng": 80.4840181802915}, "southwest": {"lat": 27.5330121697085, "lng": 80.4813202197085}}}, "icon": "https://maps.gstatic.com/mapfiles/place_api/icons/v1/png_71/school-71.png", "icon_background_color": "#7B9EB0", "icon_mask_base_uri": "https://maps.gstatic.com/mapfiles/place_api/icons/v2/school_pinlet", "name": "M R Public School", "place_id": "ChIJua465hrfnjkRfsgGgoMcJTo", "reference": "ChIJua465hrfnjkRfsgGgoMcJTo", "scope": "GOOGLE", "types": ["school", "point_of_interest", "establishment"], "vicinity": "GFMM+P24, Vajir Nagar"}, {"business_status": "OPERATIONAL", "geometry": {"location": {"lat": 27.5417542, "lng": 80.47925839999999}, "viewport": {"northeast": {"lat": 27.5432973802915, "lng": 80.4802550302915}, "southwest": {"lat": 27.5405994197085, "lng": 80.47755706970848}}}, "icon": "https://maps.gstatic.com/mapfiles/place_api/icons/v1/png_71/school-71.png", "icon_background_color": "#7B9EB0", "icon_mask_base_uri": "https://maps.gstatic.com/mapfiles/place_api/icons/v2/school_pinlet", "name": "Ankush Raj", "place_id": "ChIJe5tUcDbfnjkRgsU6103q93o", "rating": 1, "reference": "ChIJe5tUcDbfnjkRgsU6103q93o", "scope": "GOOGLE", "types": ["secondary_school", "school", "point_of_interest", "establishment"], "user_ratings_total": 1, "vicinity": "GFRH+PP2, Deokali"}], "status": "OK"}