{"html_attributions": [], "results": [{"business_status": "OPERATIONAL", "geometry": {"location": {"lat": 27.6484599, "lng": 80.483908}, "viewport": {"northeast": {"lat": 27.6495588802915, "lng": 80.4852087302915}, "southwest": {"lat": 27.6468609197085, "lng": 80.48251076970848}}}, "icon": "https://maps.gstatic.com/mapfiles/place_api/icons/v1/png_71/school-71.png", "icon_background_color": "#7B9EB0", "icon_mask_base_uri": "https://maps.gstatic.com/mapfiles/place_api/icons/v2/school_pinlet", "name": "R. P. Children Academy", "photos": [{"height": 960, "html_attributions": ["<a href=\"https://maps.google.com/maps/contrib/116025540216216533008\">Harendra Singh</a>"], "photo_reference": "Aap_uEBTwjegZ7aEN0PQCyt_755iELMUIM9V08n7C5N0JpEYUVwoFtdwU_PiM67emP62JIViapAgcuX7E07sCdXvbNPJBP89ZqkArsJuaJtj5jFlXtanHZ3vnPP8iWdw-9E9lxNsJTMRrk28gw8Wc2Wvi6nG4ygs826ZTTTStfvQnnyPDoqp", "width": 1280}], "place_id": "ChIJSzTZlLMhnzkRfuFLLdqN4DM", "plus_code": {"compound_code": "JFXM+9H Adora, Uttar Pradesh, India", "global_code": "7MV2JFXM+9H"}, "rating": 3, "reference": "ChIJSzTZlLMhnzkRfuFLLdqN4DM", "scope": "GOOGLE", "types": ["school", "point_of_interest", "establishment"], "user_ratings_total": 2, "vicinity": ""}, {"business_status": "OPERATIONAL", "geometry": {"location": {"lat": 27.6494373, "lng": 80.4874358}, "viewport": {"northeast": {"lat": 27.6505130302915, "lng": 80.4886422302915}, "southwest": {"lat": 27.6478150697085, "lng": 80.4859442697085}}}, "icon": "https://maps.gstatic.com/mapfiles/place_api/icons/v1/png_71/school-71.png", "icon_background_color": "#7B9EB0", "icon_mask_base_uri": "https://maps.gstatic.com/mapfiles/place_api/icons/v2/school_pinlet", "name": "NewTech computer Institute", "photos": [{"height": 576, "html_attributions": ["<a href=\"https://maps.google.com/maps/contrib/117555263152407897740\">Pn Mishra</a>"], "photo_reference": "Aap_uEBp9SCNBnQbWiC9_Z1WjWZtDkEVePvmo2PpXVwI4MoamRWlkjW66wfXZN9N-H7sywUU-3NoLnFSKy0HfsrkZbi8MKGIzkDbfjL9pUPYzYCK4QTEOhpdsUNLUypIeyUFTHXwgS3vC1iGC3_p94B-PdkjBDQCacfsa3a2tnsdZnVb9Wti", "width": 1280}], "place_id": "ChIJu_D6WRYhnzkRxKdtcBCrutg", "rating": 5, "reference": "ChIJu_D6WRYhnzkRxKdtcBCrutg", "scope": "GOOGLE", "types": ["school", "point_of_interest", "establishment"], "user_ratings_total": 1, "vicinity": "JFXP+QXF, Adora"}, {"business_status": "OPERATIONAL", "geometry": {"location": {"lat": 27.6485119, "lng": 80.4817666}, "viewport": {"northeast": {"lat": 27.6499157302915, "lng": 80.4832480302915}, "southwest": {"lat": 27.64721776970849, "lng": 80.48055006970849}}}, "icon": "https://maps.gstatic.com/mapfiles/place_api/icons/v1/png_71/school-71.png", "icon_background_color": "#7B9EB0", "icon_mask_base_uri": "https://maps.gstatic.com/mapfiles/place_api/icons/v2/school_pinlet", "name": "Janki Kirana Store", "photos": [{"height": 2560, "html_attributions": ["<a href=\"https://maps.google.com/maps/contrib/109702508049374352909\">Anurag Kumar</a>"], "photo_reference": "Aap_uEAEJ0OlGh5EFqjMKCURjvV2QCQ6W3Gp-CtkjfBLBVun-ipsMFLLhXxVw-c35nnVsvEIvjRsTK2FOt2Kp_IT5Eo39dk2Q10dpjKvglq20XSgzV8TyGd7VeF7LgWj-4vZUFspuoy5XuoziRws7nX1TPhK4vn8oNJww9mZk_dt5vUEbQm4", "width": 1920}], "place_id": "ChIJ_RVO6C8hnzkRhaFMsUeWlSQ", "reference": "ChIJ_RVO6C8hnzkRhaFMsUeWlSQ", "scope": "GOOGLE", "types": ["school", "point_of_interest", "establishment"], "vicinity": "JFXJ+CP2, Sitapur"}, {"business_status": "OPERATIONAL", "geometry": {"location": {"lat": 27.6492484, "lng": 80.4821226}, "viewport": {"northeast": {"lat": 27.6505417802915, "lng": 80.4832997302915}, "southwest": {"lat": 27.6478438197085, "lng": 80.4806017697085}}}, "icon": "https://maps.gstatic.com/mapfiles/place_api/icons/v1/png_71/school-71.png", "icon_background_color": "#7B9EB0", "icon_mask_base_uri": "https://maps.gstatic.com/mapfiles/place_api/icons/v2/school_pinlet", "name": "Primary School Mahsuniyaganj", "photos": [{"height": 4000, "html_attributions": ["<a href=\"https://maps.google.com/maps/contrib/112999501220384213327\">Vimal Kashyap</a>"], "photo_reference": "Aap_uECHlFSErDNVQkEDMapSBMAvNlLYWXfWtmeqb1Flf5lvdTS-htkLKfLvnO3GZ5hHJBe_Wd32gx5IlzxXY40ZLwBF5DQ_KusYemEOM6uMrv6groVSjcIHNontRoCit9O1HN32AHVbF4kbDe7R691kgX3n1j8akOGum82pyUWCMoQx9Kzl", "width": 2000}], "place_id": "ChIJa0kRBbQhnzkRw4mSH-vEUdk", "reference": "ChIJa0kRBbQhnzkRw4mSH-vEUdk", "scope": "GOOGLE", "types": ["school", "point_of_interest", "establishment"], "vicinity": "JFXJ+MRX, Sitapur"}, {"business_status": "OPERATIONAL", "geometry": {"location": {"lat": 27.6497919, "lng": 80.4914453}, "viewport": {"northeast": {"lat": 27.6512185302915, "lng": 80.49297993029151}, "southwest": {"lat": 27.6485205697085, "lng": 80.4902819697085}}}, "icon": "https://maps.gstatic.com/mapfiles/place_api/icons/v1/png_71/school-71.png", "icon_background_color": "#7B9EB0", "icon_mask_base_uri": "https://maps.gstatic.com/mapfiles/place_api/icons/v2/school_pinlet", "name": "Green Field Academy", "place_id": "ChIJ0bbI9QIhnzkR62AsdEuLEMA", "plus_code": {"compound_code": "JFXR+WH Adora, Uttar Pradesh, India", "global_code": "7MV2JFXR+WH"}, "reference": "ChIJ0bbI9QIhnzkR62AsdEuLEMA", "scope": "GOOGLE", "types": ["school", "point_of_interest", "establishment"], "vicinity": "NH30"}, {"business_status": "OPERATIONAL", "geometry": {"location": {"lat": 27.6497444, "lng": 80.4807457}, "viewport": {"northeast": {"lat": 27.6510983802915, "lng": 80.48209888029152}, "southwest": {"lat": 27.6484004197085, "lng": 80.47940091970851}}}, "icon": "https://maps.gstatic.com/mapfiles/place_api/icons/v1/png_71/school-71.png", "icon_background_color": "#7B9EB0", "icon_mask_base_uri": "https://maps.gstatic.com/mapfiles/place_api/icons/v2/school_pinlet", "name": "Asara Coaching Center", "photos": [{"height": 3120, "html_attributions": ["<a href=\"https://maps.google.com/maps/contrib/100663764228267420720\">Rahul Verma</a>"], "photo_reference": "Aap_uEBygxEif3fp1iiWX22Eu1bEmYWu9e4WRwlUdtfITwRvpiBvsbcLitPtlFn-OUtRw650eCglSncSJVNSCRQ2negwXQ3QANWoOsU-ucc9Oyxqtha1VeHm6j2as2H0SG-GUdZBYCVsgnvjkoDPw_mGEBcf99KPj-KXmOGq8w_NvzEfANEW", "width": 4160}], "place_id": "ChIJGcKIJ7QhnzkR7yDndGx9KBI", "rating": 3, "reference": "ChIJGcKIJ7QhnzkR7yDndGx9KBI", "scope": "GOOGLE", "types": ["school", "point_of_interest", "establishment"], "user_ratings_total": 2, "vicinity": "JFXJ+V7X, Sitapur"}, {"business_status": "OPERATIONAL", "geometry": {"location": {"lat": 27.6508649, "lng": 80.4823835}, "viewport": {"northeast": {"lat": 27.6522167802915, "lng": 80.48373388029151}, "southwest": {"lat": 27.64951881970849, "lng": 80.48103591970849}}}, "icon": "https://maps.gstatic.com/mapfiles/place_api/icons/v1/png_71/school-71.png", "icon_background_color": "#7B9EB0", "icon_mask_base_uri": "https://maps.gstatic.com/mapfiles/place_api/icons/v2/school_pinlet", "name": "ashish classes", "place_id": "ChIJedrds7YhnzkRjnk2Peb0jkM", "reference": "ChIJedrds7YhnzkRjnk2Peb0jkM", "scope": "GOOGLE", "types": ["school", "point_of_interest", "establishment"], "vicinity": "MF2J+8XR, Sitapur"}, {"business_status": "OPERATIONAL", "geometry": {"location": {"lat": 27.6504714, "lng": 80.47968019999999}, "viewport": {"northeast": {"lat": 27.6518525302915, "lng": 80.4811346802915}, "southwest": {"lat": 27.6491545697085, "lng": 80.47843671970848}}}, "icon": "https://maps.gstatic.com/mapfiles/place_api/icons/v1/png_71/school-71.png", "icon_background_color": "#7B9EB0", "icon_mask_base_uri": "https://maps.gstatic.com/mapfiles/place_api/icons/v2/school_pinlet", "name": "KIC ground \u0915\u0943\u0937\u0915 \u0907\u0902\u091f\u0930 \u0915\u093e\u0932\u0947\u091c \u092e\u0948\u0926\u093e\u0928", "photos": [{"height": 4160, "html_attributions": ["<a href=\"https://maps.google.com/maps/contrib/110954160872644040460\">vikas bajpai</a>"], "photo_reference": "Aap_uEBe31Xe2Ij4rsWtACyS8nFKT9-wF-c1Oruq3JPUOe76aKxtm-6DpYLZ_eQh9ZalKIbyb40RCbr-i_ATZHWM1pLe4cR3kLZnOYiRxhUzk-TY--fEK3ZiN0UWX5tSZyK383C7DQach8dsHQ-m1D2r0VDLGT-dLuxN7-egur4DKt8ZOfXh", "width": 3120}], "place_id": "ChIJAag5Y7YhnzkR67SskeT2Ws0", "rating": 5, "reference": "ChIJAag5Y7YhnzkR67SskeT2Ws0", "scope": "GOOGLE", "types": ["school", "point_of_interest", "establishment"], "user_ratings_total": 2, "vicinity": "MF2H+5VM, Maholi"}, {"business_status": "OPERATIONAL", "geometry": {"location": {"lat": 27.6507455, "lng": 80.478301}, "viewport": {"northeast": {"lat": 27.6521855302915, "lng": 80.47941733029151}, "southwest": {"lat": 27.6494875697085, "lng": 80.4767193697085}}}, "icon": "https://maps.gstatic.com/mapfiles/place_api/icons/v1/png_71/school-71.png", "icon_background_color": "#7B9EB0", "icon_mask_base_uri": "https://maps.gstatic.com/mapfiles/place_api/icons/v2/school_pinlet", "name": "HOSTAL KIC MAHOLI", "place_id": "ChIJ-anrAnUhnzkROjHKQH3P9tA", "plus_code": {"compound_code": "MF2H+78 Maholi, Uttar Pradesh, India", "global_code": "7MV2MF2H+78"}, "reference": "ChIJ-anrAnUhnzkROjHKQH3P9tA", "scope": "GOOGLE", "types": ["school", "point_of_interest", "establishment"], "vicinity": "KIC, \u092e\u093e\u0939\u094b\u0932\u0940"}, {"business_status": "OPERATIONAL", "geometry": {"location": {"lat": 27.65231799999999, "lng": 80.479485}, "viewport": {"northeast": {"lat": 27.6535794802915, "lng": 80.4807878302915}, "southwest": {"lat": 27.65088151970849, "lng": 80.47808986970848}}}, "icon": "https://maps.gstatic.com/mapfiles/place_api/icons/v1/png_71/school-71.png", "icon_background_color": "#7B9EB0", "icon_mask_base_uri": "https://maps.gstatic.com/mapfiles/place_api/icons/v2/school_pinlet", "name": "\u0905\u0928\u092e\u094b\u0932 \u0938\u0930\u0917\u092e \u092e\u094d\u092f\u0942\u095b\u093f\u0915\u0932 \u0905\u0915\u0947\u0921\u092e\u0940", "place_id": "ChIJXcgv8YIhnzkRNhmcdEHC9OE", "plus_code": {"compound_code": "MF2H+WQ Maholi, Uttar Pradesh, India", "global_code": "7MV2MF2H+WQ"}, "reference": "ChIJXcgv8YIhnzkRNhmcdEHC9OE", "scope": "GOOGLE", "types": ["school", "point_of_interest", "establishment"], "vicinity": "Bus Station, Maholi"}, {"business_status": "OPERATIONAL", "geometry": {"location": {"lat": 27.653201, "lng": 80.4808878}, "viewport": {"northeast": {"lat": 27.6546134302915, "lng": 80.4821729802915}, "southwest": {"lat": 27.6519154697085, "lng": 80.47947501970849}}}, "icon": "https://maps.gstatic.com/mapfiles/place_api/icons/v1/png_71/school-71.png", "icon_background_color": "#7B9EB0", "icon_mask_base_uri": "https://maps.gstatic.com/mapfiles/place_api/icons/v2/school_pinlet", "name": "Rksp Sikha Sansthan Inter College M", "opening_hours": {"open_now": true}, "place_id": "ChIJ5RjKG7chnzkR_UNNRaVg9BE", "plus_code": {"compound_code": "MF3J+79 Maholi, Uttar Pradesh, India", "global_code": "7MV2MF3J+79"}, "rating": 5, "reference": "ChIJ5RjKG7chnzkR_UNNRaVg9BE", "scope": "GOOGLE", "types": ["school", "point_of_interest", "establishment"], "user_ratings_total": 9, "vicinity": "near bus stand and alok hospital dakbgla road, Maholi"}, {"business_status": "OPERATIONAL", "geometry": {"location": {"lat": 27.6539509, "lng": 80.4829085}, "viewport": {"northeast": {"lat": 27.6553811302915, "lng": 80.48414983029151}, "southwest": {"lat": 27.6526831697085, "lng": 80.4814518697085}}}, "icon": "https://maps.gstatic.com/mapfiles/place_api/icons/v1/png_71/school-71.png", "icon_background_color": "#7B9EB0", "icon_mask_base_uri": "https://maps.gstatic.com/mapfiles/place_api/icons/v2/school_pinlet", "name": "Primary School KaithaGagipur", "place_id": "ChIJv8qEy7AhnzkR8MQFy4u8g2k", "rating": 1, "reference": "ChIJv8qEy7AhnzkR8MQFy4u8g2k", "scope": "GOOGLE", "types": ["school", "point_of_interest", "establishment"], "user_ratings_total": 1, "vicinity": "MF3M+H5M, Sitapur"}, {"business_status": "OPERATIONAL", "geometry": {"location": {"lat": 27.6419912, "lng": 80.50124869999999}, "viewport": {"northeast": {"lat": 27.6437024302915, "lng": 80.5027885302915}, "southwest": {"lat": 27.6410044697085, "lng": 80.50009056970849}}}, "icon": "https://maps.gstatic.com/mapfiles/place_api/icons/v1/png_71/school-71.png", "icon_background_color": "#7B9EB0", "icon_mask_base_uri": "https://maps.gstatic.com/mapfiles/place_api/icons/v2/school_pinlet", "name": "Bliss International School", "photos": [{"height": 3456, "html_attributions": ["<a href=\"https://maps.google.com/maps/contrib/114082017688017104470\">Avadhesh Verma</a>"], "photo_reference": "Aap_uEA16g9N5t3Wtg2LPnbdDtafZKdqj6WI6Fckp1O2Nlp3tlJYMDee0t4HkXLlJ_DERhW4yYJ19s9VhGlUjOTLIXYBcQhyLnrfq2P2SEECtiR08NxuwZ3CKMLnarotnDMW6hLFhraYyq8r3meoUNBcgoTZa2VcOKj97sqFluYo13uzurvr", "width": 4608}], "place_id": "ChIJaVHest0hnzkRvzoziSJwUNo", "plus_code": {"compound_code": "JGR2+QF Maholi, Uttar Pradesh, India", "global_code": "7MV2JGR2+QF"}, "rating": 4.5, "reference": "ChIJaVHest0hnzkRvzoziSJwUNo", "scope": "GOOGLE", "types": ["school", "point_of_interest", "establishment"], "user_ratings_total": 2, "vicinity": "near Tehsil, Kusaila Charaha, near Tehsil, Maholi"}], "status": "OK"}