{"html_attributions": [], "next_page_token": "Aap_uEBRq7Dt94KlCZMxN-u-vhLPkiajFkO-09LYRZuYYMzX6GITY02lhjln6U5Gs7CXhTZ1ay2ocAbzDevi1WFRWI-5MDMyWKWnRE85mxCkIa3CZTUwmzQ1Awmvrmo0pekPQEkTbxslYAextPP-NX5dIVzjwOajrycUCmi8dbGteYSIKEE_LCJP8MDWC3zrl9_elRxg9H9e6YSYZxS0o7gXiu2F3lZmMERWXVkdJcsEgmvM0SCvqOQZ2AHtMLR7_uPWB-b29VbB1whkNyqMiJY0JgLA9lILtDUw4dmKghFRsCOOlRyIMwIBvXjfzlJ7Y1p89mWwaq9CM_QU2-CGYW-3gIjeL03Yv7v-Kc4t9DC4sStVqINy4Y5oOHzBMvpRiV8fAcRCRVXvpiGrVTMnkwaa5QC7yZC2bBLVGaTrb6WM5tGo8rRoPDBmA6ZeGVg6lOpC5-YCp_UCtOjR5Eqm9ho0J4NwLyAu0tAx7ylcUAPt4Y3XLYCBB-kXAMaba8H6B8KFix2Fcud4tUv-dvaTdWZS2um88pPQ3tMW3BzZME1CsbRzz0LzvUBfRLosoCTmmiIYx4RFlGwrua6l8rv4YcdM9NFo3qeAMrAbGUp8qGEBZCzfRbdAZGEwAYnmSfvGKHBgF-taS9sI", "results": [{"business_status": "OPERATIONAL", "geometry": {"location": {"lat": 27.0688284, "lng": 80.5134813}, "viewport": {"northeast": {"lat": 27.0701316302915, "lng": 80.5148035802915}, "southwest": {"lat": 27.0674336697085, "lng": 80.51210561970849}}}, "icon": "https://maps.gstatic.com/mapfiles/place_api/icons/v1/png_71/school-71.png", "icon_background_color": "#7B9EB0", "icon_mask_base_uri": "https://maps.gstatic.com/mapfiles/place_api/icons/v2/school_pinlet", "name": "up bord result", "opening_hours": {"open_now": true}, "place_id": "ChIJd0QZIem8njkRsI5Vje7drwE", "plus_code": {"compound_code": "3G97+G9 Sandila, Uttar Pradesh, India", "global_code": "7MV23G97+G9"}, "reference": "ChIJd0QZIem8njkRsI5Vje7drwE", "scope": "GOOGLE", "types": ["school", "point_of_interest", "establishment"], "vicinity": "MDR 27C, Sandila"}, {"business_status": "OPERATIONAL", "geometry": {"location": {"lat": 27.06632629999999, "lng": 80.5159339}, "viewport": {"northeast": {"lat": 27.0676964302915, "lng": 80.5172876302915}, "southwest": {"lat": 27.0649984697085, "lng": 80.51458966970849}}}, "icon": "https://maps.gstatic.com/mapfiles/place_api/icons/v1/png_71/school-71.png", "icon_background_color": "#7B9EB0", "icon_mask_base_uri": "https://maps.gstatic.com/mapfiles/place_api/icons/v2/school_pinlet", "name": "Parwati Devi Saraswati Sishu Vidya Mandir Samdila", "opening_hours": {"open_now": false}, "place_id": "ChIJGZGq_8G8njkRKixij5vDH1s", "plus_code": {"compound_code": "3G88+G9 Sandila, Uttar Pradesh, India", "global_code": "7MV23G88+G9"}, "rating": 1, "reference": "ChIJGZGq_8G8njkRKixij5vDH1s", "scope": "GOOGLE", "types": ["school", "point_of_interest", "establishment"], "user_ratings_total": 1, "vicinity": "Prem nagar, purani galla mandi,mahetwana, Sandila"}, {"business_status": "OPERATIONAL", "geometry": {"location": {"lat": 27.069184, "lng": 80.5133754}, "viewport": {"northeast": {"lat": 27.0705242802915, "lng": 80.5147219302915}, "southwest": {"lat": 27.0678263197085, "lng": 80.5120239697085}}}, "icon": "https://maps.gstatic.com/mapfiles/place_api/icons/v1/png_71/school-71.png", "icon_background_color": "#7B9EB0", "icon_mask_base_uri": "https://maps.gstatic.com/mapfiles/place_api/icons/v2/school_pinlet", "name": "Ashraf Tola School", "photos": [{"height": 4128, "html_attributions": ["<a href=\"https://maps.google.com/maps/contrib/109620731924546400398\">Sirajul Islam</a>"], "photo_reference": "Aap_uEA9l-OvJsz2EH9UtSuhv_kR-ouBbe0oQ8A026lAQ9mntJBfUopcBnr4vW7Na0MvaRevq5g1-AfPO6Sq_ziJD0eSTDwaS1xWiV-Y2h8dno4-YL8mepOXys6TjVkKqQkh0KtOMP2bXnIihovPeQCYfFgl1Gq6hqGuM4GjjIW3dMFvAAkz", "width": 2322}], "place_id": "ChIJu6KcJ-m8njkRJurUE26fO0c", "rating": 2.4, "reference": "ChIJu6KcJ-m8njkRJurUE26fO0c", "scope": "GOOGLE", "types": ["school", "point_of_interest", "establishment"], "user_ratings_total": 5, "vicinity": "3G97+M9C, Sandila"}, {"business_status": "OPERATIONAL", "geometry": {"location": {"lat": 27.0677907, "lng": 80.5150706}, "viewport": {"northeast": {"lat": 27.0691310302915, "lng": 80.51644333029151}, "southwest": {"lat": 27.0664330697085, "lng": 80.51374536970849}}}, "icon": "https://maps.gstatic.com/mapfiles/place_api/icons/v1/png_71/school-71.png", "icon_background_color": "#7B9EB0", "icon_mask_base_uri": "https://maps.gstatic.com/mapfiles/place_api/icons/v2/school_pinlet", "name": "libas fashion", "place_id": "ChIJ8cjdSWa9njkRj8AZztA22Ks", "reference": "ChIJ8cjdSWa9njkRj8AZztA22Ks", "scope": "GOOGLE", "types": ["school", "point_of_interest", "establishment"], "vicinity": "3G98+428, Sandila"}, {"business_status": "OPERATIONAL", "geometry": {"location": {"lat": 27.0656832, "lng": 80.51689309999999}, "viewport": {"northeast": {"lat": 27.06704498029151, "lng": 80.51817598029149}, "southwest": {"lat": 27.0643470197085, "lng": 80.51547801970848}}}, "icon": "https://maps.gstatic.com/mapfiles/place_api/icons/v1/png_71/school-71.png", "icon_background_color": "#7B9EB0", "icon_mask_base_uri": "https://maps.gstatic.com/mapfiles/place_api/icons/v2/school_pinlet", "name": "Seventh Day Public School", "place_id": "ChIJ08QFF-q8njkRK0xeqW__bZY", "plus_code": {"compound_code": "3G88+7Q Sandila, Uttar Pradesh, India", "global_code": "7MV23G88+7Q"}, "rating": 4.7, "reference": "ChIJ08QFF-q8njkRK0xeqW__bZY", "scope": "GOOGLE", "types": ["school", "point_of_interest", "establishment"], "user_ratings_total": 3, "vicinity": "Nichla Mahatwana, Sandila"}, {"business_status": "OPERATIONAL", "geometry": {"location": {"lat": 27.067883, "lng": 80.49815079999999}, "viewport": {"northeast": {"lat": 27.0691573802915, "lng": 80.4994521802915}, "southwest": {"lat": 27.0664594197085, "lng": 80.49675421970849}}}, "icon": "https://maps.gstatic.com/mapfiles/place_api/icons/v1/png_71/school-71.png", "icon_background_color": "#7B9EB0", "icon_mask_base_uri": "https://maps.gstatic.com/mapfiles/place_api/icons/v2/school_pinlet", "name": "Sandila Lions Public School", "photos": [{"height": 4160, "html_attributions": ["<a href=\"https://maps.google.com/maps/contrib/114413555962120567520\">Anurag Mishra</a>"], "photo_reference": "Aap_uEBlyYl9YvzUzMPD5h3a20qkQFLSVpfz7YxxivaWjCGfMi-FAxIP3LFFztD3_TUD8wASDtHRfMQRteKbtDYpSGolkz9b4xNh-JasdHZ6U_kYIEuJodN49e2Zq9gO5P7timR-aN0wHQzkFfp9k0HsHuFBiUOGJx8QalFcPDDKprGtGA9K", "width": 1968}], "place_id": "ChIJd2iBFB69njkRSvYgE8pBB_4", "plus_code": {"compound_code": "3F9X+57 Meetau, Uttar Pradesh, India", "global_code": "7MV23F9X+57"}, "rating": 3.8, "reference": "ChIJd2iBFB69njkRSvYgE8pBB_4", "scope": "GOOGLE", "types": ["school", "point_of_interest", "establishment"], "user_ratings_total": 23, "vicinity": "Meetau"}, {"business_status": "OPERATIONAL", "geometry": {"location": {"lat": 27.0663296, "lng": 80.51705439999999}, "viewport": {"northeast": {"lat": 27.0676776802915, "lng": 80.5184068302915}, "southwest": {"lat": 27.0649797197085, "lng": 80.51570886970849}}}, "icon": "https://maps.gstatic.com/mapfiles/place_api/icons/v1/png_71/school-71.png", "icon_background_color": "#7B9EB0", "icon_mask_base_uri": "https://maps.gstatic.com/mapfiles/place_api/icons/v2/school_pinlet", "name": "Rj Dance Institute Sandila", "place_id": "ChIJ2y_BiUG9njkRKR0Yb0_jMCA", "rating": 1, "reference": "ChIJ2y_BiUG9njkRKR0Yb0_jMCA", "scope": "GOOGLE", "types": ["school", "point_of_interest", "establishment"], "user_ratings_total": 1, "vicinity": "3G88+GRM, Nichla Mahatwana, Sandila"}, {"business_status": "OPERATIONAL", "geometry": {"location": {"lat": 27.0673235, "lng": 80.51678079999999}, "viewport": {"northeast": {"lat": 27.06874483029151, "lng": 80.51817618029149}, "southwest": {"lat": 27.0660468697085, "lng": 80.51547821970848}}}, "icon": "https://maps.gstatic.com/mapfiles/place_api/icons/v1/png_71/school-71.png", "icon_background_color": "#7B9EB0", "icon_mask_base_uri": "https://maps.gstatic.com/mapfiles/place_api/icons/v2/school_pinlet", "name": "Chota Ideal School", "opening_hours": {"open_now": false}, "place_id": "ChIJzWysMuq8njkRwOGlObniUYY", "plus_code": {"compound_code": "3G88+WP Sandila, Uttar Pradesh, India", "global_code": "7MV23G88+WP"}, "reference": "ChIJzWysMuq8njkRwOGlObniUYY", "scope": "GOOGLE", "types": ["school", "point_of_interest", "establishment"], "vicinity": "Sandila,, Nichla Mahatwana, Sandila"}, {"business_status": "OPERATIONAL", "geometry": {"location": {"lat": 27.0701762, "lng": 80.5148487}, "viewport": {"northeast": {"lat": 27.0715422302915, "lng": 80.5162034802915}, "southwest": {"lat": 27.0688442697085, "lng": 80.51350551970849}}}, "icon": "https://maps.gstatic.com/mapfiles/place_api/icons/v1/png_71/school-71.png", "icon_background_color": "#7B9EB0", "icon_mask_base_uri": "https://maps.gstatic.com/mapfiles/place_api/icons/v2/school_pinlet", "name": "Old Government Girls Inter College", "opening_hours": {"open_now": false}, "photos": [{"height": 1942, "html_attributions": ["<a href=\"https://maps.google.com/maps/contrib/104052421224614460725\">Aleem Ahmad</a>"], "photo_reference": "Aap_uEB3tHOGwyTgvppZHKdywl8WjTxhLVMMcxrla1H7yYltqmalL23HbGKf5JkDM2d9CRhM8MciuwOZP8hMIDeXRIqVD5MdiTPNdmu4jK3vxrYdAs3-MKXkO2VK9YLJW465k73znrFTThPhvM7VXxoDD9tRVv0lIcU5ZvE4xsfUW0LuQamJ", "width": 1441}], "place_id": "ChIJ92DYtO68njkRhrMEDnh9Zks", "rating": 3, "reference": "ChIJ92DYtO68njkRhrMEDnh9Zks", "scope": "GOOGLE", "types": ["school", "point_of_interest", "establishment"], "user_ratings_total": 2, "vicinity": "3GC7+3WH, Sandila"}, {"business_status": "OPERATIONAL", "geometry": {"location": {"lat": 27.0694295, "lng": 80.51579579999999}, "viewport": {"northeast": {"lat": 27.0707803802915, "lng": 80.5171349802915}, "southwest": {"lat": 27.0680824197085, "lng": 80.5144370197085}}}, "icon": "https://maps.gstatic.com/mapfiles/place_api/icons/v1/png_71/school-71.png", "icon_background_color": "#7B9EB0", "icon_mask_base_uri": "https://maps.gstatic.com/mapfiles/place_api/icons/v2/school_pinlet", "name": "Shanti Niketan Public School", "place_id": "ChIJdWznWem8njkRW4NlehF6C_w", "rating": 4.4, "reference": "ChIJdWznWem8njkRW4NlehF6C_w", "scope": "GOOGLE", "types": ["school", "point_of_interest", "establishment"], "user_ratings_total": 8, "vicinity": "3G98+Q8F, Sandila"}, {"business_status": "OPERATIONAL", "geometry": {"location": {"lat": 27.0715509, "lng": 80.50048439999999}, "viewport": {"northeast": {"lat": 27.0729845802915, "lng": 80.5018243802915}, "southwest": {"lat": 27.07028661970849, "lng": 80.49912641970849}}}, "icon": "https://maps.gstatic.com/mapfiles/place_api/icons/v1/png_71/school-71.png", "icon_background_color": "#7B9EB0", "icon_mask_base_uri": "https://maps.gstatic.com/mapfiles/place_api/icons/v2/school_pinlet", "name": "Modern Public School", "opening_hours": {"open_now": false}, "place_id": "ChIJHY2yyDW9njkRCVMJ-Y7WPAs", "plus_code": {"compound_code": "3GC2+J5 Meetau, Uttar Pradesh, India", "global_code": "7MV23GC2+J5"}, "reference": "ChIJHY2yyDW9njkRCVMJ-Y7WPAs", "scope": "GOOGLE", "types": ["school", "point_of_interest", "establishment"], "vicinity": "near kamlesh cinema"}, {"business_status": "OPERATIONAL", "geometry": {"location": {"lat": 27.0692883, "lng": 80.51662089999999}, "viewport": {"northeast": {"lat": 27.07058793029151, "lng": 80.51795698029149}, "southwest": {"lat": 27.0678899697085, "lng": 80.51525901970848}}}, "icon": "https://maps.gstatic.com/mapfiles/place_api/icons/v1/png_71/school-71.png", "icon_background_color": "#7B9EB0", "icon_mask_base_uri": "https://maps.gstatic.com/mapfiles/place_api/icons/v2/school_pinlet", "name": "Trs Convent School", "place_id": "ChIJR7qqK-i8njkR3v90DXN7Sao", "plus_code": {"compound_code": "3G98+PJ Sandila, Uttar Pradesh, India", "global_code": "7MV23G98+PJ"}, "rating": 2.3, "reference": "ChIJR7qqK-i8njkR3v90DXN7Sao", "scope": "GOOGLE", "types": ["school", "point_of_interest", "establishment"], "user_ratings_total": 9, "vicinity": "MDR 27C, Tiloiya, Sandila"}, {"business_status": "OPERATIONAL", "geometry": {"location": {"lat": 27.0679842, "lng": 80.4963109}, "viewport": {"northeast": {"lat": 27.0693250302915, "lng": 80.4977167802915}, "southwest": {"lat": 27.0666270697085, "lng": 80.49501881970849}}}, "icon": "https://maps.gstatic.com/mapfiles/place_api/icons/v1/png_71/school-71.png", "icon_background_color": "#7B9EB0", "icon_mask_base_uri": "https://maps.gstatic.com/mapfiles/place_api/icons/v2/school_pinlet", "name": "Government Girl Inter College", "place_id": "ChIJIzfaiB69njkRRhWmW27D3Gs", "rating": 3, "reference": "ChIJIzfaiB69njkRRhWmW27D3Gs", "scope": "GOOGLE", "types": ["school", "point_of_interest", "establishment"], "user_ratings_total": 1, "vicinity": "3F9W+5GV, Meetau"}, {"business_status": "OPERATIONAL", "geometry": {"location": {"lat": 27.0677791, "lng": 80.496162}, "viewport": {"northeast": {"lat": 27.0691120802915, "lng": 80.49762238029152}, "southwest": {"lat": 27.0664141197085, "lng": 80.4949244197085}}}, "icon": "https://maps.gstatic.com/mapfiles/place_api/icons/v1/png_71/school-71.png", "icon_background_color": "#7B9EB0", "icon_mask_base_uri": "https://maps.gstatic.com/mapfiles/place_api/icons/v2/school_pinlet", "name": "G.G.I.C", "place_id": "ChIJPfDtEfq9njkRdSbCeyeCxBY", "rating": 5, "reference": "ChIJPfDtEfq9njkRdSbCeyeCxBY", "scope": "GOOGLE", "types": ["school", "point_of_interest", "establishment"], "user_ratings_total": 1, "vicinity": "3F9W+4F7, Meetau"}, {"business_status": "OPERATIONAL", "geometry": {"location": {"lat": 27.068009, "lng": 80.4962887}, "viewport": {"northeast": {"lat": 27.0693479302915, "lng": 80.4977075802915}, "southwest": {"lat": 27.0666499697085, "lng": 80.49500961970848}}}, "icon": "https://maps.gstatic.com/mapfiles/place_api/icons/v1/png_71/school-71.png", "icon_background_color": "#7B9EB0", "icon_mask_base_uri": "https://maps.gstatic.com/mapfiles/place_api/icons/v2/school_pinlet", "name": "\u0930\u093e\u091c\u0915\u0940\u092f \u092c\u093e\u0932\u093f\u0915\u093e \u0907\u091f\u0930 \u0915\u093e\u0932\u0947\u091c", "place_id": "ChIJi0_OiB69njkRgok9-pcDsOM", "reference": "ChIJi0_OiB69njkRgok9-pcDsOM", "scope": "GOOGLE", "types": ["school", "point_of_interest", "establishment"], "vicinity": "3F9W+6G3, Meetau"}, {"business_status": "OPERATIONAL", "geometry": {"location": {"lat": 27.0715735, "lng": 80.51400939999999}, "viewport": {"northeast": {"lat": 27.0729871302915, "lng": 80.5153927302915}, "southwest": {"lat": 27.0702891697085, "lng": 80.51269476970849}}}, "icon": "https://maps.gstatic.com/mapfiles/place_api/icons/v1/png_71/school-71.png", "icon_background_color": "#7B9EB0", "icon_mask_base_uri": "https://maps.gstatic.com/mapfiles/place_api/icons/v2/school_pinlet", "name": "Bada Ideal School", "place_id": "ChIJlbyaL8W9njkRUm3C-dXwH9U", "plus_code": {"compound_code": "3GC7+JJ Sandila, Uttar Pradesh, India", "global_code": "7MV23GC7+JJ"}, "reference": "ChIJlbyaL8W9njkRUm3C-dXwH9U", "scope": "GOOGLE", "types": ["school", "point_of_interest", "establishment"], "vicinity": "Unnamed Road, Sandila"}, {"business_status": "OPERATIONAL", "geometry": {"location": {"lat": 27.0707798, "lng": 80.51546479999999}, "viewport": {"northeast": {"lat": 27.0721289302915, "lng": 80.5168134302915}, "southwest": {"lat": 27.0694309697085, "lng": 80.51411546970849}}}, "icon": "https://maps.gstatic.com/mapfiles/place_api/icons/v1/png_71/school-71.png", "icon_background_color": "#7B9EB0", "icon_mask_base_uri": "https://maps.gstatic.com/mapfiles/place_api/icons/v2/school_pinlet", "name": "Madrasa Jame Furqaniya (Qazi Ji Ka Purana Madrasa)", "photos": [{"height": 3120, "html_attributions": ["<a href=\"https://maps.google.com/maps/contrib/112106063265896611450\">Mohammad Amin</a>"], "photo_reference": "Aap_uEANM3Yp3_IhKJKZ-52PdOyDqs2xoGh2tR6kDZVciWceKlQLwq62cjE20uvLh9B4ByKtuKgTXm-A19AyftvzLc-lxus0cCnWUG8pHUd2YnUNd8lSZMkOBxrdwlnR0yxuIQygnrEUddZj8KbsUS4JSYdm4hvGHSs75iYSkQvdB2bQ8ymv", "width": 4160}], "place_id": "ChIJx9N4z6-9njkR9D0_FJaEr1A", "plus_code": {"compound_code": "3GC8+85 Sandila, Uttar Pradesh, India", "global_code": "7MV23GC8+85"}, "reference": "ChIJx9N4z6-9njkR9D0_FJaEr1A", "scope": "GOOGLE", "types": ["school", "point_of_interest", "establishment"], "vicinity": "near saeed clinik, Sandila"}, {"business_status": "OPERATIONAL", "geometry": {"location": {"lat": 27.0687598, "lng": 80.496273}, "viewport": {"northeast": {"lat": 27.0700872802915, "lng": 80.49776718029152}, "southwest": {"lat": 27.06738931970849, "lng": 80.49506921970851}}}, "icon": "https://maps.gstatic.com/mapfiles/place_api/icons/v1/png_71/school-71.png", "icon_background_color": "#7B9EB0", "icon_mask_base_uri": "https://maps.gstatic.com/mapfiles/place_api/icons/v2/school_pinlet", "name": "GGIC Sandila", "photos": [{"height": 3264, "html_attributions": ["<a href=\"https://maps.google.com/maps/contrib/116696908232134415929\">shubham kumar yadav</a>"], "photo_reference": "Aap_uECZHDOb-m4Bjy7Y1JwG9ltKQ1WpdIfwUGcS2on-dvghGdrpofMB-OYcLzYCKrTt2zsKSK9Fpxx4TdS3Ub5nRjp_iiDJLa7jmi8xitC0UPiUmoiND9olKo5qjhx9YK80JrOeMQs4LjcQjaqI1OJC2XAnkd5gxBl8EcZYIBDlzLKAdahF", "width": 2448}], "place_id": "ChIJKaWLgR69njkRLZpxCyx3Y4o", "rating": 4, "reference": "ChIJKaWLgR69njkRLZpxCyx3Y4o", "scope": "GOOGLE", "types": ["school", "point_of_interest", "establishment"], "user_ratings_total": 3, "vicinity": "3F9W+GG2, Meetau"}, {"business_status": "OPERATIONAL", "geometry": {"location": {"lat": 27.0639701, "lng": 80.5200072}, "viewport": {"northeast": {"lat": 27.0653031802915, "lng": 80.5213656802915}, "southwest": {"lat": 27.0626052197085, "lng": 80.51866771970849}}}, "icon": "https://maps.gstatic.com/mapfiles/place_api/icons/v1/png_71/school-71.png", "icon_background_color": "#7B9EB0", "icon_mask_base_uri": "https://maps.gstatic.com/mapfiles/place_api/icons/v2/school_pinlet", "name": "gyanodaya coaching cntre", "place_id": "ChIJcRQnODq9njkRwHYUObmmJlM", "rating": 5, "reference": "ChIJcRQnODq9njkRwHYUObmmJlM", "scope": "GOOGLE", "types": ["school", "point_of_interest", "establishment"], "user_ratings_total": 1, "vicinity": "3G7C+H2J, Manas Nagar, Sandila"}, {"business_status": "OPERATIONAL", "geometry": {"location": {"lat": 27.06542619999999, "lng": 80.49386969999999}, "viewport": {"northeast": {"lat": 27.0666555302915, "lng": 80.4953783802915}, "southwest": {"lat": 27.06395756970849, "lng": 80.49268041970849}}}, "icon": "https://maps.gstatic.com/mapfiles/place_api/icons/v1/png_71/school-71.png", "icon_background_color": "#7B9EB0", "icon_mask_base_uri": "https://maps.gstatic.com/mapfiles/place_api/icons/v2/school_pinlet", "name": "Junior High School", "opening_hours": {"open_now": false}, "photos": [{"height": 3456, "html_attributions": ["<a href=\"https://maps.google.com/maps/contrib/102203560978467142528\">Durgesh Pal</a>"], "photo_reference": "Aap_uECLxb8RxY92M1AOaoB6D48AYGorlikG0AfHdt1mARjKvOthnqI8_5jX0iety7fljOxs4IxCT458rLoc7W5OSWI8CeDgi9FV2s6DrhxcIvfsMERFDd-JPnC3oQbReOAnUXG0J-VOG8FP6XSgIClelQ0O_2SPmXQWqH0iLBpIpcSTZu28", "width": 4608}], "place_id": "ChIJP_hXKx-9njkRk_ryDwAE3Is", "reference": "ChIJP_hXKx-9njkRk_ryDwAE3Is", "scope": "GOOGLE", "types": ["school", "point_of_interest", "establishment"], "vicinity": "3F8V+5GH, Meetau"}], "status": "OK"}