{"html_attributions": [], "results": [{"business_status": "OPERATIONAL", "geometry": {"location": {"lat": 27.6419912, "lng": 80.50124869999999}, "viewport": {"northeast": {"lat": 27.6437024302915, "lng": 80.5027885302915}, "southwest": {"lat": 27.6410044697085, "lng": 80.50009056970849}}}, "icon": "https://maps.gstatic.com/mapfiles/place_api/icons/v1/png_71/school-71.png", "icon_background_color": "#7B9EB0", "icon_mask_base_uri": "https://maps.gstatic.com/mapfiles/place_api/icons/v2/school_pinlet", "name": "Bliss International School", "photos": [{"height": 3456, "html_attributions": ["<a href=\"https://maps.google.com/maps/contrib/114082017688017104470\">Avadhesh Verma</a>"], "photo_reference": "Aap_uEBeT5My3A2fTuKB2KjDJUobTNcKRecazYjfE1YEFnDy8quSAFWPBc_dp24hKVehFYlekqurhYxXrup2J7DC05y9X3LvbPA2vPUZ2V-WN70neJFHrXmUqRcshhO-at25n-uXdUlbnma5qCEr5gUXlohwtxsdS1WcaDqJhFrTAreLB1lU", "width": 4608}], "place_id": "ChIJaVHest0hnzkRvzoziSJwUNo", "plus_code": {"compound_code": "JGR2+QF Maholi, Uttar Pradesh, India", "global_code": "7MV2JGR2+QF"}, "rating": 4.5, "reference": "ChIJaVHest0hnzkRvzoziSJwUNo", "scope": "GOOGLE", "types": ["school", "point_of_interest", "establishment"], "user_ratings_total": 2, "vicinity": "near Tehsil, Kusaila Charaha, near Tehsil, Maholi"}, {"business_status": "OPERATIONAL", "geometry": {"location": {"lat": 27.6367703, "lng": 80.5150558}, "viewport": {"northeast": {"lat": 27.63833213029151, "lng": 80.5165157302915}, "southwest": {"lat": 27.6356341697085, "lng": 80.5138177697085}}}, "icon": "https://maps.gstatic.com/mapfiles/place_api/icons/v1/png_71/school-71.png", "icon_background_color": "#7B9EB0", "icon_mask_base_uri": "https://maps.gstatic.com/mapfiles/place_api/icons/v2/school_pinlet", "name": "\u0938\u094b\u0928\u0942 \u0915\u0949\u0938\u094d\u092e\u0947\u091f\u093f\u0915 \u090f\u0902\u0921 \u092b\u0941\u091f\u0935\u093f\u092f\u0930", "place_id": "ChIJ4aDufYUhnzkRjOP94JM11CQ", "rating": 3, "reference": "ChIJ4aDufYUhnzkRjOP94JM11CQ", "scope": "GOOGLE", "types": ["school", "point_of_interest", "establishment"], "user_ratings_total": 1, "vicinity": "JGP8+P23, Urdauli"}, {"business_status": "OPERATIONAL", "geometry": {"location": {"lat": 27.6371956, "lng": 80.5155762}, "viewport": {"northeast": {"lat": 27.6385230302915, "lng": 80.51691383029151}, "southwest": {"lat": 27.6358250697085, "lng": 80.5142158697085}}}, "icon": "https://maps.gstatic.com/mapfiles/place_api/icons/v1/png_71/school-71.png", "icon_background_color": "#7B9EB0", "icon_mask_base_uri": "https://maps.gstatic.com/mapfiles/place_api/icons/v2/school_pinlet", "name": "Primary School Urdauli", "place_id": "ChIJpSRy0eUgnzkRTHnuDeAy-yM", "rating": 2, "reference": "ChIJpSRy0eUgnzkRTHnuDeAy-yM", "scope": "GOOGLE", "types": ["primary_school", "school", "point_of_interest", "establishment"], "user_ratings_total": 1, "vicinity": "JGP8+V6G, Urdauli"}, {"business_status": "OPERATIONAL", "geometry": {"location": {"lat": 27.6361307, "lng": 80.51511769999999}, "viewport": {"northeast": {"lat": 27.6379456802915, "lng": 80.5167096302915}, "southwest": {"lat": 27.6352477197085, "lng": 80.5140116697085}}}, "icon": "https://maps.gstatic.com/mapfiles/place_api/icons/v1/png_71/school-71.png", "icon_background_color": "#7B9EB0", "icon_mask_base_uri": "https://maps.gstatic.com/mapfiles/place_api/icons/v2/school_pinlet", "name": "vansh verma", "place_id": "ChIJ2cXxFGEhnzkRA18CxV3EMlQ", "plus_code": {"compound_code": "JGP8+F2 Urdauli, Uttar Pradesh, India", "global_code": "7MV2JGP8+F2"}, "reference": "ChIJ2cXxFGEhnzkRA18CxV3EMlQ", "scope": "GOOGLE", "types": ["primary_school", "school", "point_of_interest", "establishment"], "vicinity": "Durgapur - Lamua Road, Urdauli"}, {"business_status": "OPERATIONAL", "geometry": {"location": {"lat": 27.63127850000001, "lng": 80.5077237}, "viewport": {"northeast": {"lat": 27.63327703029151, "lng": 80.5094118802915}, "southwest": {"lat": 27.6305790697085, "lng": 80.50671391970849}}}, "icon": "https://maps.gstatic.com/mapfiles/place_api/icons/v1/png_71/school-71.png", "icon_background_color": "#7B9EB0", "icon_mask_base_uri": "https://maps.gstatic.com/mapfiles/place_api/icons/v2/school_pinlet", "name": "sn inter college", "place_id": "ChIJvZWLLXIhnzkRZ0celBp9Peg", "reference": "ChIJvZWLLXIhnzkRZ0celBp9Peg", "scope": "GOOGLE", "types": ["school", "point_of_interest", "establishment"], "vicinity": "JGJ5+G39, Urdauli"}, {"business_status": "OPERATIONAL", "geometry": {"location": {"lat": 27.63127850000001, "lng": 80.5077237}, "viewport": {"northeast": {"lat": 27.63327703029151, "lng": 80.5094118802915}, "southwest": {"lat": 27.6305790697085, "lng": 80.50671391970849}}}, "icon": "https://maps.gstatic.com/mapfiles/place_api/icons/v1/png_71/school-71.png", "icon_background_color": "#7B9EB0", "icon_mask_base_uri": "https://maps.gstatic.com/mapfiles/place_api/icons/v2/school_pinlet", "name": "Mahuwakola Maholi", "place_id": "ChIJVVVVVfAgnzkRcr6i4AUIJMI", "reference": "ChIJVVVVVfAgnzkRcr6i4AUIJMI", "scope": "GOOGLE", "types": ["school", "point_of_interest", "establishment"], "vicinity": "JGJ5+G39, Urdauli"}], "status": "OK"}