{"html_attributions": [], "results": [{"business_status": "OPERATIONAL", "geometry": {"location": {"lat": 27.7681869, "lng": 80.5077594}, "viewport": {"northeast": {"lat": 27.7695535302915, "lng": 80.50913918029151}, "southwest": {"lat": 27.7668555697085, "lng": 80.50644121970849}}}, "icon": "https://maps.gstatic.com/mapfiles/place_api/icons/v1/png_71/school-71.png", "icon_background_color": "#7B9EB0", "icon_mask_base_uri": "https://maps.gstatic.com/mapfiles/place_api/icons/v2/school_pinlet", "name": "Govt. High School, Kakraha", "place_id": "ChIJF0VShyQjnzkRm-rRJFKSQg4", "plus_code": {"compound_code": "QG95+74 Umariya, Uttar Pradesh, India", "global_code": "7MV2QG95+74"}, "reference": "ChIJF0VShyQjnzkRm-rRJFKSQg4", "scope": "GOOGLE", "types": ["secondary_school", "school", "point_of_interest", "establishment"], "vicinity": "Mitauli Marg, Umariya"}, {"business_status": "OPERATIONAL", "geometry": {"location": {"lat": 27.7563536, "lng": 80.5114966}, "viewport": {"northeast": {"lat": 27.7576931302915, "lng": 80.5128795302915}, "southwest": {"lat": 27.7549951697085, "lng": 80.5101815697085}}}, "icon": "https://maps.gstatic.com/mapfiles/place_api/icons/v1/png_71/school-71.png", "icon_background_color": "#7B9EB0", "icon_mask_base_uri": "https://maps.gstatic.com/mapfiles/place_api/icons/v2/school_pinlet", "name": "Kedar Singh Memorial Inter College, Mitauli", "photos": [{"height": 1800, "html_attributions": ["<a href=\"https://maps.google.com/maps/contrib/107089558331958415431\">Vijay Singh</a>"], "photo_reference": "Aap_uEAxS5-TWAGvUd2KfxdhsExJEwUh_wHNEHKazg3tEs53AbuTk6ueiu-M4KXz2OXhE75QkDSUwRiv8TQVXe9qXa85iA776JjvdqsJwWQ8mDZcXZwjiim__4_JIyqvKK6Lgrzk4hZCIKy81xdrHUQXy1G00BkWxtKij8EdWqxHJOjyrHHK", "width": 4000}], "place_id": "ChIJO2posxAjnzkR_SFRFgP_z_8", "plus_code": {"compound_code": "QG46+GH Bada Gaon, Uttar Pradesh, India", "global_code": "7MV2QG46+GH"}, "rating": 4, "reference": "ChIJO2posxAjnzkR_SFRFgP_z_8", "scope": "GOOGLE", "types": ["school", "point_of_interest", "establishment"], "user_ratings_total": 1, "vicinity": "Mitauli Marg, Bada Gaon"}, {"business_status": "OPERATIONAL", "geometry": {"location": {"lat": 27.76430680000001, "lng": 80.4992898}, "viewport": {"northeast": {"lat": 27.76572793029151, "lng": 80.50114238029151}, "southwest": {"lat": 27.7630299697085, "lng": 80.4984444197085}}}, "icon": "https://maps.gstatic.com/mapfiles/place_api/icons/v1/png_71/school-71.png", "icon_background_color": "#7B9EB0", "icon_mask_base_uri": "https://maps.gstatic.com/mapfiles/place_api/icons/v2/school_pinlet", "name": "Ambedkar Shikshan Sansthan", "place_id": "ChIJW2biufwjnzkRnVJblPz6CTQ", "reference": "ChIJW2biufwjnzkRnVJblPz6CTQ", "scope": "GOOGLE", "types": ["school", "point_of_interest", "establishment"], "vicinity": "QF7X+PPF, Parsehara"}, {"business_status": "OPERATIONAL", "geometry": {"location": {"lat": 27.7510511, "lng": 80.50456270000001}, "viewport": {"northeast": {"lat": 27.7528350302915, "lng": 80.5058370302915}, "southwest": {"lat": 27.7501370697085, "lng": 80.5031390697085}}}, "icon": "https://maps.gstatic.com/mapfiles/place_api/icons/v1/png_71/school-71.png", "icon_background_color": "#7B9EB0", "icon_mask_base_uri": "https://maps.gstatic.com/mapfiles/place_api/icons/v2/school_pinlet", "name": "\u0915\u093f\u0938\u093e\u0928 \u0907\u0923\u094d\u091f\u0930 \u0915\u093e\u0932\u0947\u091c \u092c\u095c\u093e\u0917\u093e\u0902\u0935", "photos": [{"height": 1199, "html_attributions": ["<a href=\"https://maps.google.com/maps/contrib/113344150673446643296\">Jai Shukla</a>"], "photo_reference": "Aap_uEAi2by9Q_D87L2ktw-3ztHBDAxLxYt6EPIz9WBNy4tRnP5HRf6HWJfA2kRJrHEOgBooji-nli3Rbap9hgeaPVsWvMiG0DsraCYG7XpwQ3pOD6XjGFg2pL54Cb4VqY3WIPouqhtTzoKxM27ELs-rjWi-pcR0sLE6Lb564SuaRf_4gVhW", "width": 1607}], "place_id": "ChIJDynSpRwjnzkReUiqD1Ba4zw", "rating": 4.5, "reference": "ChIJDynSpRwjnzkReUiqD1Ba4zw", "scope": "GOOGLE", "types": ["school", "point_of_interest", "establishment"], "user_ratings_total": 2, "vicinity": "QG23+CRG, Bada Gaon"}, {"business_status": "OPERATIONAL", "geometry": {"location": {"lat": 27.75102669999999, "lng": 80.5046244}, "viewport": {"northeast": {"lat": 27.7528228302915, "lng": 80.5058678802915}, "southwest": {"lat": 27.7501248697085, "lng": 80.5031699197085}}}, "icon": "https://maps.gstatic.com/mapfiles/place_api/icons/v1/png_71/school-71.png", "icon_background_color": "#7B9EB0", "icon_mask_base_uri": "https://maps.gstatic.com/mapfiles/place_api/icons/v2/school_pinlet", "name": "Kisan Inter College Baragaon", "place_id": "ChIJJxWVelIjnzkRn3YWwk4Zkb0", "plus_code": {"compound_code": "QG23+CR Bada Gaon, Uttar Pradesh, India", "global_code": "7MV2QG23+CR"}, "reference": "ChIJJxWVelIjnzkRn3YWwk4Zkb0", "scope": "GOOGLE", "types": ["school", "point_of_interest", "establishment"], "vicinity": "Village and post Baragaon Distt"}, {"business_status": "OPERATIONAL", "geometry": {"location": {"lat": 27.7501956, "lng": 80.5051675}, "viewport": {"northeast": {"lat": 27.75091880000001, "lng": 80.50587583029152}, "southwest": {"lat": 27.748026, "lng": 80.50317786970851}}}, "icon": "https://maps.gstatic.com/mapfiles/place_api/icons/v1/png_71/school-71.png", "icon_background_color": "#7B9EB0", "icon_mask_base_uri": "https://maps.gstatic.com/mapfiles/place_api/icons/v2/school_pinlet", "name": "\u091c\u0942\u0928\u093f\u092f\u0930 \u0939\u093e\u0908 \u0938\u094d\u0915\u0942\u0932 \u092c\u095c\u093e\u0917\u093e\u0902\u0935", "place_id": "ChIJj18yqwQjnzkRCFd9UJllFvA", "rating": 5, "reference": "ChIJj18yqwQjnzkRCFd9UJllFvA", "scope": "GOOGLE", "types": ["school", "point_of_interest", "establishment"], "user_ratings_total": 1, "vicinity": "QG24+33F, Bada Gaon"}], "status": "OK"}