{"html_attributions": [], "results": [{"business_status": "OPERATIONAL", "geometry": {"location": {"lat": 27.7864469, "lng": 80.5179586}, "viewport": {"northeast": {"lat": 27.7877318802915, "lng": 80.5194116302915}, "southwest": {"lat": 27.7850339197085, "lng": 80.5167136697085}}}, "icon": "https://maps.gstatic.com/mapfiles/place_api/icons/v1/png_71/school-71.png", "icon_background_color": "#7B9EB0", "icon_mask_base_uri": "https://maps.gstatic.com/mapfiles/place_api/icons/v2/school_pinlet", "name": "B.D.S. Inter College", "photos": [{"height": 2448, "html_attributions": ["<a href=\"https://maps.google.com/maps/contrib/102711139646992725882\">Shivam Singh</a>"], "photo_reference": "Aap_uEBpWyZ5fcULzlU4qA2nz-zaAC3rvylf55PxTCS4cwudpj0PRhFBjJQkACY0ijMsPm_XhAp9cF2iwUxi3Tu4n8SWZweQ9Gpmco052nBGkuldoVbiCX5EzGtVJ2WOEvBEs35-JD48Qp7JmmydAObtZpxDZd90p02RayNfNpiNhbFtxyT8", "width": 3264}], "place_id": "ChIJD_sGMcs8nzkRccRdYcT-Dyw", "plus_code": {"compound_code": "QGP9+H5 Bagchan, Uttar Pradesh, India", "global_code": "7MV2QGP9+H5"}, "rating": 5, "reference": "ChIJD_sGMcs8nzkRccRdYcT-Dyw", "scope": "GOOGLE", "types": ["school", "point_of_interest", "establishment"], "user_ratings_total": 5, "vicinity": "Bagchan"}, {"business_status": "OPERATIONAL", "geometry": {"location": {"lat": 27.776075, "lng": 80.517765}, "viewport": {"northeast": {"lat": 27.7774320802915, "lng": 80.5191219802915}, "southwest": {"lat": 27.7747341197085, "lng": 80.5164240197085}}}, "icon": "https://maps.gstatic.com/mapfiles/place_api/icons/v1/png_71/school-71.png", "icon_background_color": "#7B9EB0", "icon_mask_base_uri": "https://maps.gstatic.com/mapfiles/place_api/icons/v2/school_pinlet", "name": "Suryakund", "place_id": "ChIJj1qG3RojnzkRpw7YJ3kCKFU", "plus_code": {"compound_code": "QGG9+C4 Semrava, Uttar Pradesh, India", "global_code": "7MV2QGG9+C4"}, "rating": 5, "reference": "ChIJj1qG3RojnzkRpw7YJ3kCKFU", "scope": "GOOGLE", "types": ["school", "point_of_interest", "establishment"], "user_ratings_total": 1, "vicinity": "Vill Suryakund, Semrava"}, {"business_status": "OPERATIONAL", "geometry": {"location": {"lat": 27.7741494, "lng": 80.51619}, "viewport": {"northeast": {"lat": 27.7755433802915, "lng": 80.51752768029151}, "southwest": {"lat": 27.7728454197085, "lng": 80.5148297197085}}}, "icon": "https://maps.gstatic.com/mapfiles/place_api/icons/v1/png_71/school-71.png", "icon_background_color": "#7B9EB0", "icon_mask_base_uri": "https://maps.gstatic.com/mapfiles/place_api/icons/v2/school_pinlet", "name": "Govt. Primary School, Suryakund", "photos": [{"height": 3264, "html_attributions": ["<a href=\"https://maps.google.com/maps/contrib/115294082108582897308\">Dheeraj Dixit</a>"], "photo_reference": "Aap_uEBCsTrw9e2-RZ6cumDvnqVP2gTS5-TdjfpATT30TJL75FsLpMI9Bef9M2XyudARTsBwHjDA4NYGw-OSCb-ROf488fRWwu788kYdYFBsnWYzg6YcSmO5JZj2tnR__nTZSj3ofbqWMam_R0wtSvaEu9c1kdx9YDUf64JjmfcM3Z2ZcDxZ", "width": 2448}], "place_id": "ChIJ2fCDRe4jnzkRQulPQ-bJWdY", "plus_code": {"compound_code": "QGF8+MF Semrava, Uttar Pradesh, India", "global_code": "7MV2QGF8+MF"}, "rating": 5, "reference": "ChIJ2fCDRe4jnzkRQulPQ-bJWdY", "scope": "GOOGLE", "types": ["primary_school", "school", "point_of_interest", "establishment"], "user_ratings_total": 1, "vicinity": "village suryakund, Sitapur"}, {"business_status": "OPERATIONAL", "geometry": {"location": {"lat": 27.7937262, "lng": 80.51043469999999}, "viewport": {"northeast": {"lat": 27.7950168802915, "lng": 80.51176833029149}, "southwest": {"lat": 27.7923189197085, "lng": 80.50907036970848}}}, "icon": "https://maps.gstatic.com/mapfiles/place_api/icons/v1/png_71/school-71.png", "icon_background_color": "#7B9EB0", "icon_mask_base_uri": "https://maps.gstatic.com/mapfiles/place_api/icons/v2/school_pinlet", "name": "\u092d\u093e\u0930\u0924\u0940\u092f \u0907\u0928\u094d\u091f\u0930 \u0915\u093e\u0932\u0947\u091c \u0909\u092e\u0930\u093f\u092f\u093e", "place_id": "ChIJdYM3GmY9nzkRQB8KRBCSNLE", "reference": "ChIJdYM3GmY9nzkRQB8KRBCSNLE", "scope": "GOOGLE", "types": ["school", "point_of_interest", "establishment"], "vicinity": "QGV6+F5V, Umria"}, {"business_status": "OPERATIONAL", "geometry": {"location": {"lat": 27.7939434, "lng": 80.51038}, "viewport": {"northeast": {"lat": 27.7951423802915, "lng": 80.5116682802915}, "southwest": {"lat": 27.79244441970849, "lng": 80.5089703197085}}}, "icon": "https://maps.gstatic.com/mapfiles/place_api/icons/v1/png_71/school-71.png", "icon_background_color": "#7B9EB0", "icon_mask_base_uri": "https://maps.gstatic.com/mapfiles/place_api/icons/v2/school_pinlet", "name": "Bhartiya Inter Collage", "place_id": "ChIJHSUI1dE8nzkRuWhdQspPXL8", "plus_code": {"compound_code": "QGV6+H5 Umariya, Uttar Pradesh, India", "global_code": "7MV2QGV6+H5"}, "reference": "ChIJHSUI1dE8nzkRuWhdQspPXL8", "scope": "GOOGLE", "types": ["school", "point_of_interest", "establishment"], "vicinity": "post Chaturaiya Dist, Umariya"}], "status": "OK"}