{"html_attributions": [], "results": [{"business_status": "OPERATIONAL", "geometry": {"location": {"lat": 27.4330714, "lng": 80.52932899999999}, "viewport": {"northeast": {"lat": 27.4344160302915, "lng": 80.5308239802915}, "southwest": {"lat": 27.4317180697085, "lng": 80.5281260197085}}}, "icon": "https://maps.gstatic.com/mapfiles/place_api/icons/v1/png_71/school-71.png", "icon_background_color": "#7B9EB0", "icon_mask_base_uri": "https://maps.gstatic.com/mapfiles/place_api/icons/v2/school_pinlet", "name": "Golden Jubilee Montessori School", "photos": [{"height": 342, "html_attributions": ["<a href=\"https://maps.google.com/maps/contrib/115038222727480502071\">Anmol Mishra</a>"], "photo_reference": "Aap_uEAqc_7qGp6q9S1Wa0GTqoDQCxfYEY8BtMjutOqvm2uQ2DCXF1dWLhRkMHflEcOV31romzgC4Czx_teEKwr2xa0IerQrjSWvlzF8Y-bTxB5cxG2SiQR5MY1PnLy_12T5P8pVZyJVySQLF8yPxtgSEciPuLlmYUyUU5yWXpEeEsSdDV7N", "width": 379}], "place_id": "ChIJ3bmeZbzcnjkRV77Vx_dV2_4", "rating": 2.3, "reference": "ChIJ3bmeZbzcnjkRV77Vx_dV2_4", "scope": "GOOGLE", "types": ["school", "point_of_interest", "establishment"], "user_ratings_total": 3, "vicinity": "CGMH+6PG, Misrikh-cum-Neemsar"}, {"business_status": "OPERATIONAL", "geometry": {"location": {"lat": 27.4330185, "lng": 80.5298643}, "viewport": {"northeast": {"lat": 27.4343622802915, "lng": 80.5312222802915}, "southwest": {"lat": 27.4316643197085, "lng": 80.52852431970848}}}, "icon": "https://maps.gstatic.com/mapfiles/place_api/icons/v1/png_71/school-71.png", "icon_background_color": "#7B9EB0", "icon_mask_base_uri": "https://maps.gstatic.com/mapfiles/place_api/icons/v2/school_pinlet", "name": "Bright way public school", "place_id": "ChIJHVrrYrzcnjkR0vv5014t2Ss", "rating": 4, "reference": "ChIJHVrrYrzcnjkR0vv5014t2Ss", "scope": "GOOGLE", "types": ["school", "point_of_interest", "establishment"], "user_ratings_total": 1, "vicinity": "CGMH+6W5, Misrikh-cum-Neemsar"}, {"business_status": "OPERATIONAL", "geometry": {"location": {"lat": 27.4328995, "lng": 80.5304316}, "viewport": {"northeast": {"lat": 27.4342195302915, "lng": 80.5318212802915}, "southwest": {"lat": 27.4315215697085, "lng": 80.52912331970849}}}, "icon": "https://maps.gstatic.com/mapfiles/place_api/icons/v1/png_71/school-71.png", "icon_background_color": "#7B9EB0", "icon_mask_base_uri": "https://maps.gstatic.com/mapfiles/place_api/icons/v2/school_pinlet", "name": "Achal Vaish", "place_id": "ChIJozOXabbdnjkRpMzURQRAQ5c", "plus_code": {"compound_code": "CGMJ+55 korouna, Uttar Pradesh, India", "global_code": "7MV2CGMJ+55"}, "reference": "ChIJozOXabbdnjkRpMzURQRAQ5c", "scope": "GOOGLE", "types": ["school", "point_of_interest", "establishment"], "vicinity": "khaki saray"}, {"business_status": "OPERATIONAL", "geometry": {"location": {"lat": 27.431971, "lng": 80.533073}, "viewport": {"northeast": {"lat": 27.4333737302915, "lng": 80.53446823029151}, "southwest": {"lat": 27.4306757697085, "lng": 80.5317702697085}}}, "icon": "https://maps.gstatic.com/mapfiles/place_api/icons/v1/png_71/school-71.png", "icon_background_color": "#7B9EB0", "icon_mask_base_uri": "https://maps.gstatic.com/mapfiles/place_api/icons/v2/school_pinlet", "name": "Malti Devi Degree College", "place_id": "ChIJK8EdrKTcnjkRVMSa0-hYgew", "plus_code": {"compound_code": "CGJM+Q6 korouna, Uttar Pradesh, India", "global_code": "7MV2CGJM+Q6"}, "reference": "ChIJK8EdrKTcnjkRVMSa0-hYgew", "scope": "GOOGLE", "types": ["school", "point_of_interest", "establishment"], "vicinity": "Naimisharanya,sitapur,Uttar Pradesh"}, {"business_status": "OPERATIONAL", "geometry": {"location": {"lat": 27.4326494, "lng": 80.5313944}, "viewport": {"northeast": {"lat": 27.4340387802915, "lng": 80.5327664302915}, "southwest": {"lat": 27.4313408197085, "lng": 80.5300684697085}}}, "icon": "https://maps.gstatic.com/mapfiles/place_api/icons/v1/png_71/school-71.png", "icon_background_color": "#7B9EB0", "icon_mask_base_uri": "https://maps.gstatic.com/mapfiles/place_api/icons/v2/school_pinlet", "name": "Imran Kirana Store", "place_id": "ChIJBTH6obzcnjkR5sV6Kh3aeto", "rating": 5, "reference": "ChIJBTH6obzcnjkR5sV6Kh3aeto", "scope": "GOOGLE", "types": ["school", "point_of_interest", "establishment"], "user_ratings_total": 3, "vicinity": "CGMJ+3H2, Misrikh-cum-Neemsar"}, {"business_status": "OPERATIONAL", "geometry": {"location": {"lat": 27.43054889999999, "lng": 80.5354564}, "viewport": {"northeast": {"lat": 27.4318401802915, "lng": 80.5367586802915}, "southwest": {"lat": 27.4291422197085, "lng": 80.53406071970848}}}, "icon": "https://maps.gstatic.com/mapfiles/place_api/icons/v1/png_71/school-71.png", "icon_background_color": "#7B9EB0", "icon_mask_base_uri": "https://maps.gstatic.com/mapfiles/place_api/icons/v2/school_pinlet", "name": "Rajeshwari Kanya Inter College", "opening_hours": {"open_now": false}, "photos": [{"height": 4000, "html_attributions": ["<a href=\"https://maps.google.com/maps/contrib/110765488536492242120\">Mayank Mishra \u092e\u0941\u0938\u093e\u092b\u093c\u093f\u0930</a>"], "photo_reference": "Aap_uEDVy3iHBsoc8d4u-33rakr6EQZsaSjSLu-eAYT3eYfbPsKFHuL9XjI59SIVFPg20pkgQoiW1a3JigWaGbvndQnjOOUNzVSQ1B8Xr_44LvqKU4gk8GqLb2m5K9AScT8chzCAQn5yWUMs6UgVsJE3K3gE1TAeeTPEZP6awlKu_CIIpNSq", "width": 3000}], "place_id": "ChIJV1XM96TcnjkRurc13xFmZnc", "rating": 4.4, "reference": "ChIJV1XM96TcnjkRurc13xFmZnc", "scope": "GOOGLE", "types": ["school", "point_of_interest", "establishment"], "user_ratings_total": 14, "vicinity": "CGJP+658, Misrikh-cum-Neemsar"}, {"business_status": "OPERATIONAL", "geometry": {"location": {"lat": 27.4330278, "lng": 80.5305891}, "viewport": {"northeast": {"lat": 27.4343568302915, "lng": 80.53196613029151}, "southwest": {"lat": 27.4316588697085, "lng": 80.52926816970849}}}, "icon": "https://maps.gstatic.com/mapfiles/place_api/icons/v1/png_71/school-71.png", "icon_background_color": "#7B9EB0", "icon_mask_base_uri": "https://maps.gstatic.com/mapfiles/place_api/icons/v2/school_pinlet", "name": "Bright way public school khaki sarayan mishrikh", "place_id": "ChIJnxpq5lDdnjkRo6kRtKBy1sw", "reference": "ChIJnxpq5lDdnjkRo6kRtKBy1sw", "scope": "GOOGLE", "types": ["school", "point_of_interest", "establishment"], "vicinity": "CGMJ+668, Misrikh-cum-Neemsar"}, {"business_status": "OPERATIONAL", "geometry": {"location": {"lat": 27.43152469999999, "lng": 80.53630729999999}, "viewport": {"northeast": {"lat": 27.4328527802915, "lng": 80.5375816802915}, "southwest": {"lat": 27.4301548197085, "lng": 80.53488371970847}}}, "icon": "https://maps.gstatic.com/mapfiles/place_api/icons/v1/png_71/school-71.png", "icon_background_color": "#7B9EB0", "icon_mask_base_uri": "https://maps.gstatic.com/mapfiles/place_api/icons/v2/school_pinlet", "name": "Rajeshwari Bal Vidya Mandir", "opening_hours": {"open_now": false}, "place_id": "ChIJXzfLaKTcnjkRkTIGoi8lIiU", "rating": 4, "reference": "ChIJXzfLaKTcnjkRkTIGoi8lIiU", "scope": "GOOGLE", "types": ["school", "point_of_interest", "establishment"], "user_ratings_total": 5, "vicinity": "CGJP+JG3, Misrikh-cum-Neemsar"}, {"business_status": "OPERATIONAL", "geometry": {"location": {"lat": 27.43310959999999, "lng": 80.53059789999999}, "viewport": {"northeast": {"lat": 27.43445858029149, "lng": 80.5319468802915}, "southwest": {"lat": 27.43176061970849, "lng": 80.52924891970848}}}, "icon": "https://maps.gstatic.com/mapfiles/place_api/icons/v1/png_71/school-71.png", "icon_background_color": "#7B9EB0", "icon_mask_base_uri": "https://maps.gstatic.com/mapfiles/place_api/icons/v2/school_pinlet", "name": "Bright Way Public School", "place_id": "ChIJ6_QGvULdnjkRrlZ1HL3Z9Pw", "reference": "ChIJ6_QGvULdnjkRrlZ1HL3Z9Pw", "scope": "GOOGLE", "types": ["school", "point_of_interest", "establishment"], "vicinity": "CGMJ+66X, Misrikh-cum-Neemsar"}], "status": "OK"}