{"html_attributions": [], "results": [{"business_status": "OPERATIONAL", "geometry": {"location": {"lat": 27.63604789999999, "lng": 80.52257639999999}, "viewport": {"northeast": {"lat": 27.63680849999999, "lng": 80.5235238302915}, "southwest": {"lat": 27.6337661, "lng": 80.52082586970849}}}, "icon": "https://maps.gstatic.com/mapfiles/place_api/icons/v1/png_71/school-71.png", "icon_background_color": "#7B9EB0", "icon_mask_base_uri": "https://maps.gstatic.com/mapfiles/place_api/icons/v2/school_pinlet", "name": "Patel Vidya Mandir", "opening_hours": {"open_now": true}, "photos": [{"height": 2352, "html_attributions": ["<a href=\"https://maps.google.com/maps/contrib/103488048628718776624\">Harish Patel</a>"], "photo_reference": "Aap_uEA1ccIDxMBMnl7C7QIgW2UAa4YjPEodg8KjQSpsOIQ7LgFRF1bP5cLxPtopxh2Jx18ceUe4ynwj3_NCTanpwb8ALntJX4sZwuFZXidIfNr_2SLCt8diIsj7Zycch876Pu_J-x1-gEk05SBqLgmkUPhRZLfEPSTNhKYKnECWuKDEwXUb", "width": 4160}], "place_id": "ChIJIUJ3IOEgnzkRrn6eYs62j_g", "plus_code": {"compound_code": "JGPF+C2 Bhurkura, Uttar Pradesh, India", "global_code": "7MV2JGPF+C2"}, "rating": 4.7, "reference": "ChIJIUJ3IOEgnzkRrn6eYs62j_g", "scope": "GOOGLE", "types": ["school", "point_of_interest", "establishment"], "user_ratings_total": 3, "vicinity": "Shiv mandir, Bhurkura"}, {"business_status": "OPERATIONAL", "geometry": {"location": {"lat": 27.632804, "lng": 80.5299541}, "viewport": {"northeast": {"lat": 27.63349825, "lng": 80.53093173029151}, "southwest": {"lat": 27.63072125000001, "lng": 80.52823376970849}}}, "icon": "https://maps.gstatic.com/mapfiles/place_api/icons/v1/png_71/school-71.png", "icon_background_color": "#7B9EB0", "icon_mask_base_uri": "https://maps.gstatic.com/mapfiles/place_api/icons/v2/school_pinlet", "name": "Nausad Gazi", "place_id": "ChIJP80NkLQhnzkRJUYgE5ZjXUA", "reference": "ChIJP80NkLQhnzkRJUYgE5ZjXUA", "scope": "GOOGLE", "types": ["school", "point_of_interest", "establishment"], "vicinity": "JGMH+4XG, Kater Ganj"}, {"business_status": "OPERATIONAL", "geometry": {"location": {"lat": 27.6371956, "lng": 80.5155762}, "viewport": {"northeast": {"lat": 27.6385230302915, "lng": 80.51691383029151}, "southwest": {"lat": 27.6358250697085, "lng": 80.5142158697085}}}, "icon": "https://maps.gstatic.com/mapfiles/place_api/icons/v1/png_71/school-71.png", "icon_background_color": "#7B9EB0", "icon_mask_base_uri": "https://maps.gstatic.com/mapfiles/place_api/icons/v2/school_pinlet", "name": "Primary School Urdauli", "place_id": "ChIJpSRy0eUgnzkRTHnuDeAy-yM", "rating": 2, "reference": "ChIJpSRy0eUgnzkRTHnuDeAy-yM", "scope": "GOOGLE", "types": ["primary_school", "school", "point_of_interest", "establishment"], "user_ratings_total": 1, "vicinity": "JGP8+V6G, Urdauli"}, {"business_status": "OPERATIONAL", "geometry": {"location": {"lat": 27.6367703, "lng": 80.5150558}, "viewport": {"northeast": {"lat": 27.63833213029151, "lng": 80.5165157302915}, "southwest": {"lat": 27.6356341697085, "lng": 80.5138177697085}}}, "icon": "https://maps.gstatic.com/mapfiles/place_api/icons/v1/png_71/school-71.png", "icon_background_color": "#7B9EB0", "icon_mask_base_uri": "https://maps.gstatic.com/mapfiles/place_api/icons/v2/school_pinlet", "name": "\u0938\u094b\u0928\u0942 \u0915\u0949\u0938\u094d\u092e\u0947\u091f\u093f\u0915 \u090f\u0902\u0921 \u092b\u0941\u091f\u0935\u093f\u092f\u0930", "place_id": "ChIJ4aDufYUhnzkRjOP94JM11CQ", "rating": 3, "reference": "ChIJ4aDufYUhnzkRjOP94JM11CQ", "scope": "GOOGLE", "types": ["school", "point_of_interest", "establishment"], "user_ratings_total": 1, "vicinity": "JGP8+P23, Urdauli"}, {"business_status": "OPERATIONAL", "geometry": {"location": {"lat": 27.630325, "lng": 80.529524}, "viewport": {"northeast": {"lat": 27.6320626802915, "lng": 80.53108508029149}, "southwest": {"lat": 27.62936471970849, "lng": 80.52838711970848}}}, "icon": "https://maps.gstatic.com/mapfiles/place_api/icons/v1/png_71/school-71.png", "icon_background_color": "#7B9EB0", "icon_mask_base_uri": "https://maps.gstatic.com/mapfiles/place_api/icons/v2/school_pinlet", "name": "GCSS Inter College", "opening_hours": {"open_now": false}, "photos": [{"height": 567, "html_attributions": ["<a href=\"https://maps.google.com/maps/contrib/117761593258702472128\">GCSS Inter College</a>"], "photo_reference": "Aap_uEAgUbQd2Lzi-8Jqh5jBD3rZPJ8oqn1Tdy1EcmJRXd_O3at-y_jgO4Pj4tUpwKkB65BYbmHllaMeB--CP716zqFyVAb7kYMXeC3uMAiL4nh66_0RM350txUIoQ26RK10A3FxlfoPNQnQDuBCzQDIWYEHP7HhBrgcYI96kpa9qVqBhrr4", "width": 1008}], "place_id": "ChIJA8b8dsQgnzkRAj0RCukUgvE", "plus_code": {"compound_code": "JGJH+4R Kater Ganj, Uttar Pradesh, India", "global_code": "7MV2JGJH+4R"}, "rating": 5, "reference": "ChIJA8b8dsQgnzkRAj0RCukUgvE", "scope": "GOOGLE", "types": ["school", "point_of_interest", "establishment"], "user_ratings_total": 4, "vicinity": "National Highway 30, Kater Ganj"}, {"business_status": "OPERATIONAL", "geometry": {"location": {"lat": 27.6361307, "lng": 80.51511769999999}, "viewport": {"northeast": {"lat": 27.6379456802915, "lng": 80.5167096302915}, "southwest": {"lat": 27.6352477197085, "lng": 80.5140116697085}}}, "icon": "https://maps.gstatic.com/mapfiles/place_api/icons/v1/png_71/school-71.png", "icon_background_color": "#7B9EB0", "icon_mask_base_uri": "https://maps.gstatic.com/mapfiles/place_api/icons/v2/school_pinlet", "name": "vansh verma", "place_id": "ChIJ2cXxFGEhnzkRA18CxV3EMlQ", "plus_code": {"compound_code": "JGP8+F2 Urdauli, Uttar Pradesh, India", "global_code": "7MV2JGP8+F2"}, "reference": "ChIJ2cXxFGEhnzkRA18CxV3EMlQ", "scope": "GOOGLE", "types": ["primary_school", "school", "point_of_interest", "establishment"], "vicinity": "Durgapur - Lamua Road, Urdauli"}], "status": "OK"}