{"html_attributions": [], "results": [{"business_status": "OPERATIONAL", "geometry": {"location": {"lat": 27.7203459, "lng": 80.5355107}, "viewport": {"northeast": {"lat": 27.7220958802915, "lng": 80.53752593029151}, "southwest": {"lat": 27.7193979197085, "lng": 80.5348279697085}}}, "icon": "https://maps.gstatic.com/mapfiles/place_api/icons/v1/png_71/school-71.png", "icon_background_color": "#7B9EB0", "icon_mask_base_uri": "https://maps.gstatic.com/mapfiles/place_api/icons/v2/school_pinlet", "name": "Hitesh verma", "place_id": "ChIJ90_fp5ojnzkR2I1VV5FV7pk", "reference": "ChIJ90_fp5ojnzkR2I1VV5FV7pk", "scope": "GOOGLE", "types": ["school", "point_of_interest", "establishment"], "vicinity": "PGCP+46J, Palhapur"}, {"business_status": "OPERATIONAL", "geometry": {"location": {"lat": 27.72048869999999, "lng": 80.51333249999999}, "viewport": {"northeast": {"lat": 27.7217273802915, "lng": 80.5149067302915}, "southwest": {"lat": 27.71902941970849, "lng": 80.5122087697085}}}, "icon": "https://maps.gstatic.com/mapfiles/place_api/icons/v1/png_71/school-71.png", "icon_background_color": "#7B9EB0", "icon_mask_base_uri": "https://maps.gstatic.com/mapfiles/place_api/icons/v2/school_pinlet", "name": "\u0906\u0926\u0930\u094d\u0936 \u091c\u0928\u0924\u093e \u092e\u093e\u0927\u094d\u092f\u092e\u093f\u0915 \u0935\u093f\u0926\u094d\u092f\u0932\u093e\u092f", "opening_hours": {"open_now": true}, "photos": [{"height": 4000, "html_attributions": ["<a href=\"https://maps.google.com/maps/contrib/112670247924835866759\">Tikam Shukla</a>"], "photo_reference": "Aap_uEDU_Lkudhs8u_Sv2QPwVyiLOEv-zjGblrSTMY4PDDnaIynPqQumoNmf_Qw-Hxu3EmgA9vAq9sb2pvQxJnTe62_b17L5d1VVJJxoG2g4XshrNBcUua224GCz3uGHmC29B7Ex3HSS5S0N52zLcmTc0MEtDF3BgR0SY7rHfK2-KV5gCBjx", "width": 3000}], "place_id": "ChIJq6qqqrYjnzkRP7X-jTsL6lI", "reference": "ChIJq6qqqrYjnzkRP7X-jTsL6lI", "scope": "GOOGLE", "types": ["school", "point_of_interest", "establishment"], "vicinity": "PGC7+58W, Basara"}, {"business_status": "OPERATIONAL", "geometry": {"location": {"lat": 27.7204649, "lng": 80.513311}, "viewport": {"northeast": {"lat": 27.7217023302915, "lng": 80.5148877802915}, "southwest": {"lat": 27.7190043697085, "lng": 80.5121898197085}}}, "icon": "https://maps.gstatic.com/mapfiles/place_api/icons/v1/png_71/school-71.png", "icon_background_color": "#7B9EB0", "icon_mask_base_uri": "https://maps.gstatic.com/mapfiles/place_api/icons/v2/school_pinlet", "name": "Adarsh Janta Madhyamic Vidyalaya Basara", "place_id": "ChIJF5z23tQjnzkRwitmylQdY6g", "reference": "ChIJF5z23tQjnzkRwitmylQdY6g", "scope": "GOOGLE", "types": ["school", "point_of_interest", "establishment"], "vicinity": "PGC7+58M, Basara"}, {"business_status": "OPERATIONAL", "geometry": {"location": {"lat": 27.7285075, "lng": 80.53864519999999}, "viewport": {"northeast": {"lat": 27.7295597802915, "lng": 80.5398579802915}, "southwest": {"lat": 27.7268618197085, "lng": 80.5371600197085}}}, "icon": "https://maps.gstatic.com/mapfiles/place_api/icons/v1/png_71/school-71.png", "icon_background_color": "#7B9EB0", "icon_mask_base_uri": "https://maps.gstatic.com/mapfiles/place_api/icons/v2/school_pinlet", "name": "Manas Verma", "opening_hours": {"open_now": false}, "photos": [{"height": 1120, "html_attributions": ["<a href=\"https://maps.google.com/maps/contrib/101265634580378486776\">MAN SINGH</a>"], "photo_reference": "Aap_uEA-NHrhM07D0S1wzE8evtOM54mqN5kuBwOC71woc4Qu1fsIx5ewqpJvEE2vkCXrH_3fb6dtlNCqdAfqehbXVUje_8uk21voFQx-BuYba4WmvnCyKjLwZdK32M1e2nCPZ4X_YmIqejK1kCOUlqgGyze9eANNQFtgeLf_L-ZFmFFiUHLc", "width": 720}], "place_id": "ChIJxyP3DUkjnzkR5-2dY-OM52o", "plus_code": {"compound_code": "PGHQ+CF Maholi, Uttar Pradesh, India", "global_code": "7MV2PGHQ+CF"}, "reference": "ChIJxyP3DUkjnzkR5-2dY-OM52o", "scope": "GOOGLE", "types": ["primary_school", "school", "point_of_interest", "establishment"], "vicinity": "Village Chiragali Inayatnagar Maholi Dist, Maholi"}, {"business_status": "OPERATIONAL", "geometry": {"location": {"lat": 27.7285565, "lng": 80.5386509}, "viewport": {"northeast": {"lat": 27.7295842802915, "lng": 80.53986083029149}, "southwest": {"lat": 27.7268863197085, "lng": 80.53716286970848}}}, "icon": "https://maps.gstatic.com/mapfiles/place_api/icons/v1/png_71/school-71.png", "icon_background_color": "#7B9EB0", "icon_mask_base_uri": "https://maps.gstatic.com/mapfiles/place_api/icons/v2/school_pinlet", "name": "Primary school", "place_id": "ChIJKTUcrQgjnzkR61L97UdIBxw", "reference": "ChIJKTUcrQgjnzkR61L97UdIBxw", "scope": "GOOGLE", "types": ["school", "point_of_interest", "establishment"], "vicinity": "PGHQ+CFC, Enait Nagar Grant"}], "status": "OK"}