{"html_attributions": [], "results": [{"business_status": "OPERATIONAL", "geometry": {"location": {"lat": 27.0172679, "lng": 80.5521785}, "viewport": {"northeast": {"lat": 27.0186263802915, "lng": 80.5535214302915}, "southwest": {"lat": 27.01592841970849, "lng": 80.55082346970849}}}, "icon": "https://maps.gstatic.com/mapfiles/place_api/icons/v1/png_71/school-71.png", "icon_background_color": "#7B9EB0", "icon_mask_base_uri": "https://maps.gstatic.com/mapfiles/place_api/icons/v2/school_pinlet", "name": "RBS DEGREE COLLEGE", "place_id": "ChIJq6qqqpmknjkRdSNR6CyMd_w", "plus_code": {"compound_code": "2H82+WV Narayanpur, Uttar Pradesh, India", "global_code": "7MV22H82+WV"}, "reference": "ChIJq6qqqpmknjkRdSNR6CyMd_w", "scope": "GOOGLE", "types": ["school", "point_of_interest", "establishment"], "vicinity": "post pachdevra, Narayanpur"}, {"business_status": "OPERATIONAL", "geometry": {"location": {"lat": 27.0163979, "lng": 80.5522034}, "viewport": {"northeast": {"lat": 27.0179414302915, "lng": 80.5537297802915}, "southwest": {"lat": 27.01524346970849, "lng": 80.55103181970848}}}, "icon": "https://maps.gstatic.com/mapfiles/place_api/icons/v1/png_71/school-71.png", "icon_background_color": "#7B9EB0", "icon_mask_base_uri": "https://maps.gstatic.com/mapfiles/place_api/icons/v2/school_pinlet", "name": "Primary school , Tiloiya khurd ,sandila", "photos": [{"height": 3456, "html_attributions": ["<a href=\"https://maps.google.com/maps/contrib/102652650257914597343\">Adarsh Kumar</a>"], "photo_reference": "Aap_uECoCVVCBTGqn5x7Ui4HFb4m8Io1A5e75TUD5Q7hnPBufuTK9W4W6KLcGrFSWdku-Hl040p6_vKxJ3C_rT77ZYz6Ho-xfGqooVlYhrqC86gDcH4EUaDLvXbzwRp2xZHdviC_yeZ1SdqAmSjTIXbKHORr7h5tBWvA1l-jMsdbdOwzS8yf", "width": 4608}], "place_id": "ChIJcbgQVlmlnjkRfo0sOdLY8fg", "plus_code": {"compound_code": "2H82+HV Narayanpur, Uttar Pradesh, India", "global_code": "7MV22H82+HV"}, "rating": 3.3, "reference": "ChIJcbgQVlmlnjkRfo0sOdLY8fg", "scope": "GOOGLE", "types": ["school", "point_of_interest", "establishment"], "user_ratings_total": 3, "vicinity": "Hardoi Road, Narayanpur"}, {"business_status": "OPERATIONAL", "geometry": {"location": {"lat": 27.0143042, "lng": 80.5361329}, "viewport": {"northeast": {"lat": 27.0151083302915, "lng": 80.5372485802915}, "southwest": {"lat": 27.0124103697085, "lng": 80.53455061970848}}}, "icon": "https://maps.gstatic.com/mapfiles/place_api/icons/v1/png_71/school-71.png", "icon_background_color": "#7B9EB0", "icon_mask_base_uri": "https://maps.gstatic.com/mapfiles/place_api/icons/v2/school_pinlet", "name": "Hanuman Mandir Herbal More", "place_id": "ChIJc9SA0M2jnjkRhNpBy4yWczg", "reference": "ChIJc9SA0M2jnjkRhNpBy4yWczg", "scope": "GOOGLE", "types": ["school", "point_of_interest", "establishment"], "vicinity": "2G7P+PFC, Padry"}], "status": "OK"}