{"html_attributions": [], "results": [{"business_status": "OPERATIONAL", "geometry": {"location": {"lat": 27.4611699, "lng": 80.5376283}, "viewport": {"northeast": {"lat": 27.4624395802915, "lng": 80.5392504802915}, "southwest": {"lat": 27.4597416197085, "lng": 80.5365525197085}}}, "icon": "https://maps.gstatic.com/mapfiles/place_api/icons/v1/png_71/school-71.png", "icon_background_color": "#7B9EB0", "icon_mask_base_uri": "https://maps.gstatic.com/mapfiles/place_api/icons/v2/school_pinlet", "name": "senior's radiant academy", "opening_hours": {"open_now": false}, "photos": [{"height": 1536, "html_attributions": ["<a href=\"https://maps.google.com/maps/contrib/104859494002131460563\">senior&#39;s radiant academy</a>"], "photo_reference": "Aap_uEAqMwPUtYgbmvxWrquilsNMcqI6TBMErR4RWpDaGVCagTLbKFEtQl4rNKhllFWXJ_8EVR7CCIliXxI4hb8rv3qNm4Z7rWChS7ujVICJvuk4GQsdKPyqDR4aBxLC2LKBWb16gT3DqFWz99XvJjZ9KDBGm1ApoMUqpB-mT2H59nKGrOit", "width": 2048}], "place_id": "ChIJd_xyUIfcnjkRkuNWKtZL7CM", "plus_code": {"compound_code": "FG6Q+F3 Karmasepur, Uttar Pradesh, India", "global_code": "7MV2FG6Q+F3"}, "rating": 4.3, "reference": "ChIJd_xyUIfcnjkRkuNWKtZL7CM", "scope": "GOOGLE", "types": ["school", "point_of_interest", "establishment"], "user_ratings_total": 24, "vicinity": "Karmasepur"}, {"business_status": "OPERATIONAL", "geometry": {"location": {"lat": 27.4630664, "lng": 80.5386905}, "viewport": {"northeast": {"lat": 27.4642867802915, "lng": 80.54027528029151}, "southwest": {"lat": 27.4615888197085, "lng": 80.53757731970849}}}, "icon": "https://maps.gstatic.com/mapfiles/place_api/icons/v1/png_71/school-71.png", "icon_background_color": "#7B9EB0", "icon_mask_base_uri": "https://maps.gstatic.com/mapfiles/place_api/icons/v2/school_pinlet", "name": "\u0905\u0902\u0917\u094d\u0930\u0947\u091c\u0940 \u092e\u093e\u0927\u094d\u092f\u092e \u0906\u0926\u0930\u094d\u0936 \u092a\u094d\u0930\u093e\u0925\u092e\u093f\u0915 \u0935\u093f\u0926\u094d\u092f\u093e\u0932\u092f \u0915\u0930\u092e\u0938\u0947\u092a\u0941\u0930", "photos": [{"height": 3096, "html_attributions": ["<a href=\"https://maps.google.com/maps/contrib/117720150694671991536\">satish sitapur</a>"], "photo_reference": "Aap_uEB6cIgyIWc7iAFXnDNQVM4O6O7lh5Z2z-7_FGIpXxT1uJelm00ip1KEv1H4ScjLhAIinEp0TlJUrS-4aarK92aOkjLl__jZ1QZ_Pkdtti7eBi2LMOusfYYb6yC_sF3HGhBMN3Fb5gbWEzDgiyxmGqnQzE191sKc4VWfELYhGhKQGs7m", "width": 4128}], "place_id": "ChIJy3OY58XdnjkRNiymWfykzFk", "plus_code": {"compound_code": "FG7Q+6F Karmasepur, Uttar Pradesh, India", "global_code": "7MV2FG7Q+6F"}, "reference": "ChIJy3OY58XdnjkRNiymWfykzFk", "scope": "GOOGLE", "types": ["school", "point_of_interest", "establishment"], "vicinity": "Sitapur - Hardoi Road, Karmasepur"}, {"business_status": "OPERATIONAL", "geometry": {"location": {"lat": 27.4699166, "lng": 80.5440755}, "viewport": {"northeast": {"lat": 27.4712821802915, "lng": 80.5453943302915}, "southwest": {"lat": 27.4685842197085, "lng": 80.5426963697085}}}, "icon": "https://maps.gstatic.com/mapfiles/place_api/icons/v1/png_71/school-71.png", "icon_background_color": "#7B9EB0", "icon_mask_base_uri": "https://maps.gstatic.com/mapfiles/place_api/icons/v2/school_pinlet", "name": "Junior High School Burmi", "place_id": "ChIJkzz1EajbnjkRzAodzV6xjd8", "plus_code": {"compound_code": "FG9V+XJ Burmi, Uttar Pradesh, India", "global_code": "7MV2FG9V+XJ"}, "reference": "ChIJkzz1EajbnjkRzAodzV6xjd8", "scope": "GOOGLE", "types": ["school", "point_of_interest", "establishment"], "vicinity": "Sitapur - Hardoi Road, Burmi"}, {"business_status": "OPERATIONAL", "geometry": {"location": {"lat": 27.4684356, "lng": 80.5538181}, "viewport": {"northeast": {"lat": 27.4697551802915, "lng": 80.5551422302915}, "southwest": {"lat": 27.4670572197085, "lng": 80.55244426970849}}}, "icon": "https://maps.gstatic.com/mapfiles/place_api/icons/v1/png_71/school-71.png", "icon_background_color": "#7B9EB0", "icon_mask_base_uri": "https://maps.gstatic.com/mapfiles/place_api/icons/v2/school_pinlet", "name": "Prakhar public school", "photos": [{"height": 640, "html_attributions": ["<a href=\"https://maps.google.com/maps/contrib/115877165196464272114\">prakhar trivedi</a>"], "photo_reference": "Aap_uEChqFswm5winEY0y9k1dpNHSV9KiSJmxJ3O5Uy-QXRgk-_Oxb_gGxHXJLjcfyWCkCzLMN0fCUHqWZiGvl9xoAiuj5EEYtiGmufaZXhlAta1Gphqk-mIbxh51KGjNOHBXak35ic3RbMwuzpS7fKvnT4X-RMJROPHJ-WnVjBH0YAUL1CX", "width": 640}], "place_id": "ChIJdzLeAZfbnjkRb-BMwMw3NW4", "plus_code": {"compound_code": "FH93+9G Misrikh-cum-Neemsar, Uttar Pradesh, India", "global_code": "7MV2FH93+9G"}, "rating": 4.9, "reference": "ChIJdzLeAZfbnjkRb-BMwMw3NW4", "scope": "GOOGLE", "types": ["school", "point_of_interest", "establishment"], "user_ratings_total": 12, "vicinity": "Village chandrawal, Misrikh-cum-Neemsar"}, {"business_status": "OPERATIONAL", "geometry": {"location": {"lat": 27.469609, "lng": 80.5524408}, "viewport": {"northeast": {"lat": 27.47085008029151, "lng": 80.55369713029151}, "southwest": {"lat": 27.4681521197085, "lng": 80.5509991697085}}}, "icon": "https://maps.gstatic.com/mapfiles/place_api/icons/v1/png_71/school-71.png", "icon_background_color": "#7B9EB0", "icon_mask_base_uri": "https://maps.gstatic.com/mapfiles/place_api/icons/v2/school_pinlet", "name": "Primary School Chandrawal", "opening_hours": {"open_now": false}, "place_id": "ChIJC7LBiTPbnjkRT7e96mrBJ9U", "plus_code": {"compound_code": "FH92+RX Chandraval, Uttar Pradesh, India", "global_code": "7MV2FH92+RX"}, "reference": "ChIJC7LBiTPbnjkRT7e96mrBJ9U", "scope": "GOOGLE", "types": ["school", "point_of_interest", "establishment"], "vicinity": "Burmi, Machhrehta Road, Chandraval"}, {"business_status": "OPERATIONAL", "geometry": {"location": {"lat": 27.4571667, "lng": 80.5378673}, "viewport": {"northeast": {"lat": 27.45859198029151, "lng": 80.53885393029151}, "southwest": {"lat": 27.4558940197085, "lng": 80.53615596970849}}}, "icon": "https://maps.gstatic.com/mapfiles/place_api/icons/v1/png_71/school-71.png", "icon_background_color": "#7B9EB0", "icon_mask_base_uri": "https://maps.gstatic.com/mapfiles/place_api/icons/v2/school_pinlet", "name": "Apex Institute of Language", "photos": [{"height": 1920, "html_attributions": ["<a href=\"https://maps.google.com/maps/contrib/102882180483119184649\">Apex Stars</a>"], "photo_reference": "Aap_uECt0n0pUwcpI65GeICjcJWppwRYMa2LWi5PubIog94Tt0tMtvLBs9fdVZlsXEoyiLQnWX6l_LhbS56OSS3sKcJ5pxa21wgQsu_vQTqmXZ9SWHSX592ydP5llltTG7aeclbcEtPHBuW2vj-vmHQ5LFa7hUbO-XdFChj9myp8L9cszSxY", "width": 2560}], "place_id": "ChIJYVa-tobcnjkR-COHYufIUuk", "plus_code": {"compound_code": "FG4Q+V4 Misrikh-cum-Neemsar, Uttar Pradesh, India", "global_code": "7MV2FG4Q+V4"}, "rating": 3, "reference": "ChIJYVa-tobcnjkR-COHYufIUuk", "scope": "GOOGLE", "types": ["school", "point_of_interest", "establishment"], "user_ratings_total": 2, "vicinity": "near power house, infront of anganwadi, Misrikh-cum-Neemsar"}, {"business_status": "OPERATIONAL", "geometry": {"location": {"lat": 27.4700719, "lng": 80.53948079999999}, "viewport": {"northeast": {"lat": 27.4714171802915, "lng": 80.5408278802915}, "southwest": {"lat": 27.4687192197085, "lng": 80.53812991970848}}}, "icon": "https://maps.gstatic.com/mapfiles/place_api/icons/v1/png_71/school-71.png", "icon_background_color": "#7B9EB0", "icon_mask_base_uri": "https://maps.gstatic.com/mapfiles/place_api/icons/v2/school_pinlet", "name": "Pankaj Kumar", "place_id": "ChIJfSb3ALzdnjkRLUotf4n_FHA", "reference": "ChIJfSb3ALzdnjkRLUotf4n_FHA", "scope": "GOOGLE", "types": ["secondary_school", "school", "point_of_interest", "establishment"], "vicinity": "FGCQ+2QH, Delhi"}, {"business_status": "OPERATIONAL", "geometry": {"location": {"lat": 27.4571946, "lng": 80.53412159999999}, "viewport": {"northeast": {"lat": 27.4582457302915, "lng": 80.53836405}, "southwest": {"lat": 27.4555477697085, "lng": 80.53270744999999}}}, "icon": "https://maps.gstatic.com/mapfiles/place_api/icons/v1/png_71/school-71.png", "icon_background_color": "#7B9EB0", "icon_mask_base_uri": "https://maps.gstatic.com/mapfiles/place_api/icons/v2/school_pinlet", "name": "Primary school", "place_id": "ChIJKeSQV__dnjkR6Z-n6eF7-98", "reference": "ChIJKeSQV__dnjkR6Z-n6eF7-98", "scope": "GOOGLE", "types": ["school", "point_of_interest", "establishment"], "vicinity": "FG4M+VJH, Karmasepur"}], "status": "OK"}