{"html_attributions": [], "results": [{"business_status": "OPERATIONAL", "geometry": {"location": {"lat": 27.73814239999999, "lng": 80.5510765}, "viewport": {"northeast": {"lat": 27.7395588802915, "lng": 80.5524392802915}, "southwest": {"lat": 27.73686091970849, "lng": 80.54974131970849}}}, "icon": "https://maps.gstatic.com/mapfiles/place_api/icons/v1/png_71/school-71.png", "icon_background_color": "#7B9EB0", "icon_mask_base_uri": "https://maps.gstatic.com/mapfiles/place_api/icons/v2/school_pinlet", "name": "Sham sher", "place_id": "ChIJycpxygYlnzkRZYs1LR2Jt6k", "reference": "ChIJycpxygYlnzkRZYs1LR2Jt6k", "scope": "GOOGLE", "types": ["school", "point_of_interest", "establishment"], "vicinity": "PHQ2+7C4, Paragpur Grant"}, {"business_status": "OPERATIONAL", "geometry": {"location": {"lat": 27.738094, "lng": 80.55124479999999}, "viewport": {"northeast": {"lat": 27.7395208302915, "lng": 80.5526097302915}, "southwest": {"lat": 27.73682286970849, "lng": 80.54991176970849}}}, "icon": "https://maps.gstatic.com/mapfiles/place_api/icons/v1/png_71/school-71.png", "icon_background_color": "#7B9EB0", "icon_mask_base_uri": "https://maps.gstatic.com/mapfiles/place_api/icons/v2/school_pinlet", "name": "New K.K Telars", "place_id": "ChIJ3cPQEIolnzkR2LCUR8F4MHc", "rating": 5, "reference": "ChIJ3cPQEIolnzkR2LCUR8F4MHc", "scope": "GOOGLE", "types": ["school", "point_of_interest", "establishment"], "user_ratings_total": 2, "vicinity": "PHQ2+6FQ, Paragpur Grant"}, {"business_status": "OPERATIONAL", "geometry": {"location": {"lat": 27.7378839, "lng": 80.55149449999999}, "viewport": {"northeast": {"lat": 27.7393930302915, "lng": 80.55287628029153}, "southwest": {"lat": 27.7366950697085, "lng": 80.55017831970851}}}, "icon": "https://maps.gstatic.com/mapfiles/place_api/icons/v1/png_71/school-71.png", "icon_background_color": "#7B9EB0", "icon_mask_base_uri": "https://maps.gstatic.com/mapfiles/place_api/icons/v2/school_pinlet", "name": "Junior High school Masjid", "opening_hours": {"open_now": false}, "photos": [{"height": 3456, "html_attributions": ["<a href=\"https://maps.google.com/maps/contrib/101162353515851152639\">Pranshu Shukla</a>"], "photo_reference": "Aap_uEC8K0FMV_g8q3hU9AJDi5O7odV6US2h8CfiUd9wxsllzpF59iqoB7BeqRYFUb_AzRMaqhHDb03KOphiZoJElCNmPR-0IMhlyxwhbX5oAq5uxy5LPornqNAt6TpFfIpzTzwGsOfJ2_L4NhbecuZ3edN2bT7_qBvoyUGMiGFrAb09JEol", "width": 4608}], "place_id": "ChIJEz8GWAIlnzkRWNpq38TQt-4", "plus_code": {"compound_code": "PHQ2+5H Farka Tara, Uttar Pradesh, India", "global_code": "7MV2PHQ2+5H"}, "rating": 3, "reference": "ChIJEz8GWAIlnzkRWNpq38TQt-4", "scope": "GOOGLE", "types": ["school", "point_of_interest", "establishment"], "user_ratings_total": 1, "vicinity": "Major District Road 18C, Farka Tara"}], "status": "OK"}