{"html_attributions": [], "results": [{"business_status": "OPERATIONAL", "geometry": {"location": {"lat": 27.3950269, "lng": 79.76697659999999}, "viewport": {"northeast": {"lat": 27.3963759302915, "lng": 79.76832538029151}, "southwest": {"lat": 27.3936779697085, "lng": 79.7656274197085}}}, "icon": "https://maps.gstatic.com/mapfiles/place_api/icons/v1/png_71/school-71.png", "icon_background_color": "#7B9EB0", "icon_mask_base_uri": "https://maps.gstatic.com/mapfiles/place_api/icons/v2/school_pinlet", "name": "Veerangna awantibai lodhi degree College kanatthukheda hardoi", "photos": [{"height": 4032, "html_attributions": ["<a href=\"https://maps.google.com/maps/contrib/117858910581793463516\">Alone Aashiq</a>"], "photo_reference": "Aap_uECjxX-Ro_LeRvfHsyTMhUwztEnJFMtvY-je-thGN8bq092QwS5pK8CjudWyJx5ygJ15UC2eQj_tc1LLvTyzv18UigBgC5sx5WrXFm7S4lxqOlBir2dqvaLTgiUpBrCs-VoeYByDC0CaSHVjHfPr4k2t7672VLQUNSRfbOlZlqt9zFQx", "width": 1908}], "place_id": "ChIJ7ZVp3mdJnjkRJIRx_8DJ4hY", "plus_code": {"compound_code": "9QW8+2Q Nagra Choudharpur, Uttar Pradesh, India", "global_code": "7JVX9QW8+2Q"}, "rating": 5, "reference": "ChIJ7ZVp3mdJnjkRJIRx_8DJ4hY", "scope": "GOOGLE", "types": ["school", "point_of_interest", "establishment"], "user_ratings_total": 1, "vicinity": "Unnamed Road, Nagra Choudharpur"}, {"business_status": "OPERATIONAL", "geometry": {"location": {"lat": 27.3979438, "lng": 79.7553013}, "viewport": {"northeast": {"lat": 27.3992891302915, "lng": 79.7566554802915}, "southwest": {"lat": 27.39659116970849, "lng": 79.7539575197085}}}, "icon": "https://maps.gstatic.com/mapfiles/place_api/icons/v1/png_71/school-71.png", "icon_background_color": "#7B9EB0", "icon_mask_base_uri": "https://maps.gstatic.com/mapfiles/place_api/icons/v2/school_pinlet", "name": "BRIJESH RAJPUT JAN SEWA KENDRA BHUPATIPUR NAGRA", "place_id": "ChIJlaZubFlJnjkRgcDpgwKXBlY", "plus_code": {"compound_code": "9QX4+54 Bhupatipur Nagar, Uttar Pradesh, India", "global_code": "7JVX9QX4+54"}, "reference": "ChIJlaZubFlJnjkRgcDpgwKXBlY", "scope": "GOOGLE", "types": ["school", "point_of_interest", "establishment"], "vicinity": "Unnamed Road, Bhupatipur Nagar"}, {"business_status": "OPERATIONAL", "geometry": {"location": {"lat": 27.3979438, "lng": 79.7553013}, "viewport": {"northeast": {"lat": 27.3992891302915, "lng": 79.7566554802915}, "southwest": {"lat": 27.39659116970849, "lng": 79.7539575197085}}}, "icon": "https://maps.gstatic.com/mapfiles/place_api/icons/v1/png_71/school-71.png", "icon_background_color": "#7B9EB0", "icon_mask_base_uri": "https://maps.gstatic.com/mapfiles/place_api/icons/v2/school_pinlet", "name": "Janta Inter College Tikaiya", "place_id": "ChIJv8c9GwhJnjkRhX8hbhPABKs", "plus_code": {"compound_code": "9QX4+54 Bhupatipur Nagar, Uttar Pradesh, India", "global_code": "7JVX9QX4+54"}, "reference": "ChIJv8c9GwhJnjkRhX8hbhPABKs", "scope": "GOOGLE", "types": ["school", "point_of_interest", "establishment"], "vicinity": "Unnamed Road, Bhupatipur Nagar"}, {"business_status": "OPERATIONAL", "geometry": {"location": {"lat": 27.4053755, "lng": 79.7544423}, "viewport": {"northeast": {"lat": 27.40646215, "lng": 79.7552591302915}, "southwest": {"lat": 27.40211555, "lng": 79.7525611697085}}}, "icon": "https://maps.gstatic.com/mapfiles/place_api/icons/v1/png_71/school-71.png", "icon_background_color": "#7B9EB0", "icon_mask_base_uri": "https://maps.gstatic.com/mapfiles/place_api/icons/v2/school_pinlet", "name": "nitesh kumar", "place_id": "ChIJAZoeYZhJnjkRfd74k9VPxeA", "reference": "ChIJAZoeYZhJnjkRfd74k9VPxeA", "scope": "GOOGLE", "types": ["primary_school", "school", "point_of_interest", "establishment"], "vicinity": "CQ43+5Q4, Bhupatipur Nagar"}], "status": "OK"}