{"html_attributions": [], "results": [{"business_status": "OPERATIONAL", "geometry": {"location": {"lat": 27.1911078, "lng": 80.6139177}, "viewport": {"northeast": {"lat": 27.1926455302915, "lng": 80.6153831802915}, "southwest": {"lat": 27.1899475697085, "lng": 80.6126852197085}}}, "icon": "https://maps.gstatic.com/mapfiles/place_api/icons/v1/png_71/school-71.png", "icon_background_color": "#7B9EB0", "icon_mask_base_uri": "https://maps.gstatic.com/mapfiles/place_api/icons/v2/school_pinlet", "name": "Ram pal mahavidyalaya", "opening_hours": {"open_now": false}, "photos": [{"height": 1280, "html_attributions": ["<a href=\"https://maps.google.com/maps/contrib/106491534664945789901\">Anand Shukla</a>"], "photo_reference": "Aap_uECu6bYKTMqSpbwJY8D2Lg-x3O9uBRiJlQCrHoI0nM-tejntHdm3JzH0rLFU8qgKb4Nt_DejlvXjGVZPsL094PxsEMvJOhb3w_YmClObINQcPMxPDFrIQvoOYNScV9IqTe92YONrcxizsAJUid0-t_2sjxBQIpX8HsKfM9xeORgFUfDP", "width": 960}], "place_id": "ChIJEU06-Uq5njkR8iwoXL5_x0s", "rating": 5, "reference": "ChIJEU06-Uq5njkR8iwoXL5_x0s", "scope": "GOOGLE", "types": ["school", "point_of_interest", "establishment"], "user_ratings_total": 1, "vicinity": "5JR7+CHV, Jalalpur"}, {"business_status": "OPERATIONAL", "geometry": {"location": {"lat": 27.1874766, "lng": 80.619095}, "viewport": {"northeast": {"lat": 27.1888571302915, "lng": 80.6204702302915}, "southwest": {"lat": 27.1861591697085, "lng": 80.6177722697085}}}, "icon": "https://maps.gstatic.com/mapfiles/place_api/icons/v1/png_71/school-71.png", "icon_background_color": "#7B9EB0", "icon_mask_base_uri": "https://maps.gstatic.com/mapfiles/place_api/icons/v2/school_pinlet", "name": "school Primary Gaurikalan", "photos": [{"height": 1920, "html_attributions": ["<a href=\"https://maps.google.com/maps/contrib/107310741514093575121\">VIPIN KUMAR</a>"], "photo_reference": "Aap_uEBnSTY8ZM1vYnnBc9maqyq83Fe9OK0lHmvddRNIT-Muh71MYMmMEKcHaJq8vHvO16zVqyXQH2EqGmeAhDbACxUdaVYwIwSNU_2jCUzFR_mY6tokjRN0YBJpg7BV7vcB9Wo5xj39sIsku6s7h0S-8GIKQE2Bo8O2Ovy0l1TDFTbKdTGe", "width": 1080}], "place_id": "ChIJydyi2gK5njkRGfl8byUBOOo", "reference": "ChIJydyi2gK5njkRGfl8byUBOOo", "scope": "GOOGLE", "types": ["school", "point_of_interest", "establishment"], "vicinity": "5JP9+XJX, Baheriya"}, {"business_status": "OPERATIONAL", "geometry": {"location": {"lat": 27.1905931, "lng": 80.6168419}, "viewport": {"northeast": {"lat": 27.1918762802915, "lng": 80.6181813802915}, "southwest": {"lat": 27.18917831970849, "lng": 80.61548341970848}}}, "icon": "https://maps.gstatic.com/mapfiles/place_api/icons/v1/png_71/school-71.png", "icon_background_color": "#7B9EB0", "icon_mask_base_uri": "https://maps.gstatic.com/mapfiles/place_api/icons/v2/school_pinlet", "name": "Gram Panchayt Dhikunni", "place_id": "ChIJ59jy25G5njkRh7KYn1K5XvQ", "plus_code": {"compound_code": "5JR8+6P Jalalpur, Uttar Pradesh, India", "global_code": "7MV25JR8+6P"}, "reference": "ChIJ59jy25G5njkRh7KYn1K5XvQ", "scope": "GOOGLE", "types": ["school", "point_of_interest", "establishment"], "vicinity": "MDR 74C, Jalalpur"}], "status": "OK"}