{"html_attributions": [], "results": [{"business_status": "OPERATIONAL", "geometry": {"location": {"lat": 27.60860559999999, "lng": 79.7716628}, "viewport": {"northeast": {"lat": 27.6097715302915, "lng": 79.77321673029151}, "southwest": {"lat": 27.6070735697085, "lng": 79.77051876970849}}}, "icon": "https://maps.gstatic.com/mapfiles/place_api/icons/v1/png_71/school-71.png", "icon_background_color": "#7B9EB0", "icon_mask_base_uri": "https://maps.gstatic.com/mapfiles/place_api/icons/v2/school_pinlet", "name": "bramhadev chakrachaa", "photos": [{"height": 720, "html_attributions": ["<a href=\"https://maps.google.com/maps/contrib/102276064428132345791\">Harshit Mishra 2640</a>"], "photo_reference": "Aap_uEBoJMCQiqd6jPoriOe4hy7l2_LUdpjvAqXcTlMii6_n_5SAGF59Azd15KjZA2EeamA3DUKPzxiPgy1TOXd5fatncvAE89lJXKcjA6Ez2dwlRdFTJ_GKXUGFza0n0Mx212Wb_Xb35i-NzaAZerkhyDSSzKYnSZ3FcZqyfEcUmkS_Pec5", "width": 1280}], "place_id": "ChIJkV79jLe1nzkRdL27Zn3SmtU", "reference": "ChIJkV79jLe1nzkRdL27Zn3SmtU", "scope": "GOOGLE", "types": ["school", "point_of_interest", "establishment"], "vicinity": "JQ5C+CMV, Chakrachha"}, {"business_status": "OPERATIONAL", "geometry": {"location": {"lat": 27.5921906, "lng": 79.7655876}, "viewport": {"northeast": {"lat": 27.5935475802915, "lng": 79.76706323029151}, "southwest": {"lat": 27.59084961970849, "lng": 79.7643652697085}}}, "icon": "https://maps.gstatic.com/mapfiles/place_api/icons/v1/png_71/school-71.png", "icon_background_color": "#7B9EB0", "icon_mask_base_uri": "https://maps.gstatic.com/mapfiles/place_api/icons/v2/school_pinlet", "name": "Bilsar harsen", "place_id": "ChIJ6zCRkle1nzkRZ5fCqHgSw2s", "plus_code": {"compound_code": "HQR8+V6 Bilsar Harsen, Uttar Pradesh, India", "global_code": "7JVXHQR8+V6"}, "reference": "ChIJ6zCRkle1nzkRZ5fCqHgSw2s", "scope": "GOOGLE", "types": ["primary_school", "school", "point_of_interest", "establishment"], "vicinity": "Unnamed Road"}, {"business_status": "OPERATIONAL", "geometry": {"location": {"lat": 27.5929349, "lng": 79.77376629999999}, "viewport": {"northeast": {"lat": 27.5939113802915, "lng": 79.7746822302915}, "southwest": {"lat": 27.5912134197085, "lng": 79.77198426970848}}}, "icon": "https://maps.gstatic.com/mapfiles/place_api/icons/v1/png_71/school-71.png", "icon_background_color": "#7B9EB0", "icon_mask_base_uri": "https://maps.gstatic.com/mapfiles/place_api/icons/v2/school_pinlet", "name": "Manteshri School S.k Bilshar Helan", "place_id": "ChIJfY7iVhy1nzkROxqOD7cj7M0", "reference": "ChIJfY7iVhy1nzkROxqOD7cj7M0", "scope": "GOOGLE", "types": ["school", "point_of_interest", "establishment"], "vicinity": "HQVF+5GC, Bilsar Helan"}], "status": "OK"}