{"html_attributions": [], "results": [{"business_status": "OPERATIONAL", "geometry": {"location": {"lat": 27.1003852, "lng": 80.62712959999999}, "viewport": {"northeast": {"lat": 27.1018692302915, "lng": 80.62855913029149}, "southwest": {"lat": 27.0991712697085, "lng": 80.62586116970849}}}, "icon": "https://maps.gstatic.com/mapfiles/place_api/icons/v1/png_71/school-71.png", "icon_background_color": "#7B9EB0", "icon_mask_base_uri": "https://maps.gstatic.com/mapfiles/place_api/icons/v2/school_pinlet", "name": "Primary School Tilakkhera", "photos": [{"height": 4656, "html_attributions": ["<a href=\"https://maps.google.com/maps/contrib/100991745091079875766\">Ravi 7388594088</a>"], "photo_reference": "Aap_uEBBiuU5iNpVx2RT2Bl5fYHItCzUvgfdzYcdOE2pgBjNgd4jro52NXAnYRcEIXpfS51v07V6gEuiLp7nPLtZFwqJO6kNeeT5bxLk_PDBiDpzQMQ9rgWTLU_DLlsI7UBVYZhzq5Oh5pJAF3kDs3og5YFmIqhOXDq9Y5gSZuSK5H1V1YYO", "width": 2096}], "place_id": "ChIJzyKSf9m7njkRXei4eEmkIys", "rating": 4.7, "reference": "ChIJzyKSf9m7njkRXei4eEmkIys", "scope": "GOOGLE", "types": ["school", "point_of_interest", "establishment"], "user_ratings_total": 3, "vicinity": "4J2G+5V2, Village Mandoli"}, {"business_status": "OPERATIONAL", "geometry": {"location": {"lat": 27.10145, "lng": 80.629555}, "viewport": {"northeast": {"lat": 27.1027752802915, "lng": 80.63084528029151}, "southwest": {"lat": 27.1000773197085, "lng": 80.6281473197085}}}, "icon": "https://maps.gstatic.com/mapfiles/place_api/icons/v1/png_71/school-71.png", "icon_background_color": "#7B9EB0", "icon_mask_base_uri": "https://maps.gstatic.com/mapfiles/place_api/icons/v2/school_pinlet", "name": "Madarsa Abrarul Huque Tilakkhera", "place_id": "ChIJVXHYTPa7njkRKruDn2xa-8c", "plus_code": {"compound_code": "4J2H+HR Mandoly, Uttar Pradesh, India", "global_code": "7MV24J2H+HR"}, "rating": 5, "reference": "ChIJVXHYTPa7njkRKruDn2xa-8c", "scope": "GOOGLE", "types": ["school", "point_of_interest", "establishment"], "user_ratings_total": 1, "vicinity": "Unnamed Road, Mandoly"}, {"business_status": "OPERATIONAL", "geometry": {"location": {"lat": 27.1080347, "lng": 80.6310972}, "viewport": {"northeast": {"lat": 27.1093233302915, "lng": 80.6323665802915}, "southwest": {"lat": 27.1066253697085, "lng": 80.6296686197085}}}, "icon": "https://maps.gstatic.com/mapfiles/place_api/icons/v1/png_71/school-71.png", "icon_background_color": "#7B9EB0", "icon_mask_base_uri": "https://maps.gstatic.com/mapfiles/place_api/icons/v2/school_pinlet", "name": "Prathmik vidhyalaya", "photos": [{"height": 2250, "html_attributions": ["<a href=\"https://maps.google.com/maps/contrib/101066289289226555551\">Ankush Dutta</a>"], "photo_reference": "Aap_uECWufO03yHK9yC2A8MFd4kYGVMb3ZvUuN97v3FYW6GDw0lm2ypP-pEy7Pu9rzLaCs5a_tGoAO9TqAJEvXzpV3k6CKMwTXV0g9UmGsj4JbdKl6UB3uO9mCFW_wuDDTJj74Fs4Y_RsPJzWCRyqsyzHDucKTWjtQC8ltNoTR61pb5vCImn", "width": 4000}], "place_id": "ChIJ5Z42T_m7njkRCvz3S2gAM2I", "plus_code": {"compound_code": "4J5J+6C Gauswa, Uttar Pradesh, India", "global_code": "7MV24J5J+6C"}, "reference": "ChIJ5Z42T_m7njkRCvz3S2gAM2I", "scope": "GOOGLE", "types": ["primary_school", "school", "point_of_interest", "establishment"], "vicinity": "Unnamed Road, Gauswa"}], "status": "OK"}