{"html_attributions": [], "results": [{"business_status": "OPERATIONAL", "geometry": {"location": {"lat": 27.4784885, "lng": 80.6263875}, "viewport": {"northeast": {"lat": 27.4797727802915, "lng": 80.62781703029152}, "southwest": {"lat": 27.4770748197085, "lng": 80.6251190697085}}}, "icon": "https://maps.gstatic.com/mapfiles/place_api/icons/v1/png_71/school-71.png", "icon_background_color": "#7B9EB0", "icon_mask_base_uri": "https://maps.gstatic.com/mapfiles/place_api/icons/v2/school_pinlet", "name": "\u092a\u0942\u0930\u094d\u0935 \u092e\u093e\u0927\u094d\u092f\u092e\u093f\u0915 \u0935\u093f\u0926\u094d\u092f\u093e\u0932\u092f \u092a\u094c\u095c\u093e\u0935\u0930", "photos": [{"height": 1152, "html_attributions": ["<a href=\"https://maps.google.com/maps/contrib/100844290937575549906\">Rajesh Kumar</a>"], "photo_reference": "Aap_uECRLc5qpCYXyXgPD6KcXriBg5FOwHsZwSSSVcEDxpADoIDqyV6QiMIa_zwA1Fi5afZ9OLS_I7WT-7YMUVzw9GuIdPkoEUhenvusJimtIGt6bqO4D7A_gYP5_ruzqR01DCksYGX6wqybUR6Szqz4LeTRD3wAyDshgOHS7ESZqtmRQAv7", "width": 2048}], "place_id": "ChIJhVLtEHranjkREA8Jet2vqKY", "plus_code": {"compound_code": "FJHG+9H Sirdharpur, Uttar Pradesh, India", "global_code": "7MV2FJHG+9H"}, "rating": 5, "reference": "ChIJhVLtEHranjkREA8Jet2vqKY", "scope": "GOOGLE", "types": ["school", "point_of_interest", "establishment"], "user_ratings_total": 1, "vicinity": "Unnamed Road,"}, {"business_status": "OPERATIONAL", "geometry": {"location": {"lat": 27.4791332, "lng": 80.621591}, "viewport": {"northeast": {"lat": 27.4799542302915, "lng": 80.6227833302915}, "southwest": {"lat": 27.4772562697085, "lng": 80.62008536970849}}}, "icon": "https://maps.gstatic.com/mapfiles/place_api/icons/v1/png_71/school-71.png", "icon_background_color": "#7B9EB0", "icon_mask_base_uri": "https://maps.gstatic.com/mapfiles/place_api/icons/v2/school_pinlet", "name": "Haskhera Sumit pandey", "photos": [{"height": 4032, "html_attributions": ["<a href=\"https://maps.google.com/maps/contrib/102756712610609565549\">Sumit kumar Pandey</a>"], "photo_reference": "Aap_uECG4BfpMAWp2Ri0Wg3whb7088x4CMmvcuMUnljobR2g0mx9f7rLL2WhvnAVQSAcRWPOWlau3Zv1HvTHxR3xLzDgDtONK_n3Zo2lDLvI26HOFetLRbpiwOS3fyzG_QxiBIoOodeItwn1CX20hjCYiqh4ZeDFov3lYwGNcSPto_V0yhls", "width": 1960}], "place_id": "ChIJv4c5k3HbnjkRZ2YDtYWd5Ng", "plus_code": {"compound_code": "FJHC+MJ Sirdharpur, Uttar Pradesh, India", "global_code": "7MV2FJHC+MJ"}, "reference": "ChIJv4c5k3HbnjkRZ2YDtYWd5Ng", "scope": "GOOGLE", "types": ["school", "point_of_interest", "establishment"], "vicinity": ""}, {"business_status": "OPERATIONAL", "geometry": {"location": {"lat": 27.4865032, "lng": 80.63559160000001}, "viewport": {"northeast": {"lat": 27.4881493802915, "lng": 80.63812149999998}, "southwest": {"lat": 27.4854514197085, "lng": 80.63474830000004}}}, "icon": "https://maps.gstatic.com/mapfiles/place_api/icons/v1/png_71/school-71.png", "icon_background_color": "#7B9EB0", "icon_mask_base_uri": "https://maps.gstatic.com/mapfiles/place_api/icons/v2/school_pinlet", "name": "Mishra Computer Shop Parsada", "place_id": "ChIJp7kWn1XRnjkRapiabvZNQsM", "reference": "ChIJp7kWn1XRnjkRapiabvZNQsM", "scope": "GOOGLE", "types": ["school", "point_of_interest", "establishment"], "vicinity": "FJPP+J64, Parsada"}], "status": "OK"}