{"html_attributions": [], "results": [{"business_status": "OPERATIONAL", "geometry": {"location": {"lat": 27.6296975, "lng": 80.6277959}, "viewport": {"northeast": {"lat": 27.6310802302915, "lng": 80.6291896302915}, "southwest": {"lat": 27.62838226970849, "lng": 80.6264916697085}}}, "icon": "https://maps.gstatic.com/mapfiles/place_api/icons/v1/png_71/school-71.png", "icon_background_color": "#7B9EB0", "icon_mask_base_uri": "https://maps.gstatic.com/mapfiles/place_api/icons/v2/school_pinlet", "name": "Hazi murtiza market", "photos": [{"height": 3456, "html_attributions": ["<a href=\"https://maps.google.com/maps/contrib/117526102451373176469\">Mohd Rehan</a>"], "photo_reference": "Aap_uEBZqmWyANHofoD-FfIAxh1d_VBG6_3gJZLWESBUqQFzuexobVOf4bzAlzlZbZaBljI4YlMBt-9jTwEMIXTkOg6xQ-5MFWdB63jF01TDfxVWNdCZ_eKnXaJ1rXINda8LEA_Xck6g0hcd_bEV4eIt_5QO_Hgh_t8aQDWO11-lV9Av-Alt", "width": 4608}], "place_id": "ChIJbbPYhPQnnzkRIdQzAdZMg5U", "plus_code": {"compound_code": "JJHH+V4 Mahmudpur, Uttar Pradesh, India", "global_code": "7MV2JJHH+V4"}, "rating": 1, "reference": "ChIJbbPYhPQnnzkRIdQzAdZMg5U", "scope": "GOOGLE", "types": ["school", "point_of_interest", "establishment"], "user_ratings_total": 1, "vicinity": "Unnamed Road"}, {"business_status": "OPERATIONAL", "geometry": {"location": {"lat": 27.627837, "lng": 80.6343812}, "viewport": {"northeast": {"lat": 27.6290084302915, "lng": 80.63564788029151}, "southwest": {"lat": 27.6263104697085, "lng": 80.63294991970851}}}, "icon": "https://maps.gstatic.com/mapfiles/place_api/icons/v1/png_71/school-71.png", "icon_background_color": "#7B9EB0", "icon_mask_base_uri": "https://maps.gstatic.com/mapfiles/place_api/icons/v2/school_pinlet", "name": "D P R D School", "opening_hours": {"open_now": true}, "place_id": "ChIJKRETXQoonzkRwc8Gc5-bm-Q", "reference": "ChIJKRETXQoonzkRwc8Gc5-bm-Q", "scope": "GOOGLE", "types": ["school", "point_of_interest", "establishment"], "vicinity": "JJHM+4QJ, Sahroikalika Bux"}, {"business_status": "OPERATIONAL", "geometry": {"location": {"lat": 27.617296, "lng": 80.6183585}, "viewport": {"northeast": {"lat": 27.6185115802915, "lng": 80.6196193302915}, "southwest": {"lat": 27.6158136197085, "lng": 80.61692136970849}}}, "icon": "https://maps.gstatic.com/mapfiles/place_api/icons/v1/png_71/school-71.png", "icon_background_color": "#7B9EB0", "icon_mask_base_uri": "https://maps.gstatic.com/mapfiles/place_api/icons/v2/school_pinlet", "name": "\u092a\u0942\u0930\u094d\u0935 \u092e\u093e\u0927\u094d\u092f\u092e\u093f\u0915 \u0935\u093f\u0926\u094d\u092f\u093e\u0932\u092f", "place_id": "ChIJsx4zABInnzkRiL748_y4Oro", "reference": "ChIJsx4zABInnzkRiL748_y4Oro", "scope": "GOOGLE", "types": ["school", "point_of_interest", "establishment"], "vicinity": "JJ89+W89, Bhawanipur Kalika Bux"}, {"business_status": "OPERATIONAL", "geometry": {"location": {"lat": 27.6160985, "lng": 80.61730829999999}, "viewport": {"northeast": {"lat": 27.6174353302915, "lng": 80.61866248029149}, "southwest": {"lat": 27.6147373697085, "lng": 80.61596451970848}}}, "icon": "https://maps.gstatic.com/mapfiles/place_api/icons/v1/png_71/school-71.png", "icon_background_color": "#7B9EB0", "icon_mask_base_uri": "https://maps.gstatic.com/mapfiles/place_api/icons/v2/school_pinlet", "name": "Primary School Bhavanipur Block Aliya", "photos": [{"height": 1996, "html_attributions": ["<a href=\"https://maps.google.com/maps/contrib/101372114727954437809\">Raj Gupta</a>"], "photo_reference": "Aap_uEDdxi_qJaFiAGWvUz0o5kqxuNppZd_aZ2mmzm0H80UdsIS5lGVdxD1K7BBMN7UqCj4eZuykkko2obn8solnUg6PSbHH20bLNhVsQdlFeMcz9FPUakRoPYRuDytIpzK2qbqK_eXRQh-9naPYS_H39Fi2AJYbA1k4WUo6nYgGEmk7BM1c", "width": 3298}], "place_id": "ChIJD72leicnnzkR9v5zj8CILQE", "plus_code": {"compound_code": "JJ88+CW Khagasiya Mau, Uttar Pradesh, India", "global_code": "7MV2JJ88+CW"}, "rating": 4, "reference": "ChIJD72leicnnzkR9v5zj8CILQE", "scope": "GOOGLE", "types": ["school", "point_of_interest", "establishment"], "user_ratings_total": 1, "vicinity": "Unnamed Road, Khagasiya Mau"}, {"business_status": "OPERATIONAL", "geometry": {"location": {"lat": 27.6161514, "lng": 80.61719939999999}, "viewport": {"northeast": {"lat": 27.6175008802915, "lng": 80.61853678029149}, "southwest": {"lat": 27.6148029197085, "lng": 80.61583881970849}}}, "icon": "https://maps.gstatic.com/mapfiles/place_api/icons/v1/png_71/school-71.png", "icon_background_color": "#7B9EB0", "icon_mask_base_uri": "https://maps.gstatic.com/mapfiles/place_api/icons/v2/school_pinlet", "name": "Primary School Bhabanipur", "place_id": "ChIJe2oRZZcnnzkRpHXfMz8yu7c", "plus_code": {"compound_code": "JJ88+FV Khagasiya Mau, Uttar Pradesh, India", "global_code": "7MV2JJ88+FV"}, "reference": "ChIJe2oRZZcnnzkRpHXfMz8yu7c", "scope": "GOOGLE", "types": ["school", "point_of_interest", "establishment"], "vicinity": "Unnamed Road, Khagasiya Mau"}, {"business_status": "OPERATIONAL", "geometry": {"location": {"lat": 27.6105198, "lng": 80.62334729999999}, "viewport": {"northeast": {"lat": 27.6118701302915, "lng": 80.62473328029151}, "southwest": {"lat": 27.60917216970849, "lng": 80.6220353197085}}}, "icon": "https://maps.gstatic.com/mapfiles/place_api/icons/v1/png_71/school-71.png", "icon_background_color": "#7B9EB0", "icon_mask_base_uri": "https://maps.gstatic.com/mapfiles/place_api/icons/v2/school_pinlet", "name": "Sarna", "place_id": "ChIJAQpOsfknnzkRwVpib9JoEUo", "reference": "ChIJAQpOsfknnzkRwVpib9JoEUo", "scope": "GOOGLE", "types": ["primary_school", "school", "point_of_interest", "establishment"], "vicinity": "JJ6F+685, Bhawanipur Kalika Bux"}], "status": "OK"}