{"html_attributions": [], "results": [{"business_status": "OPERATIONAL", "geometry": {"location": {"lat": 27.0450235, "lng": 80.6509288}, "viewport": {"northeast": {"lat": 27.0463226302915, "lng": 80.65224738029151}, "southwest": {"lat": 27.0436246697085, "lng": 80.6495494197085}}}, "icon": "https://maps.gstatic.com/mapfiles/place_api/icons/v1/png_71/school-71.png", "icon_background_color": "#7B9EB0", "icon_mask_base_uri": "https://maps.gstatic.com/mapfiles/place_api/icons/v2/school_pinlet", "name": "Primary School Rampurwa", "photos": [{"height": 2448, "html_attributions": ["<a href=\"https://maps.google.com/maps/contrib/117799798362592775438\">Sandeep Kumar</a>"], "photo_reference": "Aap_uEAGb9BajllGdn769XPt_bUL1iuwl0_bNiEJIQwsiw376TOWI-_RMp9T_OQtVpgDbRyz0UzcN76psRFTvAMRceZyj2PWO52rDP1-Dmf9x2oZSNX665dtDRKI93080IZ_swwiWrksXjzXZqkq14oVOrO7dta_hBUoxHhKgMhsoqpxgLsk", "width": 3264}], "place_id": "ChIJ9S_cGTevnjkR_uD03a00ots", "plus_code": {"compound_code": "2MW2+29 Gorava Baravki, Uttar Pradesh, India", "global_code": "7MV22MW2+29"}, "reference": "ChIJ9S_cGTevnjkR_uD03a00ots", "scope": "GOOGLE", "types": ["school", "point_of_interest", "establishment"], "vicinity": "Unnamed Road, Gorava Baravki"}, {"business_status": "OPERATIONAL", "geometry": {"location": {"lat": 27.0380503, "lng": 80.6428523}, "viewport": {"northeast": {"lat": 27.0392276802915, "lng": 80.6443201802915}, "southwest": {"lat": 27.0365297197085, "lng": 80.6416222197085}}}, "icon": "https://maps.gstatic.com/mapfiles/place_api/icons/v1/png_71/school-71.png", "icon_background_color": "#7B9EB0", "icon_mask_base_uri": "https://maps.gstatic.com/mapfiles/place_api/icons/v2/school_pinlet", "name": "Govt.high school Saspan Mall Lucknow", "photos": [{"height": 1080, "html_attributions": ["<a href=\"https://maps.google.com/maps/contrib/116333106972620603005\">Vipin Kumar</a>"], "photo_reference": "Aap_uECoA9LoYjXLO2KX-zgYlh5DX-EKBSLW-Zuekt1Cy5Lw8e93EyPXiCjxrQBS6BECzdenKUdxYYM3CQEomgxS3PiB4jhBRqq0crPb_3muOU85coqxZtk370HA0FlAAtD1xva82Rap_6KBJtKiqSNcKllPPRZdIQH5f2rFnkBHEb4wgNM", "width": 1080}], "place_id": "ChIJu999TFGvnjkRuRXS-JPZATY", "reference": "ChIJu999TFGvnjkRuRXS-JPZATY", "scope": "GOOGLE", "types": ["school", "point_of_interest", "establishment"], "vicinity": "2JQV+64H, Saspan"}, {"business_status": "OPERATIONAL", "geometry": {"location": {"lat": 27.0379896, "lng": 80.642894}, "viewport": {"northeast": {"lat": 27.0391973302915, "lng": 80.64434103029151}, "southwest": {"lat": 27.0364993697085, "lng": 80.64164306970851}}}, "icon": "https://maps.gstatic.com/mapfiles/place_api/icons/v1/png_71/school-71.png", "icon_background_color": "#7B9EB0", "icon_mask_base_uri": "https://maps.gstatic.com/mapfiles/place_api/icons/v2/school_pinlet", "name": "Rajkiy highschool Gram panchayat vikas khand Mal Lucknow", "place_id": "ChIJyyWetbivnjkRupNLDKTdG9w", "reference": "ChIJyyWetbivnjkRupNLDKTdG9w", "scope": "GOOGLE", "types": ["school", "point_of_interest", "establishment"], "vicinity": "2JQV+55R, Saspan"}, {"business_status": "OPERATIONAL", "geometry": {"location": {"lat": 27.0379443, "lng": 80.64279429999999}, "viewport": {"northeast": {"lat": 27.0391538802915, "lng": 80.6442646302915}, "southwest": {"lat": 27.03645591970849, "lng": 80.6415666697085}}}, "icon": "https://maps.gstatic.com/mapfiles/place_api/icons/v1/png_71/school-71.png", "icon_background_color": "#7B9EB0", "icon_mask_base_uri": "https://maps.gstatic.com/mapfiles/place_api/icons/v2/school_pinlet", "name": "Rajkeeya Highschool Ramnagar Saspan", "place_id": "ChIJU46Qw0yvnjkRzV7awBGI3Mw", "reference": "ChIJU46Qw0yvnjkRzV7awBGI3Mw", "scope": "GOOGLE", "types": ["school", "point_of_interest", "establishment"], "vicinity": "2JQV+54F, Saspan"}, {"business_status": "OPERATIONAL", "geometry": {"location": {"lat": 27.0369973, "lng": 80.6398196}, "viewport": {"northeast": {"lat": 27.0384464802915, "lng": 80.64122078029149}, "southwest": {"lat": 27.0357485197085, "lng": 80.63852281970848}}}, "icon": "https://maps.gstatic.com/mapfiles/place_api/icons/v1/png_71/school-71.png", "icon_background_color": "#7B9EB0", "icon_mask_base_uri": "https://maps.gstatic.com/mapfiles/place_api/icons/v2/school_pinlet", "name": "Sri bala ji mobile shop", "place_id": "ChIJGbbke2GvnjkROrmcgmNv5Y0", "plus_code": {"compound_code": "2JPQ+QW Mall, Uttar Pradesh, India", "global_code": "7MV22JPQ+QW"}, "reference": "ChIJGbbke2GvnjkROrmcgmNv5Y0", "scope": "GOOGLE", "types": ["school", "point_of_interest", "establishment"], "vicinity": "Saspan, Mall"}, {"business_status": "OPERATIONAL", "geometry": {"location": {"lat": 27.0370583, "lng": 80.63970239999999}, "viewport": {"northeast": {"lat": 27.0385023302915, "lng": 80.6411008802915}, "southwest": {"lat": 27.0358043697085, "lng": 80.6384029197085}}}, "icon": "https://maps.gstatic.com/mapfiles/place_api/icons/v1/png_71/school-71.png", "icon_background_color": "#7B9EB0", "icon_mask_base_uri": "https://maps.gstatic.com/mapfiles/place_api/icons/v2/school_pinlet", "name": "Sunil coaching centre saspan Mall Lucknow", "place_id": "ChIJ_yjbqUqvnjkRx2nkQ4eMqCs", "plus_code": {"compound_code": "2JPQ+RV Mall, Uttar Pradesh, India", "global_code": "7MV22JPQ+RV"}, "reference": "ChIJ_yjbqUqvnjkRx2nkQ4eMqCs", "scope": "GOOGLE", "types": ["school", "point_of_interest", "establishment"], "vicinity": "Saspan, Mall"}, {"business_status": "OPERATIONAL", "geometry": {"location": {"lat": 27.0370335, "lng": 80.6392122}, "viewport": {"northeast": {"lat": 27.0385698302915, "lng": 80.6406525802915}, "southwest": {"lat": 27.0358718697085, "lng": 80.6379546197085}}}, "icon": "https://maps.gstatic.com/mapfiles/place_api/icons/v1/png_71/school-71.png", "icon_background_color": "#7B9EB0", "icon_mask_base_uri": "https://maps.gstatic.com/mapfiles/place_api/icons/v2/school_pinlet", "name": "Sunil coaching centre", "place_id": "ChIJSfjDOgyvnjkRZ8lTevFLXrE", "rating": 4, "reference": "ChIJSfjDOgyvnjkRZ8lTevFLXrE", "scope": "GOOGLE", "types": ["school", "point_of_interest", "establishment"], "user_ratings_total": 1, "vicinity": "2JPQ+RM8, Saspan"}, {"business_status": "OPERATIONAL", "geometry": {"location": {"lat": 27.0378377, "lng": 80.65560359999999}, "viewport": {"northeast": {"lat": 27.0391956802915, "lng": 80.65694683029149}, "southwest": {"lat": 27.0364977197085, "lng": 80.65424886970848}}}, "icon": "https://maps.gstatic.com/mapfiles/place_api/icons/v1/png_71/school-71.png", "icon_background_color": "#7B9EB0", "icon_mask_base_uri": "https://maps.gstatic.com/mapfiles/place_api/icons/v2/school_pinlet", "name": "Raghu Nandan Student Of Collage", "place_id": "ChIJu6ouu8KvnjkR6Wu6DgYCuE0", "reference": "ChIJu6ouu8KvnjkR6Wu6DgYCuE0", "scope": "GOOGLE", "types": ["school", "point_of_interest", "establishment"], "vicinity": "2MQ4+46Q, Saspan"}, {"business_status": "OPERATIONAL", "geometry": {"location": {"lat": 27.0513628, "lng": 80.645848}, "viewport": {"northeast": {"lat": 27.0527647802915, "lng": 80.64714363029151}, "southwest": {"lat": 27.0500668197085, "lng": 80.6444456697085}}}, "icon": "https://maps.gstatic.com/mapfiles/place_api/icons/v1/png_71/school-71.png", "icon_background_color": "#7B9EB0", "icon_mask_base_uri": "https://maps.gstatic.com/mapfiles/place_api/icons/v2/school_pinlet", "name": "Primary School Godwa", "place_id": "ChIJxWtkU0GxnjkR3M7LI8KLGqQ", "plus_code": {"compound_code": "3J2W+G8 Gorava Baravki, Uttar Pradesh, India", "global_code": "7MV23J2W+G8"}, "reference": "ChIJxWtkU0GxnjkR3M7LI8KLGqQ", "scope": "GOOGLE", "types": ["school", "point_of_interest", "establishment"], "vicinity": "Unnamed Road, Gorava Baravki"}, {"business_status": "OPERATIONAL", "geometry": {"location": {"lat": 27.0378189, "lng": 80.6565923}, "viewport": {"northeast": {"lat": 27.0393829302915, "lng": 80.65780183029152}, "southwest": {"lat": 27.0366849697085, "lng": 80.6551038697085}}}, "icon": "https://maps.gstatic.com/mapfiles/place_api/icons/v1/png_71/school-71.png", "icon_background_color": "#7B9EB0", "icon_mask_base_uri": "https://maps.gstatic.com/mapfiles/place_api/icons/v2/school_pinlet", "name": "L.N.Academy", "photos": [{"height": 3120, "html_attributions": ["<a href=\"https://maps.google.com/maps/contrib/115178305772425076885\">Abhishek yadav</a>"], "photo_reference": "Aap_uEAEirZWZnjPV-dQ1HhxMjRRI42pYwrvHlv_X-K6txTgScp1j_62UuwTSKSH6uHKRpHh6XGivy6YErGLagz6Dohq2r7_4zdJGERiuS-pM8R6AHU8KJA0Qx4B4o0rZ9Bia4NE6GEdf3dgECErj-e0bM-USg2dhlY93uUWuYlqGhbMMxxm", "width": 4160}], "place_id": "ChIJ6Q90x8KvnjkRHvx2LUPR0ug", "plus_code": {"compound_code": "2MQ4+4J Saspan, Uttar Pradesh, India", "global_code": "7MV22MQ4+4J"}, "rating": 4.6, "reference": "ChIJ6Q90x8KvnjkRHvx2LUPR0ug", "scope": "GOOGLE", "types": ["school", "point_of_interest", "establishment"], "user_ratings_total": 12, "vicinity": "Rahta, Saspan"}, {"business_status": "OPERATIONAL", "geometry": {"location": {"lat": 27.0370024, "lng": 80.65631429999999}, "viewport": {"northeast": {"lat": 27.0388215302915, "lng": 80.6573642302915}, "southwest": {"lat": 27.03612356970849, "lng": 80.65466626970849}}}, "icon": "https://maps.gstatic.com/mapfiles/place_api/icons/v1/png_71/school-71.png", "icon_background_color": "#7B9EB0", "icon_mask_base_uri": "https://maps.gstatic.com/mapfiles/place_api/icons/v2/school_pinlet", "name": "Raghunandan L.N Acadmey Inter Collage", "photos": [{"height": 2048, "html_attributions": ["<a href=\"https://maps.google.com/maps/contrib/107408325826623757669\">Ravi Kant Prajapati</a>"], "photo_reference": "Aap_uEB8JMHvgyvpMHnUVfr37Qx9G2PMKOOmF0leCoM-TzQo6SSmU5kjiiaUNWx7i0nGCZ3KYvdBO0rl4OqTH0PzlglMFVm_MwzrDbI-BxlCfrb7NFwI6JCzhwk1G5cK-ZIClFXvEUGnc98MwA7Fnk_1LHYHrhaehMOqaWzHTsmeEumPTMP5", "width": 1536}], "place_id": "ChIJQ-tX68KvnjkRc9zFbqevlQk", "reference": "ChIJQ-tX68KvnjkRc9zFbqevlQk", "scope": "GOOGLE", "types": ["school", "point_of_interest", "establishment"], "vicinity": "2MP4+RG4, Rahata"}, {"business_status": "OPERATIONAL", "geometry": {"location": {"lat": 27.0371347, "lng": 80.6564515}, "viewport": {"northeast": {"lat": 27.0389279802915, "lng": 80.6575121802915}, "southwest": {"lat": 27.0362300197085, "lng": 80.6548142197085}}}, "icon": "https://maps.gstatic.com/mapfiles/place_api/icons/v1/png_71/school-71.png", "icon_background_color": "#7B9EB0", "icon_mask_base_uri": "https://maps.gstatic.com/mapfiles/place_api/icons/v2/school_pinlet", "name": "LN Children Academy Inter College", "photos": [{"height": 405, "html_attributions": ["<a href=\"https://maps.google.com/maps/contrib/109728067640558764897\">VINOD RAWAT</a>"], "photo_reference": "Aap_uEBibn-zfS9KPqHdH1mpadpczkTvyrSJSv90lwp24YnRxpWNJHSr2R44smaP_m7aOCb3IQgN7QDpkwzcpj72wNIY04eO28-W4zN9CMGeB1av9Jo8SUsht75u4pv_G3_rv6JUhsRe7AxmFXelYcdfr8avJ_bVdoEHw0d68fabVS_o9rMi", "width": 720}], "place_id": "ChIJI5Cn68KvnjkRFtRppr7Dfeo", "rating": 5, "reference": "ChIJI5Cn68KvnjkRFtRppr7Dfeo", "scope": "GOOGLE", "types": ["school", "point_of_interest", "establishment"], "user_ratings_total": 2, "vicinity": "2MP4+VH4, Rahata"}, {"business_status": "OPERATIONAL", "geometry": {"location": {"lat": 27.0521684, "lng": 80.6445669}, "viewport": {"northeast": {"lat": 27.0534676802915, "lng": 80.6458865302915}, "southwest": {"lat": 27.0507697197085, "lng": 80.6431885697085}}}, "icon": "https://maps.gstatic.com/mapfiles/place_api/icons/v1/png_71/school-71.png", "icon_background_color": "#7B9EB0", "icon_mask_base_uri": "https://maps.gstatic.com/mapfiles/place_api/icons/v2/school_pinlet", "name": "Prem and Deepu kirana stor", "photos": [{"height": 4000, "html_attributions": ["<a href=\"https://maps.google.com/maps/contrib/115597965790609786014\">Prem Premsg</a>"], "photo_reference": "Aap_uEAp0yXb0hZe0Y33Pm8tqqtGDIKAUwTtZdpqngzQFtUm1OLaQESX6_yk9Kr87r4cuq98O3xmwywrxl5s9H33OFHewi7Ok99Y9RyRVt3YgQ4gxwGpWFl5FeFDaa5PtLzRznwKw8AoPN3hRG8El5z0Z95k6gjNTUZACL_TmCcDll_rPbOb", "width": 3000}], "place_id": "ChIJ964UUhuxnjkR_C0BhJ-JrfA", "plus_code": {"compound_code": "3J2V+VR Mall, Uttar Pradesh, India", "global_code": "7MV23J2V+VR"}, "reference": "ChIJ964UUhuxnjkR_C0BhJ-JrfA", "scope": "GOOGLE", "types": ["secondary_school", "school", "point_of_interest", "establishment"], "vicinity": "Godwa barauki, \u092e\u0949\u0932"}, {"business_status": "OPERATIONAL", "geometry": {"location": {"lat": 27.05279849999999, "lng": 80.6406234}, "viewport": {"northeast": {"lat": 27.0541633802915, "lng": 80.64189848029152}, "southwest": {"lat": 27.0514654197085, "lng": 80.6392005197085}}}, "icon": "https://maps.gstatic.com/mapfiles/place_api/icons/v1/png_71/school-71.png", "icon_background_color": "#7B9EB0", "icon_mask_base_uri": "https://maps.gstatic.com/mapfiles/place_api/icons/v2/school_pinlet", "name": "Godwa Baroki Higher Secondary School Godwa Baroki", "photos": [{"height": 3120, "html_attributions": ["<a href=\"https://maps.google.com/maps/contrib/117799798362592775438\">Sandeep Kumar</a>"], "photo_reference": "Aap_uECRgu8_EpZw8toH5fmAFVTlpW9TM93xfY8RIS-kn7xEdDdWsG6upTFIpLIBbop9lnBlc2mCOq_fQK12hpQmjQ_oU1Xza7OeWBwhlLzDxmUUM23LwERmGM6NoZplrhcrEpnphGIiQmRecce1xPuF7spAluZKbOJHm96fyWnc7dGBYxhf", "width": 4160}], "place_id": "ChIJoSK4rgOwnjkRqtJQgaVhfeM", "rating": 4.8, "reference": "ChIJoSK4rgOwnjkRqtJQgaVhfeM", "scope": "GOOGLE", "types": ["school", "point_of_interest", "establishment"], "user_ratings_total": 5, "vicinity": "3J3R+469, Vahir"}], "status": "OK"}