{"html_attributions": [], "results": [{"business_status": "OPERATIONAL", "geometry": {"location": {"lat": 27.546087, "lng": 80.6350672}, "viewport": {"northeast": {"lat": 27.54734628029151, "lng": 80.63630748029149}, "southwest": {"lat": 27.5446483197085, "lng": 80.63360951970849}}}, "icon": "https://maps.gstatic.com/mapfiles/place_api/icons/v1/png_71/school-71.png", "icon_background_color": "#7B9EB0", "icon_mask_base_uri": "https://maps.gstatic.com/mapfiles/place_api/icons/v2/school_pinlet", "name": "Ankit Center", "opening_hours": {"open_now": false}, "place_id": "ChIJZ1FuTmLXnjkRwY-qpyhJ2Is", "rating": 1, "reference": "ChIJZ1FuTmLXnjkRwY-qpyhJ2Is", "scope": "GOOGLE", "types": ["school", "point_of_interest", "establishment"], "user_ratings_total": 1, "vicinity": "GJWP+C2P, Dhanai Khera"}, {"business_status": "OPERATIONAL", "geometry": {"location": {"lat": 27.5329246, "lng": 80.6387452}, "viewport": {"northeast": {"lat": 27.5342454302915, "lng": 80.6400682802915}, "southwest": {"lat": 27.5315474697085, "lng": 80.6373703197085}}}, "icon": "https://maps.gstatic.com/mapfiles/place_api/icons/v1/png_71/school-71.png", "icon_background_color": "#7B9EB0", "icon_mask_base_uri": "https://maps.gstatic.com/mapfiles/place_api/icons/v2/school_pinlet", "name": "Shishu Vidya Mandir", "place_id": "ChIJUXy36PXXnjkRTKpwkxDb4b4", "plus_code": {"compound_code": "GJMQ+5F Barsohiya, Uttar Pradesh, India", "global_code": "7MV2GJMQ+5F"}, "reference": "ChIJUXy36PXXnjkRTKpwkxDb4b4", "scope": "GOOGLE", "types": ["school", "point_of_interest", "establishment"], "vicinity": "Barsohiya Village Road, Barsohiya"}, {"business_status": "OPERATIONAL", "geometry": {"location": {"lat": 27.5335917, "lng": 80.636414}, "viewport": {"northeast": {"lat": 27.5350335802915, "lng": 80.6378071302915}, "southwest": {"lat": 27.5323356197085, "lng": 80.63510916970849}}}, "icon": "https://maps.gstatic.com/mapfiles/place_api/icons/v1/png_71/school-71.png", "icon_background_color": "#7B9EB0", "icon_mask_base_uri": "https://maps.gstatic.com/mapfiles/place_api/icons/v2/school_pinlet", "name": "Primary School", "place_id": "ChIJq6-lvQLXnjkRp6gmVtpNQ00", "plus_code": {"compound_code": "GJMP+CH Barsohiya, Uttar Pradesh, India", "global_code": "7MV2GJMP+CH"}, "reference": "ChIJq6-lvQLXnjkRp6gmVtpNQ00", "scope": "GOOGLE", "types": ["school", "point_of_interest", "establishment"], "vicinity": "Unnamed Road, Barsohiya"}], "status": "OK"}