{"html_attributions": [], "results": [{"business_status": "OPERATIONAL", "geometry": {"location": {"lat": 27.6620948, "lng": 80.63967319999999}, "viewport": {"northeast": {"lat": 27.66344183029151, "lng": 80.6410253302915}, "southwest": {"lat": 27.6607438697085, "lng": 80.63832736970849}}}, "icon": "https://maps.gstatic.com/mapfiles/place_api/icons/v1/png_71/school-71.png", "icon_background_color": "#7B9EB0", "icon_mask_base_uri": "https://maps.gstatic.com/mapfiles/place_api/icons/v2/school_pinlet", "name": "purva madhyamik vidyalya", "place_id": "ChIJO58IQIQonzkRAV7Db2fX0Qw", "reference": "ChIJO58IQIQonzkRAV7Db2fX0Qw", "scope": "GOOGLE", "types": ["school", "point_of_interest", "establishment"], "vicinity": "MJ6Q+RVM, Sohai"}, {"business_status": "OPERATIONAL", "geometry": {"location": {"lat": 27.6590552, "lng": 80.6388216}, "viewport": {"northeast": {"lat": 27.6604153802915, "lng": 80.6400897302915}, "southwest": {"lat": 27.6577174197085, "lng": 80.63739176970849}}}, "icon": "https://maps.gstatic.com/mapfiles/place_api/icons/v1/png_71/school-71.png", "icon_background_color": "#7B9EB0", "icon_mask_base_uri": "https://maps.gstatic.com/mapfiles/place_api/icons/v2/school_pinlet", "name": "prathmik vidyalya Sohai", "photos": [{"height": 3264, "html_attributions": ["<a href=\"https://maps.google.com/maps/contrib/100030578498266397246\">Ram Naresh Yadav</a>"], "photo_reference": "Aap_uEALmHfYMISO-H97EAWTokoSUuqTm3CYTCnxrrge-TOhfJi4aeZw7Lp_oIH54gxvjxuTyU2n0Wka-8hVYLPzv82LgRdZLaHdZus7Vb34QBTdziXBlkJgkA9v8_-DMlu7VpZ8E_sDYlNmoeZ_qzHRJCNW0ZcP3lkF0jJc3X8QXY98r_hm", "width": 2448}], "place_id": "ChIJm1AE-4MonzkR3yaLhLTG6Pk", "reference": "ChIJm1AE-4MonzkR3yaLhLTG6Pk", "scope": "GOOGLE", "types": ["school", "point_of_interest", "establishment"], "vicinity": "MJ5Q+JGG, Sohai"}, {"business_status": "OPERATIONAL", "geometry": {"location": {"lat": 27.6702374, "lng": 80.6562366}, "viewport": {"northeast": {"lat": 27.6715894302915, "lng": 80.6576010302915}, "southwest": {"lat": 27.66889146970849, "lng": 80.6549030697085}}}, "icon": "https://maps.gstatic.com/mapfiles/place_api/icons/v1/png_71/school-71.png", "icon_background_color": "#7B9EB0", "icon_mask_base_uri": "https://maps.gstatic.com/mapfiles/place_api/icons/v2/school_pinlet", "name": "Asha Junior High School", "place_id": "ChIJr7s2CIopnzkRFIi3myULiLQ", "plus_code": {"compound_code": "MMC4+3F Furkpur, Uttar Pradesh, India", "global_code": "7MV2MMC4+3F"}, "rating": 5, "reference": "ChIJr7s2CIopnzkRFIi3myULiLQ", "scope": "GOOGLE", "types": ["school", "point_of_interest", "establishment"], "user_ratings_total": 2, "vicinity": "Sitapur Kasta Gola Marg, Furkpur"}, {"business_status": "OPERATIONAL", "geometry": {"location": {"lat": 27.6700277, "lng": 80.6566386}, "viewport": {"northeast": {"lat": 27.6713423802915, "lng": 80.65781088029149}, "southwest": {"lat": 27.6686444197085, "lng": 80.65511291970849}}}, "icon": "https://maps.gstatic.com/mapfiles/place_api/icons/v1/png_71/school-71.png", "icon_background_color": "#7B9EB0", "icon_mask_base_uri": "https://maps.gstatic.com/mapfiles/place_api/icons/v2/school_pinlet", "name": "Asha Shishu Shiksha Niketan", "opening_hours": {"open_now": false}, "photos": [{"height": 3120, "html_attributions": ["<a href=\"https://maps.google.com/maps/contrib/105892459280317389768\">G.P. Pandey</a>"], "photo_reference": "Aap_uEARPhjomWmVdtFzh1rfL2dRzma2ppDAablq_xPul7JpNuuMVeOyHHQjXWC0wz0HLE9Zz4avq1-LnUx-Kxl9no6qwc221G5sAG93q4GaztigUQmBxCcEbOLGMm6WEtA-fKFmoCoklgOMTyTHA5U1Isl37l09MQwPr0vxt2B6UQXdnSKJ", "width": 4160}], "place_id": "ChIJa2DeG-0onzkR_V8ANoMJk1k", "rating": 5, "reference": "ChIJa2DeG-0onzkR_V8ANoMJk1k", "scope": "GOOGLE", "types": ["school", "point_of_interest", "establishment"], "user_ratings_total": 3, "vicinity": "MMC4+2M6, Furkpur"}], "status": "OK"}