{"html_attributions": [], "results": [{"business_status": "OPERATIONAL", "geometry": {"location": {"lat": 27.6826932, "lng": 80.65343469999999}, "viewport": {"northeast": {"lat": 27.6839443802915, "lng": 80.6548208302915}, "southwest": {"lat": 27.6812464197085, "lng": 80.65212286970849}}}, "icon": "https://maps.gstatic.com/mapfiles/place_api/icons/v1/png_71/school-71.png", "icon_background_color": "#7B9EB0", "icon_mask_base_uri": "https://maps.gstatic.com/mapfiles/place_api/icons/v2/school_pinlet", "name": "M.Allmighty Public School.Samsullaka", "place_id": "ChIJqQa8Er8onzkRsNW9nQ4ilJ4", "reference": "ChIJqQa8Er8onzkRsNW9nQ4ilJ4", "scope": "GOOGLE", "types": ["school", "point_of_interest", "establishment"], "vicinity": "MMM3+39F, Imiliya Sultanpur"}, {"business_status": "OPERATIONAL", "geometry": {"location": {"lat": 27.6837177, "lng": 80.6384497}, "viewport": {"northeast": {"lat": 27.6849296802915, "lng": 80.6397065802915}, "southwest": {"lat": 27.6822317197085, "lng": 80.6370086197085}}}, "icon": "https://maps.gstatic.com/mapfiles/place_api/icons/v1/png_71/school-71.png", "icon_background_color": "#7B9EB0", "icon_mask_base_uri": "https://maps.gstatic.com/mapfiles/place_api/icons/v2/school_pinlet", "name": "Kuldeep", "place_id": "ChIJLep4J38pnzkRWnrm52KpWZ0", "reference": "ChIJLep4J38pnzkRWnrm52KpWZ0", "scope": "GOOGLE", "types": ["school", "point_of_interest", "establishment"], "vicinity": "MJMQ+F9P, Bhogipur"}, {"business_status": "OPERATIONAL", "geometry": {"location": {"lat": 27.6758143, "lng": 80.6548577}, "viewport": {"northeast": {"lat": 27.67716753029151, "lng": 80.6562277302915}, "southwest": {"lat": 27.6744695697085, "lng": 80.65352976970848}}}, "icon": "https://maps.gstatic.com/mapfiles/place_api/icons/v1/png_71/school-71.png", "icon_background_color": "#7B9EB0", "icon_mask_base_uri": "https://maps.gstatic.com/mapfiles/place_api/icons/v2/school_pinlet", "name": "MADARSA GULSANE MADINA", "photos": [{"height": 1920, "html_attributions": ["<a href=\"https://maps.google.com/maps/contrib/110277315884516909413\">mo Naim</a>"], "photo_reference": "Aap_uECvg9Oqq5yTijtfzggVflaqU0FBr2Jg--mvjMWDtrYy8fA5lbNBxsGQhUtStNXfkGebsEq2ElIVh0poCwdq8-Zgnn6jiX3iHy3-jxziJjZ7ENuhB3i81QYa8zmoXa5O0l2C-z8mnNYsqzBlfkd4L_qpYqna3iGsL_yjPUjO5QXAgtI2", "width": 1088}], "place_id": "ChIJJ0lW05QonzkRyewzxufJJY0", "plus_code": {"compound_code": "MMG3+8W Imiliya Sultanpur, Uttar Pradesh, India", "global_code": "7MV2MMG3+8W"}, "reference": "ChIJJ0lW05QonzkRyewzxufJJY0", "scope": "GOOGLE", "types": ["school", "point_of_interest", "establishment"], "vicinity": "Sitapur Kasta Gola Marg, Imaliya"}, {"business_status": "OPERATIONAL", "geometry": {"location": {"lat": 27.6764062, "lng": 80.6555747}, "viewport": {"northeast": {"lat": 27.6777403302915, "lng": 80.65692708029151}, "southwest": {"lat": 27.67504236970849, "lng": 80.65422911970849}}}, "icon": "https://maps.gstatic.com/mapfiles/place_api/icons/v1/png_71/school-71.png", "icon_background_color": "#7B9EB0", "icon_mask_base_uri": "https://maps.gstatic.com/mapfiles/place_api/icons/v2/school_pinlet", "name": "Upper Primary School Imaliya Sultanpur", "place_id": "ChIJt0SA1-oonzkRm1mHWG0z2Kc", "rating": 3.5, "reference": "ChIJt0SA1-oonzkRm1mHWG0z2Kc", "scope": "GOOGLE", "types": ["school", "point_of_interest", "establishment"], "user_ratings_total": 2, "vicinity": "MMG4+H68, Imiliya Sultanpur"}], "status": "OK"}