{"html_attributions": [], "results": [{"business_status": "OPERATIONAL", "geometry": {"location": {"lat": 27.495821, "lng": 80.6673636}, "viewport": {"northeast": {"lat": 27.4971230802915, "lng": 80.66864593029152}, "southwest": {"lat": 27.4944251197085, "lng": 80.6659479697085}}}, "icon": "https://maps.gstatic.com/mapfiles/place_api/icons/v1/png_71/school-71.png", "icon_background_color": "#7B9EB0", "icon_mask_base_uri": "https://maps.gstatic.com/mapfiles/place_api/icons/v2/school_pinlet", "name": "Prathmik Vidyalay Dhaharau", "place_id": "ChIJ63ijiH7RnjkRe220jcp1Jic", "plus_code": {"compound_code": "FMW8+8W Rasulpur, Uttar Pradesh, India", "global_code": "7MV2FMW8+8W"}, "rating": 5, "reference": "ChIJ63ijiH7RnjkRe220jcp1Jic", "scope": "GOOGLE", "types": ["school", "point_of_interest", "establishment"], "user_ratings_total": 1, "vicinity": "Prathmik Vidyalay, Dhaharu"}, {"business_status": "OPERATIONAL", "geometry": {"location": {"lat": 27.5018553, "lng": 80.6757188}, "viewport": {"northeast": {"lat": 27.50340888029151, "lng": 80.6772340802915}, "southwest": {"lat": 27.5007109197085, "lng": 80.67453611970849}}}, "icon": "https://maps.gstatic.com/mapfiles/place_api/icons/v1/png_71/school-71.png", "icon_background_color": "#7B9EB0", "icon_mask_base_uri": "https://maps.gstatic.com/mapfiles/place_api/icons/v2/school_pinlet", "name": "Shikshan", "photos": [{"height": 4000, "html_attributions": ["<a href=\"https://maps.google.com/maps/contrib/109213227257823496233\">SHUBHASH RAJ</a>"], "photo_reference": "Aap_uEDThxL5dXp62iU9iVKgFIrJAYl7t7EU5QafDhrZms1P5ZwpZy2fPTYxsAbEq3BVDlhqLn14k4FW7vCcm3Yb0X-I4QBY5WnzSUEUe52LJU9sSoQFQ-7DauwDlHOpJkaSISrSJSKS6nN8aNxLegAmIAKrHnL2qYPxpCwVtMQEuOh4mKXI", "width": 1840}], "place_id": "ChIJY7TlxinRnjkRuj_ZlkEtuHw", "plus_code": {"compound_code": "GM2G+P7 Qasimpur, Uttar Pradesh, India", "global_code": "7MV2GM2G+P7"}, "reference": "ChIJY7TlxinRnjkRuj_ZlkEtuHw", "scope": "GOOGLE", "types": ["school", "point_of_interest", "establishment"], "vicinity": "Village chilwara, Post, Qasimpur"}, {"business_status": "OPERATIONAL", "geometry": {"location": {"lat": 27.5093268, "lng": 80.6754217}, "viewport": {"northeast": {"lat": 27.5106893802915, "lng": 80.6767863802915}, "southwest": {"lat": 27.5079914197085, "lng": 80.6740884197085}}}, "icon": "https://maps.gstatic.com/mapfiles/place_api/icons/v1/png_71/school-71.png", "icon_background_color": "#7B9EB0", "icon_mask_base_uri": "https://maps.gstatic.com/mapfiles/place_api/icons/v2/school_pinlet", "name": "Primary School Kasimpur, Sitapur", "photos": [{"height": 1920, "html_attributions": ["<a href=\"https://maps.google.com/maps/contrib/111778545287883710489\">Fitness and Lifestyle</a>"], "photo_reference": "Aap_uEB8-5UMJcOAxTmwlpqcJNdkvJMYWG-eTXzIIN2tyCpIl2iy902KiL9xTmA11QPdf2l9JuI6g85tM56WwOOBVV1tBxJHgL7WA3mtXCr7wr14hxNE8O3YywhUJqApDREzirC37UTf5SY7FYmr19elI-MpsNfbFcj-kmm7xzRtMDEq0RGJ", "width": 1080}], "place_id": "ChIJkxRcSdbQnjkRiz_KGxo0rq4", "rating": 3.7, "reference": "ChIJkxRcSdbQnjkRiz_KGxo0rq4", "scope": "GOOGLE", "types": ["school", "point_of_interest", "establishment"], "user_ratings_total": 3, "vicinity": "GM5G+P5M, Akoiya"}, {"business_status": "OPERATIONAL", "geometry": {"location": {"lat": 27.4997529, "lng": 80.68007109999999}, "viewport": {"northeast": {"lat": 27.5011539802915, "lng": 80.6814856802915}, "southwest": {"lat": 27.4984560197085, "lng": 80.6787877197085}}}, "icon": "https://maps.gstatic.com/mapfiles/place_api/icons/v1/png_71/school-71.png", "icon_background_color": "#7B9EB0", "icon_mask_base_uri": "https://maps.gstatic.com/mapfiles/place_api/icons/v2/school_pinlet", "name": "Primary school raja pur sitapur", "photos": [{"height": 3456, "html_attributions": ["<a href=\"https://maps.google.com/maps/contrib/103605385328795184854\">Jaskaran Kumar</a>"], "photo_reference": "Aap_uEB3T5uaqgF_a73KBNerncwvi03NZOgKtoTTrm27rFp8dMAR-5pkfYDVxpt3HmRm99XHYsYs2_Dg0LGaI3yYnI3cwmBACR7f1zLtOHX0vSw-JcymMLzBjqm9smeofZj8Ftk72xx46jMuxfzfuGwuYLMTCZy-AUUtgEoHhViQxQKhZ-wS", "width": 4608}], "place_id": "ChIJ5725rPjRnjkR_C6uLsY8gF8", "plus_code": {"compound_code": "FMXJ+W2 Qasimpur, Uttar Pradesh, India", "global_code": "7MV2FMXJ+W2"}, "reference": "ChIJ5725rPjRnjkR_C6uLsY8gF8", "scope": "GOOGLE", "types": ["primary_school", "school", "point_of_interest", "establishment"], "vicinity": "Unnamed Road, Qasimpur"}], "status": "OK"}