{"html_attributions": [], "results": [{"business_status": "OPERATIONAL", "geometry": {"location": {"lat": 27.0105289, "lng": 79.7910933}, "viewport": {"northeast": {"lat": 27.0118683802915, "lng": 79.7924538302915}, "southwest": {"lat": 27.0091704197085, "lng": 79.78975586970849}}}, "icon": "https://maps.gstatic.com/mapfiles/place_api/icons/v1/png_71/school-71.png", "icon_background_color": "#7B9EB0", "icon_mask_base_uri": "https://maps.gstatic.com/mapfiles/place_api/icons/v2/school_pinlet", "name": "Kanya Prathmik Vidyalay gangaganj gurauli Tal gram block", "place_id": "ChIJ0URXtfNtnjkRx73BF3PEb4Q", "reference": "ChIJ0URXtfNtnjkRx73BF3PEb4Q", "scope": "GOOGLE", "types": ["school", "point_of_interest", "establishment"], "vicinity": "2Q6R+6C8, Gagemau"}, {"business_status": "OPERATIONAL", "geometry": {"location": {"lat": 27.0113004, "lng": 79.7880394}, "viewport": {"northeast": {"lat": 27.0126777302915, "lng": 79.78931613029151}, "southwest": {"lat": 27.00997976970849, "lng": 79.7866181697085}}}, "icon": "https://maps.gstatic.com/mapfiles/place_api/icons/v1/png_71/school-71.png", "icon_background_color": "#7B9EB0", "icon_mask_base_uri": "https://maps.gstatic.com/mapfiles/place_api/icons/v2/school_pinlet", "name": "Maya Devi public school", "opening_hours": {"open_now": false}, "place_id": "ChIJB3SHlAptnjkRqz2KrnBZsUw", "reference": "ChIJB3SHlAptnjkRqz2KrnBZsUw", "scope": "GOOGLE", "types": ["school", "point_of_interest", "establishment"], "vicinity": "2Q6Q+G6F, Gagemau"}, {"business_status": "OPERATIONAL", "geometry": {"location": {"lat": 27.0127515, "lng": 79.7913288}, "viewport": {"northeast": {"lat": 27.0140113802915, "lng": 79.79262313029152}, "southwest": {"lat": 27.0113134197085, "lng": 79.7899251697085}}}, "icon": "https://maps.gstatic.com/mapfiles/place_api/icons/v1/png_71/school-71.png", "icon_background_color": "#7B9EB0", "icon_mask_base_uri": "https://maps.gstatic.com/mapfiles/place_api/icons/v2/school_pinlet", "name": "Great computer education training institute", "photos": [{"height": 372, "html_attributions": ["<a href=\"https://maps.google.com/maps/contrib/104847932043928755370\">Aman Singh</a>"], "photo_reference": "Aap_uEBgQCWbI3DxoaxQN8ksd0HYdHAJMyWZ0XfpscUKUW1QebfnOIS8zOzZtxFYfmDossliDvZ2iyMDRMmv2y2tw4KcMmGeUkeKPsmXsICE58973aoAvsVq4QfgmclaFeAH27mArHGeRdIzQ_fQgEPi-Qkee-OQ0uw5wX51Ox-wqo5i1Ds", "width": 640}], "place_id": "ChIJ23zGOgttnjkRytrSqSmvlws", "rating": 5, "reference": "ChIJ23zGOgttnjkRytrSqSmvlws", "scope": "GOOGLE", "types": ["school", "point_of_interest", "establishment"], "user_ratings_total": 2, "vicinity": "2Q7R+4G4, Gagemau"}, {"business_status": "OPERATIONAL", "geometry": {"location": {"lat": 27.012765, "lng": 79.7913375}, "viewport": {"northeast": {"lat": 27.0140180302915, "lng": 79.79262763029149}, "southwest": {"lat": 27.0113200697085, "lng": 79.78992966970848}}}, "icon": "https://maps.gstatic.com/mapfiles/place_api/icons/v1/png_71/school-71.png", "icon_background_color": "#7B9EB0", "icon_mask_base_uri": "https://maps.gstatic.com/mapfiles/place_api/icons/v2/school_pinlet", "name": "Great computer education training attitud", "place_id": "ChIJXQLCJuNtnjkRF1cg78Ebo6E", "reference": "ChIJXQLCJuNtnjkRF1cg78Ebo6E", "scope": "GOOGLE", "types": ["school", "point_of_interest", "establishment"], "vicinity": "2Q7R+4G4, Gagemau"}], "status": "OK"}