{"html_attributions": [], "results": [{"business_status": "OPERATIONAL", "geometry": {"location": {"lat": 27.14214029999999, "lng": 80.7083774}, "viewport": {"northeast": {"lat": 27.1435993802915, "lng": 80.70950773029152}, "southwest": {"lat": 27.1409014197085, "lng": 80.7068097697085}}}, "icon": "https://maps.gstatic.com/mapfiles/place_api/icons/v1/png_71/school-71.png", "icon_background_color": "#7B9EB0", "icon_mask_base_uri": "https://maps.gstatic.com/mapfiles/place_api/icons/v2/school_pinlet", "name": "Primary School Tajpur", "place_id": "ChIJ70EN6iSxnjkRbVJzEqP_9dM", "rating": 4, "reference": "ChIJ70EN6iSxnjkRbVJzEqP_9dM", "scope": "GOOGLE", "types": ["school", "point_of_interest", "establishment"], "user_ratings_total": 1, "vicinity": "4PR5+V92, Pipargaon"}, {"business_status": "OPERATIONAL", "geometry": {"location": {"lat": 27.1340613, "lng": 80.7080666}, "viewport": {"northeast": {"lat": 27.1354067802915, "lng": 80.7094255802915}, "southwest": {"lat": 27.1327088197085, "lng": 80.70672761970849}}}, "icon": "https://maps.gstatic.com/mapfiles/place_api/icons/v1/png_71/school-71.png", "icon_background_color": "#7B9EB0", "icon_mask_base_uri": "https://maps.gstatic.com/mapfiles/place_api/icons/v2/school_pinlet", "name": "Prathmik vidyalay Kukuri", "photos": [{"height": 600, "html_attributions": ["<a href=\"https://maps.google.com/maps/contrib/101390426767035674121\">Lalit Singh</a>"], "photo_reference": "Aap_uEDoU6L4TIa_3WAfn5BviAnFhDEcz-PRBCFnA16tiTgwr7IstF9WE444mastocvp2Wh7WAaqYP0Q_2PWABS3jD1PzVN3gPVJ4tCU44vAl55TEqoQINwT5vGczTpM3LPvNlOZKvTRl0i70aua2-xK4bTkvINC3LsGfS__CRrjoMr-OWiA", "width": 600}], "place_id": "ChIJV4rhhUSxnjkR8T-88OXV3O0", "plus_code": {"compound_code": "4PM5+J6 Pipargaon, Uttar Pradesh, India", "global_code": "7MV24PM5+J6"}, "reference": "ChIJV4rhhUSxnjkR8T-88OXV3O0", "scope": "GOOGLE", "types": ["school", "point_of_interest", "establishment"], "vicinity": "Unnamed Road, Pipargaon"}, {"business_status": "OPERATIONAL", "geometry": {"location": {"lat": 27.1404275, "lng": 80.695193}, "viewport": {"northeast": {"lat": 27.1417933302915, "lng": 80.69651208029151}, "southwest": {"lat": 27.1390953697085, "lng": 80.6938141197085}}}, "icon": "https://maps.gstatic.com/mapfiles/place_api/icons/v1/png_71/school-71.png", "icon_background_color": "#7B9EB0", "icon_mask_base_uri": "https://maps.gstatic.com/mapfiles/place_api/icons/v2/school_pinlet", "name": "B V M Inter College", "photos": [{"height": 1512, "html_attributions": ["<a href=\"https://maps.google.com/maps/contrib/115429851557461209623\">Arjun Kumar</a>"], "photo_reference": "Aap_uECKiFwf2f8NZk5RHJaYbukvdujw24Lj_7zb7hU_5DGvHwAYwOAF2AXifMzolbFoqfv8mH5hB6YYarvLiCgjeNz-NDOcb6In4YGIfl_XQwLej37i_Teh9jTVMHrSsMkrk6G77u5JW9cOrsn40oQ0Qa6xZMDMIryFseQsQNX6G_j_IcQq", "width": 2688}], "place_id": "ChIJ0R2aP56xnjkR9zj2XCIXu5U", "plus_code": {"compound_code": "4MRW+53 Khasraul, Uttar Pradesh, India", "global_code": "7MV24MRW+53"}, "rating": 3.3, "reference": "ChIJ0R2aP56xnjkR9zj2XCIXu5U", "scope": "GOOGLE", "types": ["school", "point_of_interest", "establishment"], "user_ratings_total": 3, "vicinity": "Bharawan Village Road"}, {"business_status": "OPERATIONAL", "geometry": {"location": {"lat": 27.152107, "lng": 80.700716}, "viewport": {"northeast": {"lat": 27.1534510302915, "lng": 80.70208643029149}, "southwest": {"lat": 27.1507530697085, "lng": 80.69938846970848}}}, "icon": "https://maps.gstatic.com/mapfiles/place_api/icons/v1/png_71/school-71.png", "icon_background_color": "#7B9EB0", "icon_mask_base_uri": "https://maps.gstatic.com/mapfiles/place_api/icons/v2/school_pinlet", "name": "Bala ji couching center and computer center bharawan hardoi", "opening_hours": {"open_now": false}, "photos": [{"height": 524, "html_attributions": ["<a href=\"https://maps.google.com/maps/contrib/109950386666209738284\">vikalp kumar</a>"], "photo_reference": "Aap_uEBtRQtQ-FftavqvCZUstukWLFxbSFnWI47AZCIiS-2KEkUgEPg6AW5FXzvrfk0pAbZsn4vdQO_gqX_medJvYlW1m3waA3IvIxsBksrJ6pWpQCMTVywWrG5Squ5dyjoh3GO1jucNuKjGaccDIBB4B63MzCUOLCoJxeVfmb6bF-BOrRLw", "width": 524}], "place_id": "ChIJk2vCexi3njkRC0Rd5XR8Udo", "reference": "ChIJk2vCexi3njkRC0Rd5XR8Udo", "scope": "GOOGLE", "types": ["school", "point_of_interest", "establishment"], "vicinity": "5P22+R7W, Khasraul"}, {"business_status": "OPERATIONAL", "geometry": {"location": {"lat": 27.1516339, "lng": 80.7143354}, "viewport": {"northeast": {"lat": 27.1530464302915, "lng": 80.7156238802915}, "southwest": {"lat": 27.1503484697085, "lng": 80.7129259197085}}}, "icon": "https://maps.gstatic.com/mapfiles/place_api/icons/v1/png_71/school-71.png", "icon_background_color": "#7B9EB0", "icon_mask_base_uri": "https://maps.gstatic.com/mapfiles/place_api/icons/v2/school_pinlet", "name": "PT DEENDAYAL UPADHAYAY RMIC KHASRAUL HARDOI", "opening_hours": {"open_now": false}, "place_id": "ChIJQz5upYC3njkRRXEXiGK9A5I", "plus_code": {"compound_code": "5P27+MP Bany, Uttar Pradesh, India", "global_code": "7MV25P27+MP"}, "reference": "ChIJQz5upYC3njkRRXEXiGK9A5I", "scope": "GOOGLE", "types": ["school", "point_of_interest", "establishment"], "vicinity": "VILL KHASRAUL, POST, Bany"}, {"business_status": "OPERATIONAL", "geometry": {"location": {"lat": 27.1516503, "lng": 80.71475869999999}, "viewport": {"northeast": {"lat": 27.1531852802915, "lng": 80.7159900302915}, "southwest": {"lat": 27.1504873197085, "lng": 80.71329206970847}}}, "icon": "https://maps.gstatic.com/mapfiles/place_api/icons/v1/png_71/school-71.png", "icon_background_color": "#7B9EB0", "icon_mask_base_uri": "https://maps.gstatic.com/mapfiles/place_api/icons/v2/school_pinlet", "name": "Pt.Deen Dayal upadhyaay inter college", "photos": [{"height": 960, "html_attributions": ["<a href=\"https://maps.google.com/maps/contrib/116437313000243633513\">Rohit Jatav</a>"], "photo_reference": "Aap_uEAWHhbRulX0iE3CDnp8XxnsSkWQhm1H-2UI1FmjrxgisBkLl3TLwd8peVn9Qg7gQYkD_HCie3HYfMp9uQZ1yvhL5g48Fvh0YNbDeZnpxrHNYTd-HO3ehSYB-BPzlXMynYRk0Fx6nS9VJBzGyTOO_tPfI3n29knpJQr5pe0dkuZ11wkV", "width": 720}], "place_id": "ChIJx_PzYsO3njkRirO3So6oiEY", "plus_code": {"compound_code": "5P27+MW Bharawan, Uttar Pradesh, India", "global_code": "7MV25P27+MW"}, "rating": 1, "reference": "ChIJx_PzYsO3njkRirO3So6oiEY", "scope": "GOOGLE", "types": ["school", "point_of_interest", "establishment"], "user_ratings_total": 1, "vicinity": "Vill khasraul, Bharawan"}, {"business_status": "OPERATIONAL", "geometry": {"location": {"lat": 27.1518993, "lng": 80.71436899999999}, "viewport": {"northeast": {"lat": 27.15323353029151, "lng": 80.71573578029151}, "southwest": {"lat": 27.1505355697085, "lng": 80.7130378197085}}}, "icon": "https://maps.gstatic.com/mapfiles/place_api/icons/v1/png_71/school-71.png", "icon_background_color": "#7B9EB0", "icon_mask_base_uri": "https://maps.gstatic.com/mapfiles/place_api/icons/v2/school_pinlet", "name": "Pt deendayal upadhyay rajkiya model school", "place_id": "ChIJGTbMmaS3njkRpVwLooWBrqg", "plus_code": {"compound_code": "5P27+QP Khasraul, Uttar Pradesh, India", "global_code": "7MV25P27+QP"}, "reference": "ChIJGTbMmaS3njkRpVwLooWBrqg", "scope": "GOOGLE", "types": ["school", "point_of_interest", "establishment"], "vicinity": "MDR 74C, Khasraul"}, {"business_status": "OPERATIONAL", "geometry": {"location": {"lat": 27.151687, "lng": 80.7147607}, "viewport": {"northeast": {"lat": 27.1532084302915, "lng": 80.7160006302915}, "southwest": {"lat": 27.1505104697085, "lng": 80.7133026697085}}}, "icon": "https://maps.gstatic.com/mapfiles/place_api/icons/v1/png_71/school-71.png", "icon_background_color": "#7B9EB0", "icon_mask_base_uri": "https://maps.gstatic.com/mapfiles/place_api/icons/v2/school_pinlet", "name": "Khasroul Modal School", "place_id": "ChIJAyjda6y2njkRyYRram-Bt3k", "reference": "ChIJAyjda6y2njkRyYRram-Bt3k", "scope": "GOOGLE", "types": ["school", "point_of_interest", "establishment"], "vicinity": "5P27+MWC, Khasraul"}, {"business_status": "OPERATIONAL", "geometry": {"location": {"lat": 27.1508197, "lng": 80.7164327}, "viewport": {"northeast": {"lat": 27.1522637302915, "lng": 80.7176968302915}, "southwest": {"lat": 27.1495657697085, "lng": 80.7149988697085}}}, "icon": "https://maps.gstatic.com/mapfiles/place_api/icons/v1/png_71/school-71.png", "icon_background_color": "#7B9EB0", "icon_mask_base_uri": "https://maps.gstatic.com/mapfiles/place_api/icons/v2/school_pinlet", "name": "Pioneer BTC college Khasraul", "photos": [{"height": 2322, "html_attributions": ["<a href=\"https://maps.google.com/maps/contrib/111754877793733181335\">Mohd Arif</a>"], "photo_reference": "Aap_uED_KkXpHfm4qNmaJgFm3ZbqgZOT52s879mFlNS5e4FyZ86BXxDwPdQSBeh_hwCNykTvsYo6tI_79pCV4P9mr4Pjy8DeWCTuD8cEfbgiPESkzX90WP9laOslIJHxSiOsIg-675ba_yBrMc1SFo6CdUzW8Up15TnTEuBQyjY3w7Lp_dm2", "width": 4128}], "place_id": "ChIJ4Tb5gqu2njkR4ruTFuaPHQ0", "rating": 3.3, "reference": "ChIJ4Tb5gqu2njkR4ruTFuaPHQ0", "scope": "GOOGLE", "types": ["school", "point_of_interest", "establishment"], "user_ratings_total": 4, "vicinity": "5P28+8HF, Khasraul"}, {"business_status": "OPERATIONAL", "geometry": {"location": {"lat": 27.1531249, "lng": 80.7011709}, "viewport": {"northeast": {"lat": 27.1544802802915, "lng": 80.7024942802915}, "southwest": {"lat": 27.15178231970849, "lng": 80.6997963197085}}}, "icon": "https://maps.gstatic.com/mapfiles/place_api/icons/v1/png_71/school-71.png", "icon_background_color": "#7B9EB0", "icon_mask_base_uri": "https://maps.gstatic.com/mapfiles/place_api/icons/v2/school_pinlet", "name": "Prakash Photo Studio", "place_id": "ChIJPc1aLMW3njkR-sTGR020TjU", "plus_code": {"compound_code": "5P32+6F Bharawan, Uttar Pradesh, India", "global_code": "7MV25P32+6F"}, "rating": 1, "reference": "ChIJPc1aLMW3njkR-sTGR020TjU", "scope": "GOOGLE", "types": ["school", "point_of_interest", "establishment"], "user_ratings_total": 1, "vicinity": "b v m inter College, Bharawan"}, {"business_status": "OPERATIONAL", "geometry": {"location": {"lat": 27.1543367, "lng": 80.7052465}, "viewport": {"northeast": {"lat": 27.1558712802915, "lng": 80.7067542802915}, "southwest": {"lat": 27.1531733197085, "lng": 80.70405631970849}}}, "icon": "https://maps.gstatic.com/mapfiles/place_api/icons/v1/png_71/school-71.png", "icon_background_color": "#7B9EB0", "icon_mask_base_uri": "https://maps.gstatic.com/mapfiles/place_api/icons/v2/school_pinlet", "name": "Maa Sharda Shiksha Niketan", "opening_hours": {"open_now": false}, "photos": [{"height": 809, "html_attributions": ["<a href=\"https://maps.google.com/maps/contrib/116311919613746918412\">Maa Sharda Shiksha Niketan</a>"], "photo_reference": "Aap_uEDeBzAjdlCLOQ0xAboR_KN13U28O4moPikvxjT_gLUDe_n_C18smGeGaNdJNOAHnCOv-TA6Mi3UFIse29GTPzyMI6-trYLe4dTDeZq6-utcUg6l18JrDzREuNWPZQlLqZ5RKK-7yoo2WaN2-G1kHY2TPHB507ZPSA-pfKTwLwhSiRgy", "width": 1440}], "place_id": "ChIJ9ymyNEq3njkRO48wNdo2AAo", "plus_code": {"compound_code": "5P34+P3 Bharawan, Uttar Pradesh, India", "global_code": "7MV25P34+P3"}, "rating": 5, "reference": "ChIJ9ymyNEq3njkRO48wNdo2AAo", "scope": "GOOGLE", "types": ["school", "point_of_interest", "establishment"], "user_ratings_total": 13, "vicinity": "near Bank of India Bharawan Branch"}, {"business_status": "OPERATIONAL", "geometry": {"location": {"lat": 27.1543817, "lng": 80.70534289999999}, "viewport": {"northeast": {"lat": 27.1558813802915, "lng": 80.7068208302915}, "southwest": {"lat": 27.1531834197085, "lng": 80.7041228697085}}}, "icon": "https://maps.gstatic.com/mapfiles/place_api/icons/v1/png_71/school-71.png", "icon_background_color": "#7B9EB0", "icon_mask_base_uri": "https://maps.gstatic.com/mapfiles/place_api/icons/v2/school_pinlet", "name": "Skyvision computer institute and coaching classes", "opening_hours": {"open_now": false}, "place_id": "ChIJxz6NAiS3njkRJ2IjV_7A4lU", "plus_code": {"compound_code": "5P34+Q4 Bharawan, Uttar Pradesh, India", "global_code": "7MV25P34+Q4"}, "rating": 5, "reference": "ChIJxz6NAiS3njkRJ2IjV_7A4lU", "scope": "GOOGLE", "types": ["school", "point_of_interest", "establishment"], "user_ratings_total": 6, "vicinity": "MDR 74C, Bharawan"}], "status": "OK"}