{"html_attributions": [], "results": [{"business_status": "OPERATIONAL", "geometry": {"location": {"lat": 26.8994902, "lng": 80.7286977}, "viewport": {"northeast": {"lat": 26.9008155302915, "lng": 80.7300315302915}, "southwest": {"lat": 26.8981175697085, "lng": 80.72733356970849}}}, "icon": "https://maps.gstatic.com/mapfiles/place_api/icons/v1/png_71/school-71.png", "icon_background_color": "#7B9EB0", "icon_mask_base_uri": "https://maps.gstatic.com/mapfiles/place_api/icons/v2/school_pinlet", "name": "\u0906\u0902\u0917\u0928 \u092c\u093e\u0921\u093c\u0940 \u0915\u0947\u0928\u094d\u0926\u094d\u0930", "photos": [{"height": 1080, "html_attributions": ["<a href=\"https://maps.google.com/maps/contrib/117310080559430480680\">Sonu Prasad</a>"], "photo_reference": "Aap_uEBMMHj2c7gn9Cwm0xEBn-h137Ynt85ZbXYfVrFsrqhjDdzesr2HWd9N_70t4Q5q_eNHoq5j6IoClEE4_kHaC_wcDClnF4aKllikkaWP2TPbDVhAkqBhUUVCnI5a6ETdfmit9S6opXFWsp--GK9lJTgD3gviTr108RxcMjpsL_a25PB6", "width": 1920}], "place_id": "ChIJcxK1cyyrnjkRldgtgJMAWdE", "plus_code": {"compound_code": "VPXH+QF Malihabad, Uttar Pradesh, India", "global_code": "7MR2VPXH+QF"}, "reference": "ChIJcxK1cyyrnjkRldgtgJMAWdE", "scope": "GOOGLE", "types": ["school", "point_of_interest", "establishment"], "vicinity": "\u0932\u093e\u0932\u0917\u0902\u091c \u092c\u0921\u093c\u0940 \u0917\u0922\u093c\u0940, Malihabad"}, {"business_status": "OPERATIONAL", "geometry": {"location": {"lat": 26.904779, "lng": 80.7250469}, "viewport": {"northeast": {"lat": 26.9061318302915, "lng": 80.7263823802915}, "southwest": {"lat": 26.90343386970849, "lng": 80.72368441970849}}}, "icon": "https://maps.gstatic.com/mapfiles/place_api/icons/v1/png_71/school-71.png", "icon_background_color": "#7B9EB0", "icon_mask_base_uri": "https://maps.gstatic.com/mapfiles/place_api/icons/v2/school_pinlet", "name": "Moral public junior high school", "place_id": "ChIJcW9p1fCrnjkRIehuWyfc3pU", "plus_code": {"compound_code": "WP3G+W2 Malakpur, Uttar Pradesh, India", "global_code": "7MR2WP3G+W2"}, "reference": "ChIJcW9p1fCrnjkRIehuWyfc3pU", "scope": "GOOGLE", "types": ["school", "point_of_interest", "establishment"], "vicinity": "Badi garhi"}, {"business_status": "OPERATIONAL", "geometry": {"location": {"lat": 26.9048216, "lng": 80.7250268}, "viewport": {"northeast": {"lat": 26.9061652302915, "lng": 80.72639448029152}, "southwest": {"lat": 26.9034672697085, "lng": 80.7236965197085}}}, "icon": "https://maps.gstatic.com/mapfiles/place_api/icons/v1/png_71/school-71.png", "icon_background_color": "#7B9EB0", "icon_mask_base_uri": "https://maps.gstatic.com/mapfiles/place_api/icons/v2/school_pinlet", "name": "MPJHschool", "place_id": "ChIJv29ZeSGrnjkRyyg72KeV_cA", "reference": "ChIJv29ZeSGrnjkRyyg72KeV_cA", "scope": "GOOGLE", "types": ["school", "point_of_interest", "establishment"], "vicinity": "WP3G+W2C, Malakpur"}, {"business_status": "OPERATIONAL", "geometry": {"location": {"lat": 26.9107134, "lng": 80.7255995}, "viewport": {"northeast": {"lat": 26.9122661302915, "lng": 80.7271864802915}, "southwest": {"lat": 26.90956816970849, "lng": 80.72448851970849}}}, "icon": "https://maps.gstatic.com/mapfiles/place_api/icons/v1/png_71/school-71.png", "icon_background_color": "#7B9EB0", "icon_mask_base_uri": "https://maps.gstatic.com/mapfiles/place_api/icons/v2/school_pinlet", "name": "Moral public junior high school", "place_id": "ChIJsU-VsHCrnjkRG7WFQZulcX4", "reference": "ChIJsU-VsHCrnjkRG7WFQZulcX4", "scope": "GOOGLE", "types": ["school", "point_of_interest", "establishment"], "vicinity": "WP6G+76Q, Barhi Garhi"}, {"business_status": "OPERATIONAL", "geometry": {"location": {"lat": 26.9122532, "lng": 80.7292976}, "viewport": {"northeast": {"lat": 26.9136047802915, "lng": 80.7306472302915}, "southwest": {"lat": 26.9109068197085, "lng": 80.72794926970849}}}, "icon": "https://maps.gstatic.com/mapfiles/place_api/icons/v1/png_71/school-71.png", "icon_background_color": "#7B9EB0", "icon_mask_base_uri": "https://maps.gstatic.com/mapfiles/place_api/icons/v2/school_pinlet", "name": "S. J. S. T. I. C", "place_id": "ChIJ2UJZViyqnjkRuYwOLXJJrWs", "plus_code": {"compound_code": "WP6H+WP Barhi Garhi, Uttar Pradesh, India", "global_code": "7MR2WP6H+WP"}, "reference": "ChIJ2UJZViyqnjkRuYwOLXJJrWs", "scope": "GOOGLE", "types": ["school", "point_of_interest", "establishment"], "vicinity": "katiyamau, Garhi"}, {"business_status": "OPERATIONAL", "geometry": {"location": {"lat": 26.898746, "lng": 80.7155167}, "viewport": {"northeast": {"lat": 26.9002086302915, "lng": 80.7168709302915}, "southwest": {"lat": 26.8975106697085, "lng": 80.71417296970849}}}, "icon": "https://maps.gstatic.com/mapfiles/place_api/icons/v1/png_71/school-71.png", "icon_background_color": "#7B9EB0", "icon_mask_base_uri": "https://maps.gstatic.com/mapfiles/place_api/icons/v2/school_pinlet", "name": "Fulmati Mata Mandir Sevak Beniprasad", "photos": [{"height": 4160, "html_attributions": ["<a href=\"https://maps.google.com/maps/contrib/115851119896726947120\">SURAJ YADAV</a>"], "photo_reference": "Aap_uEBDLi-ZSmjYLvxTQ6SCTa-AbyYKR83g4SIuMXLYuvJMjiFymAyEUMe5IXGgEVoci6UKXl7y1V7GdxwN8VaOvSD8N7caVexaVZrGQQXtdhDh1a5jVscL2hBswEexm-slYKtikHGsRqvqvv5l5ByE6yu_VKfN1pMAP9U76lpXyhMnE4Wi", "width": 3120}], "place_id": "ChIJkYMDkH-pnjkRg-xAFuSFyQc", "rating": 1, "reference": "ChIJkYMDkH-pnjkRg-xAFuSFyQc", "scope": "GOOGLE", "types": ["school", "point_of_interest", "establishment"], "user_ratings_total": 1, "vicinity": "VPX8+F6R, Belgarha"}], "status": "OK"}