{"html_attributions": [], "results": [{"business_status": "OPERATIONAL", "geometry": {"location": {"lat": 27.3305008, "lng": 80.72791649999999}, "viewport": {"northeast": {"lat": 27.3317872302915, "lng": 80.72920958029151}, "southwest": {"lat": 27.3290892697085, "lng": 80.7265116197085}}}, "icon": "https://maps.gstatic.com/mapfiles/place_api/icons/v1/png_71/school-71.png", "icon_background_color": "#7B9EB0", "icon_mask_base_uri": "https://maps.gstatic.com/mapfiles/place_api/icons/v2/school_pinlet", "name": "Gumta Junior High School", "place_id": "ChIJVxKoQPnLnjkRbl8cl9JsCA4", "reference": "ChIJVxKoQPnLnjkRbl8cl9JsCA4", "scope": "GOOGLE", "types": ["secondary_school", "school", "point_of_interest", "establishment"], "vicinity": "8PJH+653, Gumata"}, {"business_status": "OPERATIONAL", "geometry": {"location": {"lat": 27.3307956, "lng": 80.72764099999999}, "viewport": {"northeast": {"lat": 27.3321064302915, "lng": 80.7290368302915}, "southwest": {"lat": 27.32940846970849, "lng": 80.7263388697085}}}, "icon": "https://maps.gstatic.com/mapfiles/place_api/icons/v1/png_71/school-71.png", "icon_background_color": "#7B9EB0", "icon_mask_base_uri": "https://maps.gstatic.com/mapfiles/place_api/icons/v2/school_pinlet", "name": "Gumta Primary School", "place_id": "ChIJXcBlN_nLnjkR9fve02ytr7A", "plus_code": {"compound_code": "8PJH+83 Gumata, Uttar Pradesh, India", "global_code": "7MV28PJH+83"}, "reference": "ChIJXcBlN_nLnjkR9fve02ytr7A", "scope": "GOOGLE", "types": ["primary_school", "school", "point_of_interest", "establishment"], "vicinity": "India"}, {"business_status": "OPERATIONAL", "geometry": {"location": {"lat": 27.3109219, "lng": 80.7235184}, "viewport": {"northeast": {"lat": 27.3122739802915, "lng": 80.72485818029152}, "southwest": {"lat": 27.3095760197085, "lng": 80.7221602197085}}}, "icon": "https://maps.gstatic.com/mapfiles/place_api/icons/v1/png_71/school-71.png", "icon_background_color": "#7B9EB0", "icon_mask_base_uri": "https://maps.gstatic.com/mapfiles/place_api/icons/v2/school_pinlet", "name": "Amar Bhavani tradersh", "place_id": "ChIJ1XSo1bbLnjkRCcRnB_MV0fM", "reference": "ChIJ1XSo1bbLnjkRCcRnB_MV0fM", "scope": "GOOGLE", "types": ["school", "point_of_interest", "establishment"], "vicinity": "8P6F+9C6, Dengara"}], "status": "OK"}