{"html_attributions": [], "results": [{"business_status": "OPERATIONAL", "geometry": {"location": {"lat": 27.5135984, "lng": 80.7259589}, "viewport": {"northeast": {"lat": 27.5149321302915, "lng": 80.7273206802915}, "southwest": {"lat": 27.5122341697085, "lng": 80.72462271970849}}}, "icon": "https://maps.gstatic.com/mapfiles/place_api/icons/v1/png_71/school-71.png", "icon_background_color": "#7B9EB0", "icon_mask_base_uri": "https://maps.gstatic.com/mapfiles/place_api/icons/v2/school_pinlet", "name": "\u0917\u0941\u0930\u092a\u093e\u0932\u093f\u092f\u093e", "place_id": "ChIJGyKeJnjTnjkRlpJfSnDKNnM", "rating": 5, "reference": "ChIJGyKeJnjTnjkRlpJfSnDKNnM", "scope": "GOOGLE", "types": ["school", "point_of_interest", "establishment"], "user_ratings_total": 2, "vicinity": "GP7G+C9P, \u0917\u0941\u0930\u092a\u093e\u0932\u093f\u092f\u093eUttar"}, {"business_status": "OPERATIONAL", "geometry": {"location": {"lat": 27.5128984, "lng": 80.7272055}, "viewport": {"northeast": {"lat": 27.5142657302915, "lng": 80.7285822802915}, "southwest": {"lat": 27.5115677697085, "lng": 80.7258843197085}}}, "icon": "https://maps.gstatic.com/mapfiles/place_api/icons/v1/png_71/school-71.png", "icon_background_color": "#7B9EB0", "icon_mask_base_uri": "https://maps.gstatic.com/mapfiles/place_api/icons/v2/school_pinlet", "name": "Vinay Kumar", "place_id": "ChIJkwu0kwfTnjkRaxYyxVBah_Q", "reference": "ChIJkwu0kwfTnjkRaxYyxVBah_Q", "scope": "GOOGLE", "types": ["primary_school", "school", "point_of_interest", "establishment"], "vicinity": "GP7G+5V4, Tikariya"}, {"business_status": "OPERATIONAL", "geometry": {"location": {"lat": 27.5306428, "lng": 80.7222001}, "viewport": {"northeast": {"lat": 27.5319987802915, "lng": 80.7235388302915}, "southwest": {"lat": 27.5293008197085, "lng": 80.72084086970848}}}, "icon": "https://maps.gstatic.com/mapfiles/place_api/icons/v1/png_71/school-71.png", "icon_background_color": "#7B9EB0", "icon_mask_base_uri": "https://maps.gstatic.com/mapfiles/place_api/icons/v2/school_pinlet", "name": "\u092a\u0942\u0930\u094d\u0935 \u092e\u093e\u0927\u094d\u092f\u092e\u093f\u0915 \u0935\u093f\u0926\u094d\u092f\u093e\u0932\u092f \u091c\u092e\u0948\u092f\u0924\u092a\u0941\u0930", "opening_hours": {"open_now": false}, "photos": [{"height": 3456, "html_attributions": ["<a href=\"https://maps.google.com/maps/contrib/103069256514653962923\">\u0928\u0928\u094d\u0939\u0947\u0902 \u092d\u0917\u0935\u093e\u0928</a>"], "photo_reference": "Aap_uEBUAhhOF63ScyIAaK4uiZJTVXpQiTaYxNQi8D-nWax4vaCAh8BVqsysUAdIM9o02yxOW0pU8dtl6dRO4r6emvnB8DlE3xh1cuTLCeU1atud8NtEm7rGZRSP72Z_KbPyqqP5k5KMwL7x_YZoQGM9uG8lsIH6AKAvzSzXukAeZsSsEtTt", "width": 4608}], "place_id": "ChIJpfVLlwLUnjkRYCpQ9UWATjM", "rating": 3.7, "reference": "ChIJpfVLlwLUnjkRYCpQ9UWATjM", "scope": "GOOGLE", "types": ["school", "point_of_interest", "establishment"], "user_ratings_total": 3, "vicinity": "GPJC+7V4, Dhanipur"}, {"business_status": "OPERATIONAL", "geometry": {"location": {"lat": 27.530643, "lng": 80.7222}, "viewport": {"northeast": {"lat": 27.5319987802915, "lng": 80.7235389302915}, "southwest": {"lat": 27.5293008197085, "lng": 80.72084096970848}}}, "icon": "https://maps.gstatic.com/mapfiles/place_api/icons/v1/png_71/school-71.png", "icon_background_color": "#7B9EB0", "icon_mask_base_uri": "https://maps.gstatic.com/mapfiles/place_api/icons/v2/school_pinlet", "name": "Ups Jamaiyatpur", "place_id": "ChIJwfVLlwLUnjkRIxjRxrKyrDQ", "reference": "ChIJwfVLlwLUnjkRIxjRxrKyrDQ", "scope": "GOOGLE", "types": ["school", "point_of_interest", "establishment"], "vicinity": "GPJC+7V4, Dhanipur"}, {"business_status": "OPERATIONAL", "geometry": {"location": {"lat": 27.521423, "lng": 80.7395633}, "viewport": {"northeast": {"lat": 27.5227779302915, "lng": 80.7409224302915}, "southwest": {"lat": 27.5200799697085, "lng": 80.7382244697085}}}, "icon": "https://maps.gstatic.com/mapfiles/place_api/icons/v1/png_71/school-71.png", "icon_background_color": "#7B9EB0", "icon_mask_base_uri": "https://maps.gstatic.com/mapfiles/place_api/icons/v2/school_pinlet", "name": "parshwanath shikshan sansthan(BTCcollege)", "place_id": "ChIJ_QIejfXTnjkRZLrcaIfNqj4", "plus_code": {"compound_code": "GPCQ+HR Jamaitpur, Uttar Pradesh, India", "global_code": "7MV2GPCQ+HR"}, "rating": 1, "reference": "ChIJ_QIejfXTnjkRZLrcaIfNqj4", "scope": "GOOGLE", "types": ["school", "point_of_interest", "establishment"], "user_ratings_total": 1, "vicinity": "Lucknow - Sitapur Road, Jamaitpur"}, {"business_status": "OPERATIONAL", "geometry": {"location": {"lat": 27.5107488, "lng": 80.732642}, "viewport": {"northeast": {"lat": 27.5120063802915, "lng": 80.7339702302915}, "southwest": {"lat": 27.5093084197085, "lng": 80.7312722697085}}}, "icon": "https://maps.gstatic.com/mapfiles/place_api/icons/v1/png_71/school-71.png", "icon_background_color": "#7B9EB0", "icon_mask_base_uri": "https://maps.gstatic.com/mapfiles/place_api/icons/v2/school_pinlet", "name": "Govt School Jainapur", "place_id": "ChIJ_82VblLTnjkR8vNEmcIJm68", "rating": 3, "reference": "ChIJ_82VblLTnjkR8vNEmcIJm68", "scope": "GOOGLE", "types": ["school", "point_of_interest", "establishment"], "user_ratings_total": 1, "vicinity": "GP6M+73R, Jainpur"}, {"business_status": "OPERATIONAL", "geometry": {"location": {"lat": 27.5252295, "lng": 80.7406769}, "viewport": {"northeast": {"lat": 27.52654548029151, "lng": 80.7420193302915}, "southwest": {"lat": 27.5238475197085, "lng": 80.73932136970849}}}, "icon": "https://maps.gstatic.com/mapfiles/place_api/icons/v1/png_71/school-71.png", "icon_background_color": "#7B9EB0", "icon_mask_base_uri": "https://maps.gstatic.com/mapfiles/place_api/icons/v2/school_pinlet", "name": "D n s Siksha Sansthan Manager", "place_id": "ChIJv_rStGfVnjkR76kGDwF1FJU", "plus_code": {"compound_code": "GPGR+37 Khairabad, Uttar Pradesh, India", "global_code": "7MV2GPGR+37"}, "reference": "ChIJv_rStGfVnjkR76kGDwF1FJU", "scope": "GOOGLE", "types": ["school", "point_of_interest", "establishment"], "vicinity": "Devnarayn Siksha Sansthan, Khairabad"}, {"business_status": "OPERATIONAL", "geometry": {"location": {"lat": 27.5252554, "lng": 80.74067889999999}, "viewport": {"northeast": {"lat": 27.5265586802915, "lng": 80.7420188302915}, "southwest": {"lat": 27.5238607197085, "lng": 80.7393208697085}}}, "icon": "https://maps.gstatic.com/mapfiles/place_api/icons/v1/png_71/school-71.png", "icon_background_color": "#7B9EB0", "icon_mask_base_uri": "https://maps.gstatic.com/mapfiles/place_api/icons/v2/school_pinlet", "name": "Devnarayn Siksha Sansthan", "photos": [{"height": 1280, "html_attributions": ["<a href=\"https://maps.google.com/maps/contrib/117565333279714334191\">Devnarayn Siksha Sansthan</a>"], "photo_reference": "Aap_uEBqWutdEwlk789bWi_Sl2BuA78BzMulE4DmXPrgsy0NK_2Ixu9vmz61YGwqBjtMURzIO4JQ0TV2S8_SMqrSrN1aW1egzI0XRHirUatp1RLDRbPDY7v2TLN4l6UcQT6Ack18yEH-i4FbgGMzKLrl8IkcD1N0LYAxcN38Hv-Jdxx-CVdk", "width": 814}], "place_id": "ChIJYbO8UtHVnjkRfH7UQTmOQi4", "plus_code": {"compound_code": "GPGR+47 Khairabad, Uttar Pradesh, India", "global_code": "7MV2GPGR+47"}, "reference": "ChIJYbO8UtHVnjkRfH7UQTmOQi4", "scope": "GOOGLE", "types": ["school", "point_of_interest", "establishment"], "vicinity": "Abhi Garima road, Khairabad"}], "status": "OK"}