{"html_attributions": [], "results": [{"business_status": "OPERATIONAL", "geometry": {"location": {"lat": 27.56076879999999, "lng": 80.71541289999999}, "viewport": {"northeast": {"lat": 27.5621177802915, "lng": 80.71676188029149}, "southwest": {"lat": 27.55941981970849, "lng": 80.71406391970848}}}, "icon": "https://maps.gstatic.com/mapfiles/place_api/icons/v1/png_71/school-71.png", "icon_background_color": "#7B9EB0", "icon_mask_base_uri": "https://maps.gstatic.com/mapfiles/place_api/icons/v2/school_pinlet", "name": "Maharishi Vidya Mandir", "opening_hours": {"open_now": true}, "photos": [{"height": 3456, "html_attributions": ["<a href=\"https://maps.google.com/maps/contrib/100585883627483557420\">Rishabh Bharti</a>"], "photo_reference": "Aap_uECEsO9YZCxklk5CmGqVXGWgAeVMjo-uwgkmrS6LzgdTSiyUVmpvzI8QkKAFjt6JVKyHTXqKjHUZrl_yr2Y-xzD37-GziOoxC7-GqKO0lzXqd_iVrZuAuO_nXHJbnnkKna392ErOmpkRPjurskt3Lkkdgoq73p55UqUkyq4W-xzDqYSK", "width": 4608}], "place_id": "ChIJA4YQRK3XnjkRqmkH-xNCWQY", "plus_code": {"compound_code": "HP68+85 Sitapur, Uttar Pradesh, India", "global_code": "7MV2HP68+85"}, "rating": 4, "reference": "ChIJA4YQRK3XnjkRqmkH-xNCWQY", "scope": "GOOGLE", "types": ["school", "point_of_interest", "establishment"], "user_ratings_total": 17, "vicinity": "Lakhimpur Bypass Road, Naipalapur, Sitapur"}, {"business_status": "OPERATIONAL", "geometry": {"location": {"lat": 27.5742077, "lng": 80.7276383}, "viewport": {"northeast": {"lat": 27.5754902802915, "lng": 80.7290000302915}, "southwest": {"lat": 27.5727923197085, "lng": 80.7263020697085}}}, "icon": "https://maps.gstatic.com/mapfiles/place_api/icons/v1/png_71/school-71.png", "icon_background_color": "#7B9EB0", "icon_mask_base_uri": "https://maps.gstatic.com/mapfiles/place_api/icons/v2/school_pinlet", "name": "Shiv Shakti Public School", "opening_hours": {"open_now": false}, "place_id": "ChIJ-1oFUNHVnjkR8F2gjUPmWJQ", "plus_code": {"compound_code": "HPFH+M3 Mahmoodpur, Uttar Pradesh, India", "global_code": "7MV2HPFH+M3"}, "reference": "ChIJ-1oFUNHVnjkR8F2gjUPmWJQ", "scope": "GOOGLE", "types": ["school", "point_of_interest", "establishment"], "vicinity": "Kasraila, road, Mahmoodpur"}, {"business_status": "OPERATIONAL", "geometry": {"location": {"lat": 27.57450489999999, "lng": 80.72672070000002}, "viewport": {"northeast": {"lat": 27.5759117802915, "lng": 80.72819198029151}, "southwest": {"lat": 27.5732138197085, "lng": 80.7254940197085}}}, "icon": "https://maps.gstatic.com/mapfiles/place_api/icons/v1/png_71/school-71.png", "icon_background_color": "#7B9EB0", "icon_mask_base_uri": "https://maps.gstatic.com/mapfiles/place_api/icons/v2/school_pinlet", "name": "Primary School Mahoodpur", "photos": [{"height": 1600, "html_attributions": ["<a href=\"https://maps.google.com/maps/contrib/113597262997387042832\">Ramjeevan Kumar</a>"], "photo_reference": "Aap_uEBSCT8qu50c5ueKRmxmBoDqMg6W4JE_L1wu8YMcrTCjK5vPtolkeyi7ABQB6sNJX7xBTD9O2mVFiOYS9CWJxjfbmHcS_rnz5KJYxKSGy5I1SbNYvQPGkRaMYZLeSkb_Ywn_f6IhftoylA2eOoAMf7BAv3ojTrQlMnYkgttUyThL1F9J", "width": 1200}], "place_id": "ChIJJV3ts9bVnjkRxIJAIJwSIPk", "rating": 4, "reference": "ChIJJV3ts9bVnjkRxIJAIJwSIPk", "scope": "GOOGLE", "types": ["school", "point_of_interest", "establishment"], "user_ratings_total": 1, "vicinity": "HPFG+RM5, Mahmoodpur"}, {"business_status": "OPERATIONAL", "geometry": {"location": {"lat": 27.5715, "lng": 80.7177}, "viewport": {"northeast": {"lat": 27.5727883302915, "lng": 80.71900318029151}, "southwest": {"lat": 27.5700903697085, "lng": 80.71630521970849}}}, "icon": "https://maps.gstatic.com/mapfiles/place_api/icons/v1/png_71/school-71.png", "icon_background_color": "#7B9EB0", "icon_mask_base_uri": "https://maps.gstatic.com/mapfiles/place_api/icons/v2/school_pinlet", "name": "Saraswati Vidhya Mandir Inter College", "opening_hours": {"open_now": false}, "photos": [{"height": 800, "html_attributions": ["<a href=\"https://maps.google.com/maps/contrib/110138843927165004494\">Aishwarya Mohan</a>"], "photo_reference": "Aap_uEDhlEerTU14qNbXtisSidzdXdHlEYCOierMm2yu5jN_p2U7pyka5pQZ1Kq_myVB0FKcrmj21k2th6gOTkV8VpAlzx1XedD6BkArS4RPv7jd9vfLX4BsYRjk_LjmOuIF6-yg2DNn1R2ry1Dz0Cac8xgJ9dP7wAlyA2FPrEU8CpJDegmy", "width": 1079}], "place_id": "ChIJIRU-wn7WnjkRA9EUIxiX0Fk", "plus_code": {"compound_code": "HPC9+J3 Sitapur, Uttar Pradesh, India", "global_code": "7MV2HPC9+J3"}, "rating": 4.5, "reference": "ChIJIRU-wn7WnjkRA9EUIxiX0Fk", "scope": "GOOGLE", "types": ["school", "point_of_interest", "establishment"], "user_ratings_total": 24, "vicinity": "Sitapur Rd, Sitapur"}, {"business_status": "OPERATIONAL", "geometry": {"location": {"lat": 27.571701, "lng": 80.717914}, "viewport": {"northeast": {"lat": 27.5728760802915, "lng": 80.7191316302915}, "southwest": {"lat": 27.5701781197085, "lng": 80.7164336697085}}}, "icon": "https://maps.gstatic.com/mapfiles/place_api/icons/v1/png_71/school-71.png", "icon_background_color": "#7B9EB0", "icon_mask_base_uri": "https://maps.gstatic.com/mapfiles/place_api/icons/v2/school_pinlet", "name": "A.D.S.V.M. School Sitapur", "photos": [{"height": 2576, "html_attributions": ["<a href=\"https://maps.google.com/maps/contrib/110539703758342481181\">shivam chauhan</a>"], "photo_reference": "Aap_uEAqBT2ITCmbCfnCfL-zplPH3f_RLSU6N4YaYDhBzI65PYkEbfZ0E6VqphU9-hsccr1cKU9sPEl-rRtEB1oYm14pjr2tJkx_2tjaZgZls9iO-WOZ9a5lXb_T_ztiLE1W66h8PqqbQpOQSCykdaMDeWjAHJ2pVDt5INTeDC5o1nbL_1f4", "width": 1932}], "place_id": "ChIJwyhHw37WnjkRI4mPtNQeIZ8", "rating": 5, "reference": "ChIJwyhHw37WnjkRI4mPtNQeIZ8", "scope": "GOOGLE", "types": ["school", "point_of_interest", "establishment"], "user_ratings_total": 3, "vicinity": "HPC9+M5M, Tandwa Chilawala"}], "status": "OK"}