{"html_attributions": [], "results": [{"business_status": "OPERATIONAL", "geometry": {"location": {"lat": 26.9879388, "lng": 80.7503838}, "viewport": {"northeast": {"lat": 26.9891702302915, "lng": 80.75164748029151}, "southwest": {"lat": 26.98647226970849, "lng": 80.74894951970849}}}, "icon": "https://maps.gstatic.com/mapfiles/place_api/icons/v1/png_71/school-71.png", "icon_background_color": "#7B9EB0", "icon_mask_base_uri": "https://maps.gstatic.com/mapfiles/place_api/icons/v2/school_pinlet", "name": "Pt. Deen dayal upadhyay model inter college", "place_id": "ChIJMUvLPkitnjkR1_E7OtyfkCg", "plus_code": {"compound_code": "XQQ2+55 Thavar, Uttar Pradesh, India", "global_code": "7MR2XQQ2+55"}, "reference": "ChIJMUvLPkitnjkR1_E7OtyfkCg", "scope": "GOOGLE", "types": ["school", "point_of_interest", "establishment"], "vicinity": "Maal Road, Thavar"}, {"business_status": "OPERATIONAL", "geometry": {"location": {"lat": 26.9855113, "lng": 80.7533734}, "viewport": {"northeast": {"lat": 26.9868786802915, "lng": 80.7547331802915}, "southwest": {"lat": 26.98418071970849, "lng": 80.75203521970849}}}, "icon": "https://maps.gstatic.com/mapfiles/place_api/icons/v1/png_71/school-71.png", "icon_background_color": "#7B9EB0", "icon_mask_base_uri": "https://maps.gstatic.com/mapfiles/place_api/icons/v2/school_pinlet", "name": "Primary school 2 thavar", "place_id": "ChIJ4TGEltCtnjkRkvbofTUBCBU", "plus_code": {"compound_code": "XQP3+68 Thavar, Uttar Pradesh, India", "global_code": "7MR2XQP3+68"}, "rating": 5, "reference": "ChIJ4TGEltCtnjkRkvbofTUBCBU", "scope": "GOOGLE", "types": ["school", "point_of_interest", "establishment"], "user_ratings_total": 1, "vicinity": "172, 172, Thavar"}, {"business_status": "OPERATIONAL", "geometry": {"location": {"lat": 26.988378, "lng": 80.7506128}, "viewport": {"northeast": {"lat": 26.9896855802915, "lng": 80.7519436802915}, "southwest": {"lat": 26.9869876197085, "lng": 80.74924571970848}}}, "icon": "https://maps.gstatic.com/mapfiles/place_api/icons/v1/png_71/school-71.png", "icon_background_color": "#7B9EB0", "icon_mask_base_uri": "https://maps.gstatic.com/mapfiles/place_api/icons/v2/school_pinlet", "name": "KDMSS", "place_id": "ChIJQYGLS2OtnjkR8CHfjpP5oB4", "plus_code": {"compound_code": "XQQ2+96 Thavar, Uttar Pradesh, India", "global_code": "7MR2XQQ2+96"}, "reference": "ChIJQYGLS2OtnjkR8CHfjpP5oB4", "scope": "GOOGLE", "types": ["school", "point_of_interest", "establishment"], "vicinity": "Unnamed Road, Thavar"}, {"business_status": "OPERATIONAL", "geometry": {"location": {"lat": 26.972499, "lng": 80.743011}, "viewport": {"northeast": {"lat": 26.97389698029151, "lng": 80.74437488029152}, "southwest": {"lat": 26.9711990197085, "lng": 80.74167691970851}}}, "icon": "https://maps.gstatic.com/mapfiles/place_api/icons/v1/png_71/school-71.png", "icon_background_color": "#7B9EB0", "icon_mask_base_uri": "https://maps.gstatic.com/mapfiles/place_api/icons/v2/school_pinlet", "name": "Shiv sn", "photos": [{"height": 1280, "html_attributions": ["<a href=\"https://maps.google.com/maps/contrib/111374227964098673212\">shiv nandan</a>"], "photo_reference": "Aap_uECLqZOjtSRwa-10dyvrg4uBdeZWAxR47yun-YKCQO9Bi6kSBQ1g-CIIlsvUaIvR4JK9lL8cR8pa3mOtuPbkczA-lZ8R-W7oUOccx6lBWUyvyNggb9zQme9jxirSirbjCpklbLl_HhmCiUPVbb5B5Y4WZ_-CeSHIkfGoHESkqZhhp607", "width": 614}], "place_id": "ChIJG5IailCtnjkRw13PTwvJvGs", "plus_code": {"compound_code": "XPCV+X6 Dhakhava, Uttar Pradesh, India", "global_code": "7MR2XPCV+X6"}, "reference": "ChIJG5IailCtnjkRw13PTwvJvGs", "scope": "GOOGLE", "types": ["school", "point_of_interest", "establishment"], "vicinity": "Unnamed Road, Dhakhava"}, {"business_status": "OPERATIONAL", "geometry": {"location": {"lat": 26.9721945, "lng": 80.7423013}, "viewport": {"northeast": {"lat": 26.9735419802915, "lng": 80.7436634802915}, "southwest": {"lat": 26.9708440197085, "lng": 80.7409655197085}}}, "icon": "https://maps.gstatic.com/mapfiles/place_api/icons/v1/png_71/school-71.png", "icon_background_color": "#7B9EB0", "icon_mask_base_uri": "https://maps.gstatic.com/mapfiles/place_api/icons/v2/school_pinlet", "name": "B.R.Children Academy", "opening_hours": {"open_now": false}, "photos": [{"height": 4160, "html_attributions": ["<a href=\"https://maps.google.com/maps/contrib/118401691074726616596\">sandeep kumar</a>"], "photo_reference": "Aap_uEAqcj5yIOcgRA_ihWN03PNI8ROqzFv1WnnGCzrjKomF3f-RZo0GF9FPGqCPeb9l-NO7pGSMeI6BG5JFX5Vn4gU4335th9SbqQnPh96P0THqAMh51BGpgJKT40z5jrugBD7ZrUSyPbL8H8UGg5OGVf6pe3fiyjsTkR-hsezqi42_pWed", "width": 3120}], "place_id": "ChIJ3deNIg2snjkR-2kHlmhrmQQ", "reference": "ChIJ3deNIg2snjkR-2kHlmhrmQQ", "scope": "GOOGLE", "types": ["school", "point_of_interest", "establishment"], "vicinity": "XPCR+VWF, Dhakhava"}, {"business_status": "OPERATIONAL", "geometry": {"location": {"lat": 26.9720682, "lng": 80.7424786}, "viewport": {"northeast": {"lat": 26.97342628029151, "lng": 80.7438198302915}, "southwest": {"lat": 26.9707283197085, "lng": 80.7411218697085}}}, "icon": "https://maps.gstatic.com/mapfiles/place_api/icons/v1/png_71/school-71.png", "icon_background_color": "#7B9EB0", "icon_mask_base_uri": "https://maps.gstatic.com/mapfiles/place_api/icons/v2/school_pinlet", "name": "ram charan juniyar high school", "opening_hours": {"open_now": false}, "place_id": "ChIJpajBIw2snjkRnIIDwDsbdeI", "reference": "ChIJpajBIw2snjkRnIIDwDsbdeI", "scope": "GOOGLE", "types": ["school", "point_of_interest", "establishment"], "vicinity": "XPCR+RXH, Dhakhava"}, {"business_status": "OPERATIONAL", "geometry": {"location": {"lat": 26.9919379, "lng": 80.7534818}, "viewport": {"northeast": {"lat": 26.9931854802915, "lng": 80.75470478029152}, "southwest": {"lat": 26.9904875197085, "lng": 80.7520068197085}}}, "icon": "https://maps.gstatic.com/mapfiles/place_api/icons/v1/png_71/school-71.png", "icon_background_color": "#7B9EB0", "icon_mask_base_uri": "https://maps.gstatic.com/mapfiles/place_api/icons/v2/school_pinlet", "name": "Vishal prem yadav", "place_id": "ChIJI8SzUXatnjkRpGe558VeGKE", "plus_code": {"compound_code": "XQR3+Q9 Man Mauna, Uttar Pradesh, India", "global_code": "7MR2XQR3+Q9"}, "reference": "ChIJI8SzUXatnjkRpGe558VeGKE", "scope": "GOOGLE", "types": ["school", "point_of_interest", "establishment"], "vicinity": "Unnamed Road, Man Mauna"}], "status": "OK"}