{"html_attributions": [], "results": [{"business_status": "OPERATIONAL", "geometry": {"location": {"lat": 27.0467676, "lng": 80.7434972}, "viewport": {"northeast": {"lat": 27.0481710802915, "lng": 80.7449250302915}, "southwest": {"lat": 27.0454731197085, "lng": 80.74222706970849}}}, "icon": "https://maps.gstatic.com/mapfiles/place_api/icons/v1/png_71/school-71.png", "icon_background_color": "#7B9EB0", "icon_mask_base_uri": "https://maps.gstatic.com/mapfiles/place_api/icons/v2/school_pinlet", "name": "G P S Atari Mall Lucknow", "place_id": "ChIJzfFwbFGtnjkROAYW_BAhgpo", "reference": "ChIJzfFwbFGtnjkROAYW_BAhgpo", "scope": "GOOGLE", "types": ["school", "point_of_interest", "establishment"], "vicinity": "2PWV+P95, Atari"}, {"business_status": "OPERATIONAL", "geometry": {"location": {"lat": 27.0486652, "lng": 80.74541289999999}, "viewport": {"northeast": {"lat": 27.0500167802915, "lng": 80.7467631302915}, "southwest": {"lat": 27.0473188197085, "lng": 80.74406516970849}}}, "icon": "https://maps.gstatic.com/mapfiles/place_api/icons/v1/png_71/school-71.png", "icon_background_color": "#7B9EB0", "icon_mask_base_uri": "https://maps.gstatic.com/mapfiles/place_api/icons/v2/school_pinlet", "name": "\u0930\u093e\u0927\u093e \u0930\u092e\u0923", "opening_hours": {"open_now": true}, "place_id": "ChIJe_1ZRp6tnjkRwnTqvCHILBA", "reference": "ChIJe_1ZRp6tnjkRwnTqvCHILBA", "scope": "GOOGLE", "types": ["school", "point_of_interest", "establishment"], "vicinity": "2PXW+F57, Atari"}, {"business_status": "OPERATIONAL", "geometry": {"location": {"lat": 27.0499072, "lng": 80.74632749999999}, "viewport": {"northeast": {"lat": 27.0512654302915, "lng": 80.74765563029149}, "southwest": {"lat": 27.04856746970849, "lng": 80.74495766970848}}}, "icon": "https://maps.gstatic.com/mapfiles/place_api/icons/v1/png_71/school-71.png", "icon_background_color": "#7B9EB0", "icon_mask_base_uri": "https://maps.gstatic.com/mapfiles/place_api/icons/v2/school_pinlet", "name": "Ramsevak yadav Atari mall 226104", "opening_hours": {"open_now": true}, "place_id": "ChIJobw6c_OtnjkR1_IvJM2jRgI", "plus_code": {"compound_code": "2PXW+XG Atari, Uttar Pradesh, India", "global_code": "7MV22PXW+XG"}, "reference": "ChIJobw6c_OtnjkR1_IvJM2jRgI", "scope": "GOOGLE", "types": ["school", "point_of_interest", "establishment"], "vicinity": "MDR 74C, Atari"}, {"business_status": "OPERATIONAL", "geometry": {"location": {"lat": 27.0426059, "lng": 80.7574688}, "viewport": {"northeast": {"lat": 27.0440518302915, "lng": 80.7588777802915}, "southwest": {"lat": 27.04135386970849, "lng": 80.75617981970849}}}, "icon": "https://maps.gstatic.com/mapfiles/place_api/icons/v1/png_71/school-71.png", "icon_background_color": "#7B9EB0", "icon_mask_base_uri": "https://maps.gstatic.com/mapfiles/place_api/icons/v2/school_pinlet", "name": "DHEERENDRA Raj", "place_id": "ChIJESBKnDytnjkRqQM3Z1IXoys", "reference": "ChIJESBKnDytnjkRqQM3Z1IXoys", "scope": "GOOGLE", "types": ["primary_school", "school", "point_of_interest", "establishment"], "vicinity": "2QV4+2XX, Amlauli"}, {"business_status": "OPERATIONAL", "geometry": {"location": {"lat": 27.0329447, "lng": 80.7436142}, "viewport": {"northeast": {"lat": 27.0345051302915, "lng": 80.74441829999999}, "southwest": {"lat": 27.03180716970849, "lng": 80.7412019}}}, "icon": "https://maps.gstatic.com/mapfiles/place_api/icons/v1/png_71/school-71.png", "icon_background_color": "#7B9EB0", "icon_mask_base_uri": "https://maps.gstatic.com/mapfiles/place_api/icons/v2/school_pinlet", "name": "P.S. Lodhaie", "place_id": "ChIJV1VVVZWtnjkR3z3RGWbkueQ", "plus_code": {"compound_code": "2PMV+5C Ram Nagar, Uttar Pradesh, India", "global_code": "7MV22PMV+5C"}, "reference": "ChIJV1VVVZWtnjkR3z3RGWbkueQ", "scope": "GOOGLE", "types": ["school", "point_of_interest", "establishment"], "vicinity": "Jamolia, Mall, Lucknow"}, {"business_status": "OPERATIONAL", "geometry": {"location": {"lat": 27.0525608, "lng": 80.7438499}, "viewport": {"northeast": {"lat": 27.0539111802915, "lng": 80.74517893029152}, "southwest": {"lat": 27.0512132197085, "lng": 80.74248096970851}}}, "icon": "https://maps.gstatic.com/mapfiles/place_api/icons/v1/png_71/school-71.png", "icon_background_color": "#7B9EB0", "icon_mask_base_uri": "https://maps.gstatic.com/mapfiles/place_api/icons/v2/school_pinlet", "name": "Shri Sudarshan Academy Junior High School", "place_id": "ChIJZ4NpMoutnjkR9LRikZRsAKI", "plus_code": {"compound_code": "3P3V+2G Atari, Uttar Pradesh, India", "global_code": "7MV23P3V+2G"}, "reference": "ChIJZ4NpMoutnjkR9LRikZRsAKI", "scope": "GOOGLE", "types": ["school", "point_of_interest", "establishment"], "vicinity": "MDR 74C, Atari"}], "status": "OK"}