{"html_attributions": [], "results": [{"business_status": "OPERATIONAL", "geometry": {"location": {"lat": 27.2707966, "lng": 79.7852358}, "viewport": {"northeast": {"lat": 27.2721710302915, "lng": 79.7866408302915}, "southwest": {"lat": 27.2694730697085, "lng": 79.7839428697085}}}, "icon": "https://maps.gstatic.com/mapfiles/place_api/icons/v1/png_71/school-71.png", "icon_background_color": "#7B9EB0", "icon_mask_base_uri": "https://maps.gstatic.com/mapfiles/place_api/icons/v2/school_pinlet", "name": "Post Office Tikar", "place_id": "ChIJHT5j5T1HnjkRa0dAw0DUwrs", "rating": 5, "reference": "ChIJHT5j5T1HnjkRa0dAw0DUwrs", "scope": "GOOGLE", "types": ["school", "post_office", "finance", "point_of_interest", "establishment"], "user_ratings_total": 1, "vicinity": "7QCP+839, Beerhijor"}, {"business_status": "OPERATIONAL", "geometry": {"location": {"lat": 27.2712083, "lng": 79.78450169999999}, "viewport": {"northeast": {"lat": 27.2725502302915, "lng": 79.7858442802915}, "southwest": {"lat": 27.2698522697085, "lng": 79.7831463197085}}}, "icon": "https://maps.gstatic.com/mapfiles/place_api/icons/v1/png_71/school-71.png", "icon_background_color": "#7B9EB0", "icon_mask_base_uri": "https://maps.gstatic.com/mapfiles/place_api/icons/v2/school_pinlet", "name": "A.G.S.S. School Tikar", "place_id": "ChIJYSmxaKdHnjkRIcAT9bRL7co", "plus_code": {"compound_code": "7QCM+FR Tikar, Uttar Pradesh, India", "global_code": "7JVX7QCM+FR"}, "reference": "ChIJYSmxaKdHnjkRIcAT9bRL7co", "scope": "GOOGLE", "types": ["school", "point_of_interest", "establishment"], "vicinity": "Unnamed Road, Tikar"}, {"business_status": "OPERATIONAL", "geometry": {"location": {"lat": 27.2719788, "lng": 79.7830642}, "viewport": {"northeast": {"lat": 27.27333893029151, "lng": 79.7844198302915}, "southwest": {"lat": 27.2706409697085, "lng": 79.78172186970849}}}, "icon": "https://maps.gstatic.com/mapfiles/place_api/icons/v1/png_71/school-71.png", "icon_background_color": "#7B9EB0", "icon_mask_base_uri": "https://maps.gstatic.com/mapfiles/place_api/icons/v2/school_pinlet", "name": "SHAID HARI SINGH SMARK SIKHSHAN SANSTHAN UCHHATAR MADHYAMIK VIDHYLYE TIKAR", "place_id": "ChIJm6cbPoxHnjkRkqieP_Zy-DM", "reference": "ChIJm6cbPoxHnjkRkqieP_Zy-DM", "scope": "GOOGLE", "types": ["school", "point_of_interest", "establishment"], "vicinity": "7QCM+Q6W"}, {"business_status": "OPERATIONAL", "geometry": {"location": {"lat": 27.27221939999999, "lng": 79.78297069999999}, "viewport": {"northeast": {"lat": 27.2735802802915, "lng": 79.7842852802915}, "southwest": {"lat": 27.27088231970849, "lng": 79.78158731970849}}}, "icon": "https://maps.gstatic.com/mapfiles/place_api/icons/v1/png_71/school-71.png", "icon_background_color": "#7B9EB0", "icon_mask_base_uri": "https://maps.gstatic.com/mapfiles/place_api/icons/v2/school_pinlet", "name": "S. H. S. S. S. U. M. VIDHYALYA TIKAR", "opening_hours": {"open_now": false}, "photos": [{"height": 2304, "html_attributions": ["<a href=\"https://maps.google.com/maps/contrib/106206901150562756923\">Pankaj Kumar</a>"], "photo_reference": "Aap_uEBmLdsYAlFlEIYfm4p8_JQr2ynR1J32u9LOtFG6VU5gG8osYSWxQHu2wC-R7DHbXlnOwUHTpze3YZYpQYRkSxsarUIX0pQXZpGV0_qucGIl3gyAuvytb-xFt5W6sfd34ScyLbUZgV5FcforgTdzCGdMCN84L1YpToFpbSCRHJ8q998", "width": 4096}], "place_id": "ChIJ4ZwMT-JHnjkRtDCLpJqrbpw", "rating": 5, "reference": "ChIJ4ZwMT-JHnjkRtDCLpJqrbpw", "scope": "GOOGLE", "types": ["school", "point_of_interest", "establishment"], "user_ratings_total": 1, "vicinity": "7QCM+V5Q, Tikar"}], "status": "OK"}