{"html_attributions": [], "results": [{"business_status": "OPERATIONAL", "geometry": {"location": {"lat": 27.0942854, "lng": 80.7598962}, "viewport": {"northeast": {"lat": 27.0956202302915, "lng": 80.7612344302915}, "southwest": {"lat": 27.0929222697085, "lng": 80.75853646970849}}}, "icon": "https://maps.gstatic.com/mapfiles/place_api/icons/v1/png_71/school-71.png", "icon_background_color": "#7B9EB0", "icon_mask_base_uri": "https://maps.gstatic.com/mapfiles/place_api/icons/v2/school_pinlet", "name": "Bhelampur Mawai Mall Malihabad Lucknow", "place_id": "ChIJzbtWjhSznjkRrzMQfbBcU0Q", "reference": "ChIJzbtWjhSznjkRrzMQfbBcU0Q", "scope": "GOOGLE", "types": ["school", "point_of_interest", "establishment"], "vicinity": "3QV5+PX6, Bhelam Pur"}, {"business_status": "OPERATIONAL", "geometry": {"location": {"lat": 27.0935015, "lng": 80.7605581}, "viewport": {"northeast": {"lat": 27.09485178029151, "lng": 80.7619850802915}, "southwest": {"lat": 27.0921538197085, "lng": 80.75928711970849}}}, "icon": "https://maps.gstatic.com/mapfiles/place_api/icons/v1/png_71/school-71.png", "icon_background_color": "#7B9EB0", "icon_mask_base_uri": "https://maps.gstatic.com/mapfiles/place_api/icons/v2/school_pinlet", "name": "Ups Basantpur", "place_id": "ChIJp9irf2aznjkRgZo-EtcdXbg", "reference": "ChIJp9irf2aznjkRgZo-EtcdXbg", "scope": "GOOGLE", "types": ["school", "point_of_interest", "establishment"], "vicinity": "3QV6+C63, Bhelam Pur"}, {"business_status": "OPERATIONAL", "geometry": {"location": {"lat": 27.0933506, "lng": 80.7604892}, "viewport": {"northeast": {"lat": 27.0947015302915, "lng": 80.7619522302915}, "southwest": {"lat": 27.09200356970849, "lng": 80.75925426970848}}}, "icon": "https://maps.gstatic.com/mapfiles/place_api/icons/v1/png_71/school-71.png", "icon_background_color": "#7B9EB0", "icon_mask_base_uri": "https://maps.gstatic.com/mapfiles/place_api/icons/v2/school_pinlet", "name": "Ups Basantpur Mall Lucknow", "photos": [{"height": 1080, "html_attributions": ["<a href=\"https://maps.google.com/maps/contrib/114453055802977765422\">Manoj Gupta</a>"], "photo_reference": "Aap_uEBd_bMkysZJv5BJUA8lO6C_JO_M3HShD1vivemvj2wljxxnNZ_9sJxipMsEx64THggPpJvVBMwYQrRHINku9V53UyWLLPkNFOEbkQ--yU-m0DDxmBc9f4rzXhEf2O8eoBeAUiBJY2nW7X3DxTnMQXX6ZnjbKNAjslUIR4j94DlqxI3S", "width": 1920}], "place_id": "ChIJ5dZATFeynjkR2qxN7MSedG4", "rating": 5, "reference": "ChIJ5dZATFeynjkR2qxN7MSedG4", "scope": "GOOGLE", "types": ["school", "point_of_interest", "establishment"], "user_ratings_total": 1, "vicinity": "3QV6+85X, Bhelam Pur"}, {"business_status": "OPERATIONAL", "geometry": {"location": {"lat": 27.0934983, "lng": 80.7595831}, "viewport": {"northeast": {"lat": 27.0949759302915, "lng": 80.7609619302915}, "southwest": {"lat": 27.0922779697085, "lng": 80.7582639697085}}}, "icon": "https://maps.gstatic.com/mapfiles/place_api/icons/v1/png_71/school-71.png", "icon_background_color": "#7B9EB0", "icon_mask_base_uri": "https://maps.gstatic.com/mapfiles/place_api/icons/v2/school_pinlet", "name": "Primary school bhelampur", "place_id": "ChIJD8xLMw-znjkR_7VDOiHPa5s", "reference": "ChIJD8xLMw-znjkR_7VDOiHPa5s", "scope": "GOOGLE", "types": ["school", "point_of_interest", "establishment"], "vicinity": "3QV5+9RW, Bhelam Pur"}, {"business_status": "OPERATIONAL", "geometry": {"location": {"lat": 27.1055707, "lng": 80.7792875}, "viewport": {"northeast": {"lat": 27.1068675802915, "lng": 80.7807041302915}, "southwest": {"lat": 27.1041696197085, "lng": 80.77800616970849}}}, "icon": "https://maps.gstatic.com/mapfiles/place_api/icons/v1/png_71/school-71.png", "icon_background_color": "#7B9EB0", "icon_mask_base_uri": "https://maps.gstatic.com/mapfiles/place_api/icons/v2/school_pinlet", "name": "\u092a\u094d\u0930\u093e\u0907\u092e\u0930\u0940 \u0935\u093f\u0926\u094d\u092f\u093e\u0932\u092f \u091c\u092e\u0941\u0928\u0940\u092a\u0941\u0930", "opening_hours": {"open_now": false}, "photos": [{"height": 3000, "html_attributions": ["<a href=\"https://maps.google.com/maps/contrib/111903958909729088268\">samar singh</a>"], "photo_reference": "Aap_uEBUqFEJuKR3huhhKZKPyO-hzKqmB4gSBSlN9S7R8psdvZhXlA5ZpgiEKTl8XSd3D8MytpwQ1oHkLF0OqcYtgu8w8DklCQAQvo7QLaIMf_chMv8en29nmzSHR34EHnzJuPxK_ZgNLBMMXta7crNtQDt7HG5Fhg2KrYiMSvsNmPRfIsGp", "width": 4000}], "place_id": "ChIJG21h-qeznjkR4ltEyzDRnKI", "plus_code": {"compound_code": "4Q4H+6P Jamunipur, Uttar Pradesh, India", "global_code": "7MV24Q4H+6P"}, "reference": "ChIJG21h-qeznjkR4ltEyzDRnKI", "scope": "GOOGLE", "types": ["school", "point_of_interest", "establishment"], "vicinity": "MDR 74C, Jamunipur"}, {"business_status": "OPERATIONAL", "geometry": {"location": {"lat": 27.1056534, "lng": 80.7794244}, "viewport": {"northeast": {"lat": 27.10696273029151, "lng": 80.78082488029149}, "southwest": {"lat": 27.1042647697085, "lng": 80.77812691970848}}}, "icon": "https://maps.gstatic.com/mapfiles/place_api/icons/v1/png_71/school-71.png", "icon_background_color": "#7B9EB0", "icon_mask_base_uri": "https://maps.gstatic.com/mapfiles/place_api/icons/v2/school_pinlet", "name": "Primary School JAMUNIPUR", "opening_hours": {"open_now": false}, "photos": [{"height": 3000, "html_attributions": ["<a href=\"https://maps.google.com/maps/contrib/111903958909729088268\">samar singh</a>"], "photo_reference": "Aap_uEDmZjD2IcGGu2fRbbSbjMBe-9HEl8kEVzirHZ4_WaGOWwJYy98UJof2MHjYETOwJLqiMtVPwTxUH-sf-sUMkpvaeBqrt4oNjBBjPCtVIqQxXzq7X2yOXJ9y8WSnVfNppE4Vsj6bFOwf4WXtwjnkhP-BdutPGKEZuPsM9QauRnccQQrT", "width": 4000}], "place_id": "ChIJrQAteR2znjkROv55byjy2XI", "reference": "ChIJrQAteR2znjkROv55byjy2XI", "scope": "GOOGLE", "types": ["school", "point_of_interest", "establishment"], "vicinity": "4Q4H+7Q7, Jamunipur"}], "status": "OK"}