{"html_attributions": [], "results": [{"business_status": "OPERATIONAL", "geometry": {"location": {"lat": 27.1045682, "lng": 80.7988634}, "viewport": {"northeast": {"lat": 27.1059677802915, "lng": 80.8001400302915}, "southwest": {"lat": 27.1032698197085, "lng": 80.7974420697085}}}, "icon": "https://maps.gstatic.com/mapfiles/place_api/icons/v1/png_71/school-71.png", "icon_background_color": "#7B9EB0", "icon_mask_base_uri": "https://maps.gstatic.com/mapfiles/place_api/icons/v2/school_pinlet", "name": "MK Sweets House", "place_id": "ChIJWV1H2QqznjkRFCiJwjSKz7g", "plus_code": {"compound_code": "4Q3X+RG Raipur, Uttar Pradesh, India", "global_code": "7MV24Q3X+RG"}, "rating": 5, "reference": "ChIJWV1H2QqznjkRFCiJwjSKz7g", "scope": "GOOGLE", "types": ["school", "point_of_interest", "establishment"], "user_ratings_total": 1, "vicinity": "Hanni khera, Mall Road, Lucknow"}, {"business_status": "OPERATIONAL", "geometry": {"location": {"lat": 27.0976386, "lng": 80.79624919999999}, "viewport": {"northeast": {"lat": 27.0989695802915, "lng": 80.79762368029151}, "southwest": {"lat": 27.0962716197085, "lng": 80.79492571970849}}}, "icon": "https://maps.gstatic.com/mapfiles/place_api/icons/v1/png_71/school-71.png", "icon_background_color": "#7B9EB0", "icon_mask_base_uri": "https://maps.gstatic.com/mapfiles/place_api/icons/v2/school_pinlet", "name": "shri Ram lal memorial inter collage", "place_id": "ChIJ42eNFpWznjkRP2FzQ4An9Jc", "reference": "ChIJ42eNFpWznjkRP2FzQ4An9Jc", "scope": "GOOGLE", "types": ["school", "point_of_interest", "establishment"], "vicinity": "3QXW+3F5, hannikheda, Raipur"}, {"business_status": "OPERATIONAL", "geometry": {"location": {"lat": 27.1049232, "lng": 80.818401}, "viewport": {"northeast": {"lat": 27.10652183029151, "lng": 80.81908493029151}, "southwest": {"lat": 27.1038238697085, "lng": 80.8163869697085}}}, "icon": "https://maps.gstatic.com/mapfiles/place_api/icons/v1/png_71/school-71.png", "icon_background_color": "#7B9EB0", "icon_mask_base_uri": "https://maps.gstatic.com/mapfiles/place_api/icons/v2/school_pinlet", "name": "Brahma Devasthanam auna", "photos": [{"height": 854, "html_attributions": ["<a href=\"https://maps.google.com/maps/contrib/109766195575281878276\">RAKESH MAURYA 9936</a>"], "photo_reference": "Aap_uEDkppvuBfqLGOeYYtLfvd8cl5sG2g9AYazfSgBVmg3iW2uhKn7V2rf3N4UaVSAlFpQRZk2sd57oc9FmhhASj_PWcYwHNEu6MLwikT4LXSPORuHA1_rSJlXnjju-Ee36cu3Efmd_nFstEgBtOZ5spbNkgah2Q1aO-l8EcF9i7f935dWX", "width": 640}], "place_id": "ChIJq6qqqilNmTkRG9d5O6OKQTQ", "rating": 3, "reference": "ChIJq6qqqilNmTkRG9d5O6OKQTQ", "scope": "GOOGLE", "types": ["school", "point_of_interest", "establishment"], "user_ratings_total": 1, "vicinity": "4R39+X96, Auna"}, {"business_status": "OPERATIONAL", "geometry": {"location": {"lat": 27.092224, "lng": 80.816051}, "viewport": {"northeast": {"lat": 27.0935551802915, "lng": 80.8173863302915}, "southwest": {"lat": 27.0908572197085, "lng": 80.81468836970849}}}, "icon": "https://maps.gstatic.com/mapfiles/place_api/icons/v1/png_71/school-71.png", "icon_background_color": "#7B9EB0", "icon_mask_base_uri": "https://maps.gstatic.com/mapfiles/place_api/icons/v2/school_pinlet", "name": "New Frowell Mantesari School", "place_id": "ChIJRTCojmZNmTkRM2NqhJgHwZA", "plus_code": {"compound_code": "3RR8+VC Badiya, Uttar Pradesh, India", "global_code": "7MV23RR8+VC"}, "rating": 5, "reference": "ChIJRTCojmZNmTkRM2NqhJgHwZA", "scope": "GOOGLE", "types": ["school", "point_of_interest", "establishment"], "user_ratings_total": 1, "vicinity": "Unnamed Road, Badiya"}], "status": "OK"}