{"html_attributions": [], "results": [{"business_status": "OPERATIONAL", "geometry": {"location": {"lat": 27.0002395, "lng": 79.8327307}, "viewport": {"northeast": {"lat": 27.0012799302915, "lng": 79.8338905802915}, "southwest": {"lat": 26.9985819697085, "lng": 79.83119261970849}}}, "icon": "https://maps.gstatic.com/mapfiles/place_api/icons/v1/png_71/school-71.png", "icon_background_color": "#7B9EB0", "icon_mask_base_uri": "https://maps.gstatic.com/mapfiles/place_api/icons/v2/school_pinlet", "name": "PRABHAT ADARSH VIDYALAYA NATHAPURWA KANNAUJ", "photos": [{"height": 1018, "html_attributions": ["<a href=\"https://maps.google.com/maps/contrib/104015878822430132585\">Shailesh Rajput</a>"], "photo_reference": "Aap_uEDTm0PhqzJGvUwSNMP2_qqlPgi7-ixSpXx16M5cDqMVXSxLpM-ViHS-kjrKLhP4WTFvBOowJdXkdrh7FsAH_Ep-2u_T5weq15y96mzkbgk1sqRucAX9j3Uw3OhuS66AMPFEOzwtZPdFPNF_zFc7X9tmqkq-HH8iitdfHb8gkwuIPXVl", "width": 4624}], "place_id": "ChIJ1X3IGZ5vnjkRv_FCKwNLflo", "plus_code": {"compound_code": "2R2M+33 Rajaimau Raj, Uttar Pradesh, India", "global_code": "7JVX2R2M+33"}, "reference": "ChIJ1X3IGZ5vnjkRv_FCKwNLflo", "scope": "GOOGLE", "types": ["secondary_school", "school", "point_of_interest", "establishment"], "vicinity": "Nathapurwa, Rajaimau Raj"}, {"business_status": "OPERATIONAL", "geometry": {"location": {"lat": 26.996337, "lng": 79.830315}, "viewport": {"northeast": {"lat": 26.9976588302915, "lng": 79.83169243029151}, "southwest": {"lat": 26.9949608697085, "lng": 79.8289944697085}}}, "icon": "https://maps.gstatic.com/mapfiles/place_api/icons/v1/png_71/school-71.png", "icon_background_color": "#7B9EB0", "icon_mask_base_uri": "https://maps.gstatic.com/mapfiles/place_api/icons/v2/school_pinlet", "name": "M.S gems public school", "photos": [{"height": 710, "html_attributions": ["<a href=\"https://maps.google.com/maps/contrib/111770781059025690852\">Sohail khan Sohail khan</a>"], "photo_reference": "Aap_uECDOw-EQMQN0w8o-8I2vkm6G6TL3e6mhwEQjApokC-AZ5_CWB8GN43Q2gKIekF1XUBV2h-oWOxcYHWT3mGMlhxvSn5s783XZqpJrqJ9ZGWZRXtb_Vs982xtICKyMVc9Yv0O3fvweWwlzSy4EEIh8XcaRkqXlC580cPRd_4PAzZr7hq0", "width": 710}], "place_id": "ChIJi4kY1VxvnjkR4zp0a-nBCcg", "plus_code": {"compound_code": "XRWJ+G4 Faguha, Uttar Pradesh, India", "global_code": "7JRXXRWJ+G4"}, "rating": 5, "reference": "ChIJi4kY1VxvnjkR4zp0a-nBCcg", "scope": "GOOGLE", "types": ["school", "point_of_interest", "establishment"], "user_ratings_total": 1, "vicinity": "Faguha, Bhatta"}, {"business_status": "OPERATIONAL", "geometry": {"location": {"lat": 26.9948123, "lng": 79.8234307}, "viewport": {"northeast": {"lat": 26.9963690302915, "lng": 79.8245404802915}, "southwest": {"lat": 26.9936710697085, "lng": 79.8218425197085}}}, "icon": "https://maps.gstatic.com/mapfiles/place_api/icons/v1/png_71/school-71.png", "icon_background_color": "#7B9EB0", "icon_mask_base_uri": "https://maps.gstatic.com/mapfiles/place_api/icons/v2/school_pinlet", "name": "paras telecom faguha", "place_id": "ChIJSep8JfptnjkR7LPJJbDffb0", "reference": "ChIJSep8JfptnjkR7LPJJbDffb0", "scope": "GOOGLE", "types": ["school", "point_of_interest", "establishment"], "vicinity": "XRVF+W9F, Faguha"}, {"business_status": "OPERATIONAL", "geometry": {"location": {"lat": 27.0086076, "lng": 79.8376723}, "viewport": {"northeast": {"lat": 27.0100286302915, "lng": 79.8388753802915}, "southwest": {"lat": 27.00733066970849, "lng": 79.83617741970848}}}, "icon": "https://maps.gstatic.com/mapfiles/place_api/icons/v1/png_71/school-71.png", "icon_background_color": "#7B9EB0", "icon_mask_base_uri": "https://maps.gstatic.com/mapfiles/place_api/icons/v2/school_pinlet", "name": "Shri Sumer Singh Sikshan Avam Prasikshan Sansthan", "opening_hours": {"open_now": false}, "place_id": "ChIJAS3M-w5unjkRTgSHaoWpa_k", "reference": "ChIJAS3M-w5unjkRTgSHaoWpa_k", "scope": "GOOGLE", "types": ["school", "point_of_interest", "establishment"], "vicinity": "2R5Q+C3V, Muraiya Buju"}, {"business_status": "OPERATIONAL", "geometry": {"location": {"lat": 26.99020000000001, "lng": 79.8261}, "viewport": {"northeast": {"lat": 26.9914017302915, "lng": 79.82752438029149}, "southwest": {"lat": 26.9887037697085, "lng": 79.82482641970849}}}, "icon": "https://maps.gstatic.com/mapfiles/place_api/icons/v1/png_71/school-71.png", "icon_background_color": "#7B9EB0", "icon_mask_base_uri": "https://maps.gstatic.com/mapfiles/place_api/icons/v2/school_pinlet", "name": "S P Convent Public School", "opening_hours": {"open_now": false}, "photos": [{"height": 2448, "html_attributions": ["<a href=\"https://maps.google.com/maps/contrib/104752046855003042597\">Amit Katiyar</a>"], "photo_reference": "Aap_uEAPQ-l3FA_Qe1BVY0GyeEKDTSKAM9yA2HYSluA2C5Ixv0oONXD-Cnl7tM37DTlXg8KpeK87DfWWxgdkriIIXpI0qANYCLb6uJJLarwyGRZXfeeSW1u3DUXTzoyRvWvQrusvptUyX5hi2EDbxDzoDQcHQxpe51bUkSPKLR_JpmwBlkQ", "width": 3264}], "place_id": "ChIJ91u85ABynjkR7lsyuTAITrw", "plus_code": {"compound_code": "XRRG+3C Tirwaganj, Uttar Pradesh, India", "global_code": "7JRXXRRG+3C"}, "rating": 5, "reference": "ChIJ91u85ABynjkR7lsyuTAITrw", "scope": "GOOGLE", "types": ["school", "point_of_interest", "establishment"], "user_ratings_total": 2, "vicinity": "Faguha, Kannauj, NH-91A, Tirwa Road, Tirwaganj, Tirwaganj"}], "status": "OK"}