{"html_attributions": [], "results": [{"business_status": "OPERATIONAL", "geometry": {"location": {"lat": 27.2753096, "lng": 79.8265203}, "viewport": {"northeast": {"lat": 27.2767163302915, "lng": 79.82790583029148}, "southwest": {"lat": 27.2740183697085, "lng": 79.82520786970848}}}, "icon": "https://maps.gstatic.com/mapfiles/place_api/icons/v1/png_71/school-71.png", "icon_background_color": "#7B9EB0", "icon_mask_base_uri": "https://maps.gstatic.com/mapfiles/place_api/icons/v2/school_pinlet", "name": "\u091c\u092e\u093e\u0932\u0941\u0932 \u0915\u0941\u0930\u093e\u0928 \u092e\u0926\u0930\u0938\u093e", "place_id": "ChIJ08EIBUxHnjkRHbTPfnjXMw4", "reference": "ChIJ08EIBUxHnjkRHbTPfnjXMw4", "scope": "GOOGLE", "types": ["school", "point_of_interest", "establishment"], "vicinity": "7RGG+4JC, Laluwa Mau"}, {"business_status": "OPERATIONAL", "geometry": {"location": {"lat": 27.2752402, "lng": 79.8265203}, "viewport": {"northeast": {"lat": 27.2766570302915, "lng": 79.82794278029151}, "southwest": {"lat": 27.2739590697085, "lng": 79.8252448197085}}}, "icon": "https://maps.gstatic.com/mapfiles/place_api/icons/v1/png_71/school-71.png", "icon_background_color": "#7B9EB0", "icon_mask_base_uri": "https://maps.gstatic.com/mapfiles/place_api/icons/v2/school_pinlet", "name": "Ziya Ul Kuran Madarsa", "place_id": "ChIJvVhjsOBHnjkRaSJq2tLEjVc", "reference": "ChIJvVhjsOBHnjkRaSJq2tLEjVc", "scope": "GOOGLE", "types": ["school", "point_of_interest", "establishment"], "vicinity": "7RGG+3JR, Laluwa Mau"}, {"business_status": "OPERATIONAL", "geometry": {"location": {"lat": 27.2752041, "lng": 79.8265851}, "viewport": {"northeast": {"lat": 27.2766024802915, "lng": 79.82800743029149}, "southwest": {"lat": 27.2739045197085, "lng": 79.82530946970849}}}, "icon": "https://maps.gstatic.com/mapfiles/place_api/icons/v1/png_71/school-71.png", "icon_background_color": "#7B9EB0", "icon_mask_base_uri": "https://maps.gstatic.com/mapfiles/place_api/icons/v2/school_pinlet", "name": "\u092e\u0926\u0930\u0938\u093e", "place_id": "ChIJVZQ3KQBHnjkRuu1UAU37I1E", "reference": "ChIJVZQ3KQBHnjkRuu1UAU37I1E", "scope": "GOOGLE", "types": ["school", "point_of_interest", "establishment"], "vicinity": "7RGG+3JP, Laluwa Mau"}, {"business_status": "OPERATIONAL", "geometry": {"location": {"lat": 27.2749738, "lng": 79.8263537}, "viewport": {"northeast": {"lat": 27.2762956802915, "lng": 79.8276786802915}, "southwest": {"lat": 27.2735977197085, "lng": 79.82498071970849}}}, "icon": "https://maps.gstatic.com/mapfiles/place_api/icons/v1/png_71/school-71.png", "icon_background_color": "#7B9EB0", "icon_mask_base_uri": "https://maps.gstatic.com/mapfiles/place_api/icons/v2/school_pinlet", "name": "\u091c\u093f\u092f\u093e\u0932\u0941\u0932 \u0915\u0941\u0930\u093e\u0928 \u092e\u0926\u0930\u0938\u093e", "opening_hours": {"open_now": false}, "photos": [{"height": 370, "html_attributions": ["<a href=\"https://maps.google.com/maps/contrib/116249056774191406178\">Emshad Hussein</a>"], "photo_reference": "Aap_uEDEZgupFhhRzw-MqLrO8B5AYAU0pe8sGyC9i78VXaT-LRbY3ncd97SGNuy3cFJytcueZ5M8o1iHkiOfhKq54XpHaxpyAdvDJHDKrcSV5AhMi2LML4kuUoSuZ_05jfjcAzYIXeesq5REWzMbUBEcNhjfnbsPqDCGVWpT_qate3zr794o", "width": 598}], "place_id": "ChIJ2esbX39HnjkRb5uz6Cq0Y4E", "reference": "ChIJ2esbX39HnjkRb5uz6Cq0Y4E", "scope": "GOOGLE", "types": ["school", "point_of_interest", "establishment"], "vicinity": "7RFG+XGQ, Laluwa Mau"}, {"business_status": "OPERATIONAL", "geometry": {"location": {"lat": 27.27304659999999, "lng": 79.8265924}, "viewport": {"northeast": {"lat": 27.2743805802915, "lng": 79.8279307802915}, "southwest": {"lat": 27.2716826197085, "lng": 79.82523281970848}}}, "icon": "https://maps.gstatic.com/mapfiles/place_api/icons/v1/png_71/school-71.png", "icon_background_color": "#7B9EB0", "icon_mask_base_uri": "https://maps.gstatic.com/mapfiles/place_api/icons/v2/school_pinlet", "name": "Kanya Prathmik Vidyalay Laluamau", "place_id": "ChIJgSA4d-lHnjkRCcb3AAb_frg", "reference": "ChIJgSA4d-lHnjkRCcb3AAb_frg", "scope": "GOOGLE", "types": ["school", "point_of_interest", "establishment"], "vicinity": "7RFG+6J8, Laluwa Mau"}, {"business_status": "OPERATIONAL", "geometry": {"location": {"lat": 27.27290769999999, "lng": 79.826469}, "viewport": {"northeast": {"lat": 27.2743371302915, "lng": 79.8278745302915}, "southwest": {"lat": 27.2716391697085, "lng": 79.82517656970849}}}, "icon": "https://maps.gstatic.com/mapfiles/place_api/icons/v1/png_71/school-71.png", "icon_background_color": "#7B9EB0", "icon_mask_base_uri": "https://maps.gstatic.com/mapfiles/place_api/icons/v2/school_pinlet", "name": "Prathmik Vidyalaya Laluwamau 2", "place_id": "ChIJty0yJKtGnjkRmCjUEEgQhXg", "rating": 1, "reference": "ChIJty0yJKtGnjkRmCjUEEgQhXg", "scope": "GOOGLE", "types": ["school", "point_of_interest", "establishment"], "user_ratings_total": 1, "vicinity": "7RFG+5H9, Laluwa Mau"}], "status": "OK"}