{"html_attributions": [], "results": [{"business_status": "OPERATIONAL", "geometry": {"location": {"lat": 27.5480504, "lng": 79.6887486}, "viewport": {"northeast": {"lat": 27.5493978802915, "lng": 79.69006673029149}, "southwest": {"lat": 27.54669991970849, "lng": 79.68736876970848}}}, "icon": "https://maps.gstatic.com/mapfiles/place_api/icons/v1/png_71/school-71.png", "icon_background_color": "#7B9EB0", "icon_mask_base_uri": "https://maps.gstatic.com/mapfiles/place_api/icons/v2/school_pinlet", "name": "Fal ki thaili", "photos": [{"height": 4160, "html_attributions": ["<a href=\"https://maps.google.com/maps/contrib/110168163005378201440\">HARSH THAKUR</a>"], "photo_reference": "Aap_uEDDyN4bYR7FXNwl9VMaVZlb8sEsLeuTcfcTW8gKqRcfAqrth22bu9JMcDbYfzYmE3_I4NklsT8HrEzs1jN8fsXP3bYb9m7ZsbCUF7tRGUwR-cT9V3V3Mzc83d9OJ0RanAKiq7UBy2kYTWONXpHbtF0UazIsVaxsCtBf_kqlCoUVNxDZ", "width": 1952}], "place_id": "ChIJZ5VHQ7PLnzkR3mQXNfwnSHA", "plus_code": {"compound_code": "GMXQ+6F Allaganj, Uttar Pradesh, India", "global_code": "7JVXGMXQ+6F"}, "rating": 4, "reference": "ChIJZ5VHQ7PLnzkR3mQXNfwnSHA", "scope": "GOOGLE", "types": ["school", "point_of_interest", "establishment"], "user_ratings_total": 1, "vicinity": "State Highway 29, Allaganj"}, {"business_status": "OPERATIONAL", "geometry": {"location": {"lat": 27.5484932, "lng": 79.6888759}, "viewport": {"northeast": {"lat": 27.5498282802915, "lng": 79.6902346302915}, "southwest": {"lat": 27.5471303197085, "lng": 79.68753666970849}}}, "icon": "https://maps.gstatic.com/mapfiles/place_api/icons/v1/png_71/school-71.png", "icon_background_color": "#7B9EB0", "icon_mask_base_uri": "https://maps.gstatic.com/mapfiles/place_api/icons/v2/school_pinlet", "name": "Safi mobile shop", "place_id": "ChIJw-ZZMBfLnzkR9TtjapwghSI", "rating": 3, "reference": "ChIJw-ZZMBfLnzkR9TtjapwghSI", "scope": "GOOGLE", "types": ["secondary_school", "school", "point_of_interest", "establishment"], "user_ratings_total": 1, "vicinity": "GMXQ+9HR, Allaganj"}, {"business_status": "OPERATIONAL", "geometry": {"location": {"lat": 27.548565, "lng": 79.68887339999999}, "viewport": {"northeast": {"lat": 27.5499102302915, "lng": 79.69012488029149}, "southwest": {"lat": 27.5472122697085, "lng": 79.68742691970849}}}, "icon": "https://maps.gstatic.com/mapfiles/place_api/icons/v1/png_71/school-71.png", "icon_background_color": "#7B9EB0", "icon_mask_base_uri": "https://maps.gstatic.com/mapfiles/place_api/icons/v2/school_pinlet", "name": "\u0938\u092b\u0940 \u092e\u094b\u092c\u093e\u0907\u0932 \u0936\u0949\u092a", "place_id": "ChIJbRsC51nLnzkRhcvHDq7MzpA", "plus_code": {"compound_code": "GMXQ+CG Allaganj, Uttar Pradesh, India", "global_code": "7JVXGMXQ+CG"}, "reference": "ChIJbRsC51nLnzkRhcvHDq7MzpA", "scope": "GOOGLE", "types": ["secondary_school", "school", "point_of_interest", "establishment"], "vicinity": "Sultanpur - Kurari Road, Allaganj"}, {"business_status": "OPERATIONAL", "geometry": {"location": {"lat": 27.543322, "lng": 79.694899}, "viewport": {"northeast": {"lat": 27.5445559802915, "lng": 79.6959590302915}, "southwest": {"lat": 27.5418580197085, "lng": 79.6932610697085}}}, "icon": "https://maps.gstatic.com/mapfiles/place_api/icons/v1/png_71/school-71.png", "icon_background_color": "#7B9EB0", "icon_mask_base_uri": "https://maps.gstatic.com/mapfiles/place_api/icons/v2/school_pinlet", "name": "sarvjan hitaye vidya niketan", "place_id": "ChIJoUQugyrLnzkRBZWXR5equKE", "plus_code": {"compound_code": "GMVV+8X Islamganj, Uttar Pradesh, India", "global_code": "7JVXGMVV+8X"}, "rating": 3.5, "reference": "ChIJoUQugyrLnzkRBZWXR5equKE", "scope": "GOOGLE", "types": ["school", "point_of_interest", "establishment"], "user_ratings_total": 2, "vicinity": "India"}, {"business_status": "OPERATIONAL", "geometry": {"location": {"lat": 27.5493115, "lng": 79.68725669999999}, "viewport": {"northeast": {"lat": 27.5507478302915, "lng": 79.6892366302915}, "southwest": {"lat": 27.5480498697085, "lng": 79.68653866970848}}}, "icon": "https://maps.gstatic.com/mapfiles/place_api/icons/v1/png_71/school-71.png", "icon_background_color": "#7B9EB0", "icon_mask_base_uri": "https://maps.gstatic.com/mapfiles/place_api/icons/v2/school_pinlet", "name": "Bahid Shah Ki Dargeh Maksood Nibas", "photos": [{"height": 1148, "html_attributions": ["<a href=\"https://maps.google.com/maps/contrib/102107404247661676768\">Sameer Ali</a>"], "photo_reference": "Aap_uEBOM3E1ZH8Ei4m2LiCF0YK4GUPhPF4eSn5EAYjbEJ3o3OF_VROp0trSpQE4EyAXyyEalqkBaIrbut4gcQ-yN-nMhecGpr_g8-NbJj60IlKWIL_mXbGCFZKJJmQ30VKd3axdjXHIjU_cCpawaH2UilYpkZFLrYFXcswOavqA0gtR6QM6", "width": 644}], "place_id": "ChIJg5efY9_LnzkRC0ZWzmVs5BU", "reference": "ChIJg5efY9_LnzkRC0ZWzmVs5BU", "scope": "GOOGLE", "types": ["school", "point_of_interest", "establishment"], "vicinity": "GMXP+PWC, Allaganj"}, {"business_status": "OPERATIONAL", "geometry": {"location": {"lat": 27.5487442, "lng": 79.6902728}, "viewport": {"northeast": {"lat": 27.5500670302915, "lng": 79.6916282802915}, "southwest": {"lat": 27.5473690697085, "lng": 79.68893031970849}}}, "icon": "https://maps.gstatic.com/mapfiles/place_api/icons/v1/png_71/school-71.png", "icon_background_color": "#7B9EB0", "icon_mask_base_uri": "https://maps.gstatic.com/mapfiles/place_api/icons/v2/school_pinlet", "name": "Kasba mode", "place_id": "ChIJV1MUnv_LnzkRQ6a8Lt_HJ-w", "reference": "ChIJV1MUnv_LnzkRQ6a8Lt_HJ-w", "scope": "GOOGLE", "types": ["school", "point_of_interest", "establishment"], "vicinity": "GMXR+F4R, Allaganj"}, {"business_status": "OPERATIONAL", "geometry": {"location": {"lat": 27.549301, "lng": 79.6930902}, "viewport": {"northeast": {"lat": 27.5506381302915, "lng": 79.6944238802915}, "southwest": {"lat": 27.5479401697085, "lng": 79.69172591970849}}}, "icon": "https://maps.gstatic.com/mapfiles/place_api/icons/v1/png_71/school-71.png", "icon_background_color": "#7B9EB0", "icon_mask_base_uri": "https://maps.gstatic.com/mapfiles/place_api/icons/v2/school_pinlet", "name": "New Great Scholars Inter College", "photos": [{"height": 960, "html_attributions": ["<a href=\"https://maps.google.com/maps/contrib/112392192008634279363\">anshul mishra</a>"], "photo_reference": "Aap_uECQcffClZHZL_k1DwokWXPQR82hEyWXJq53aFFvgPfHWDKspmwd_9xZHDjikGxZfPReOBtRDarjNDwjzpQ4wHgrEfjOH1XvM4oAQfuIuyV2QRicPgzzCdAmDwFdwf0PP0Mi_7HotLVEyKCu-xM_p2WHLld94a1IpqOV6MPL9oiUM3mQ", "width": 720}], "place_id": "ChIJBVnzsSnLnzkR6r-ofJ9vvFE", "plus_code": {"compound_code": "GMXV+P6 Allaganj, Uttar Pradesh, India", "global_code": "7JVXGMXV+P6"}, "rating": 5, "reference": "ChIJBVnzsSnLnzkR6r-ofJ9vvFE", "scope": "GOOGLE", "types": ["school", "point_of_interest", "establishment"], "user_ratings_total": 2, "vicinity": "Allahaganj, Allaganj"}, {"business_status": "CLOSED_TEMPORARILY", "geometry": {"location": {"lat": 27.5512864, "lng": 79.6872882}, "viewport": {"northeast": {"lat": 27.55270073029151, "lng": 79.68905938029152}, "southwest": {"lat": 27.5500027697085, "lng": 79.6863614197085}}}, "icon": "https://maps.gstatic.com/mapfiles/place_api/icons/v1/png_71/school-71.png", "icon_background_color": "#7B9EB0", "icon_mask_base_uri": "https://maps.gstatic.com/mapfiles/place_api/icons/v2/school_pinlet", "name": "Sushila Devi Junior High School", "permanently_closed": true, "photos": [{"height": 960, "html_attributions": ["<a href=\"https://maps.google.com/maps/contrib/102804527556268960894\">Sushila Devi Junior High School</a>"], "photo_reference": "Aap_uEDufvmKnSJAbDD1zmu24o4rfGeHgXORz2KB28ZnXAtOQnJsa0gOZBJuwJgo4hhsdcJBy_CBcDEO7t2RFUOmg2OwpwK3DMSHU0OyFI_dQNN2Jjj3fOehxgwZxARgPzToiuAYMY6Mfd-c3iPrLlNiAQRXfxDJ70vIvdsmrf7WSApL4pG5", "width": 1280}], "place_id": "ChIJydpIcC_LnzkRhQA6G_fSuNc", "plus_code": {"compound_code": "HM2P+GW Allaganj, Uttar Pradesh, India", "global_code": "7JVXHM2P+GW"}, "rating": 5, "reference": "ChIJydpIcC_LnzkRhQA6G_fSuNc", "scope": "GOOGLE", "types": ["school", "point_of_interest", "establishment"], "user_ratings_total": 1, "vicinity": "Allaganj"}, {"business_status": "OPERATIONAL", "geometry": {"location": {"lat": 27.55098319999999, "lng": 79.6900975}, "viewport": {"northeast": {"lat": 27.5523392302915, "lng": 79.69142878029152}, "southwest": {"lat": 27.54964126970849, "lng": 79.6887308197085}}}, "icon": "https://maps.gstatic.com/mapfiles/place_api/icons/v1/png_71/school-71.png", "icon_background_color": "#7B9EB0", "icon_mask_base_uri": "https://maps.gstatic.com/mapfiles/place_api/icons/v2/school_pinlet", "name": "M N S MONTESSORI SCHOOL", "photos": [{"height": 1600, "html_attributions": ["<a href=\"https://maps.google.com/maps/contrib/100994731811873877747\">SADIGI IS SWEET</a>"], "photo_reference": "Aap_uECEJFX9qWI0Q20n5wb3SSfbEEjysKbuGF1Tg249z2CVCW12SwdQsJAIR1FRC7kwv0O7-lLUpSLGmNTfUpc6GI90Y69DYqxcJNLuLqwyxmsAwnPoHUdbrV4T2Mpnt_g7gLOTfWzQlX7tNfquV90JAbpbpJi92ud5jIuYSqtyWwFlt5zj", "width": 1200}], "place_id": "ChIJN9Pt34TLnzkRIjiCV8qbYAw", "plus_code": {"compound_code": "HM2R+92 Allaganj, Uttar Pradesh, India", "global_code": "7JVXHM2R+92"}, "rating": 4, "reference": "ChIJN9Pt34TLnzkRIjiCV8qbYAw", "scope": "GOOGLE", "types": ["school", "point_of_interest", "establishment"], "user_ratings_total": 2, "vicinity": "ISLAMGANJ, ROAD, Allaganj"}, {"business_status": "OPERATIONAL", "geometry": {"location": {"lat": 27.54949, "lng": 79.6936186}, "viewport": {"northeast": {"lat": 27.5506817802915, "lng": 79.69507233029151}, "southwest": {"lat": 27.5479838197085, "lng": 79.69237436970849}}}, "icon": "https://maps.gstatic.com/mapfiles/place_api/icons/v1/png_71/school-71.png", "icon_background_color": "#7B9EB0", "icon_mask_base_uri": "https://maps.gstatic.com/mapfiles/place_api/icons/v2/school_pinlet", "name": "NGS Degree College", "photos": [{"height": 960, "html_attributions": ["<a href=\"https://maps.google.com/maps/contrib/112392192008634279363\">anshul mishra</a>"], "photo_reference": "Aap_uEBOUsi8b3Y-tqX8Dh7iGzD6hw9HfX4ijT-lXWb55vgvMYIIKq9qPvxHSDleb11iMMeMCu0k1TUH_txr5iu559Nlv8Xk3otiquvZRKPCy_cyLeXf5bE0VXAJ3y4bvOAwzdFMWV8-b_3ri5qgyUUFXaxyHea2e52I_fjS8Od0fx9WM3iP", "width": 1280}], "place_id": "ChIJqX69tSnLnzkRF063yUF5u9w", "rating": 5, "reference": "ChIJqX69tSnLnzkRF063yUF5u9w", "scope": "GOOGLE", "types": ["school", "point_of_interest", "establishment"], "user_ratings_total": 4, "vicinity": "GMXV+QCX, Shahjahanpur"}, {"business_status": "OPERATIONAL", "geometry": {"location": {"lat": 27.5516541, "lng": 79.68638059999999}, "viewport": {"northeast": {"lat": 27.5531939802915, "lng": 79.68717874999997}, "southwest": {"lat": 27.5504960197085, "lng": 79.68398615000001}}}, "icon": "https://maps.gstatic.com/mapfiles/place_api/icons/v1/png_71/school-71.png", "icon_background_color": "#7B9EB0", "icon_mask_base_uri": "https://maps.gstatic.com/mapfiles/place_api/icons/v2/school_pinlet", "name": "S V Inter College", "photos": [{"height": 1280, "html_attributions": ["<a href=\"https://maps.google.com/maps/contrib/112392192008634279363\">anshul mishra</a>"], "photo_reference": "Aap_uECJknbe7WkkhGucnpD93uHo9MNpEzdBLhBS0ZjbmtLqzRVmsAdImbSVMRv-xxnrqVJX2lfDV6FQaKcy3MDx43nIKsAV_-dLNvK5ttXYswAXLbtQgnS8aB3MPoQxVqNyz83A431n505WSEH-xjPO4sZ5Llmfr6HjnF0C1tPhVj0sQgEt", "width": 960}], "place_id": "ChIJnyXten7LnzkRpce0M4hRpyE", "rating": 3.5, "reference": "ChIJnyXten7LnzkRpce0M4hRpyE", "scope": "GOOGLE", "types": ["school", "point_of_interest", "establishment"], "user_ratings_total": 2, "vicinity": "HM2P+MH6, Allaganj"}, {"business_status": "OPERATIONAL", "geometry": {"location": {"lat": 27.5321225, "lng": 79.6862167}, "viewport": {"northeast": {"lat": 27.53348033029151, "lng": 79.6874291802915}, "southwest": {"lat": 27.5307823697085, "lng": 79.6847312197085}}}, "icon": "https://maps.gstatic.com/mapfiles/place_api/icons/v1/png_71/school-71.png", "icon_background_color": "#7B9EB0", "icon_mask_base_uri": "https://maps.gstatic.com/mapfiles/place_api/icons/v2/school_pinlet", "name": "Mangali Prasad J. H. School Sahabganj", "opening_hours": {"open_now": false}, "photos": [{"height": 478, "html_attributions": ["<a href=\"https://maps.google.com/maps/contrib/117415156529148179406\">Mangali Prasad J. H. School Sahabganj</a>"], "photo_reference": "Aap_uEAY_pkj22_56l3rWLMngZ_zPVlueLoB0BjaN0il0TKXSGgUejFE04_NML1gEAMUpOIN8rZ_y1frYqdkqOietuTGqn8mO5VI5APwwLsl_NQBQJfnUFGz2sC8MYECcRHDc3M6-fDnzQXmtEcFluTIesTuVqaNyxERlnWE4EVqdmQ2g2vJ", "width": 853}], "place_id": "ChIJ____PzTLnzkRCETNPez5bJI", "plus_code": {"compound_code": "GMJP+RF Sahabganj, Uttar Pradesh, India", "global_code": "7JVXGMJP+RF"}, "reference": "ChIJ____PzTLnzkRCETNPez5bJI", "scope": "GOOGLE", "types": ["school", "point_of_interest", "establishment"], "vicinity": "MDR 26C, Sahabganj"}, {"business_status": "OPERATIONAL", "geometry": {"location": {"lat": 27.5482261, "lng": 79.69668570000002}, "viewport": {"northeast": {"lat": 27.5496584802915, "lng": 79.69807723029152}, "southwest": {"lat": 27.5469605197085, "lng": 79.69537926970851}}}, "icon": "https://maps.gstatic.com/mapfiles/place_api/icons/v1/png_71/school-71.png", "icon_background_color": "#7B9EB0", "icon_mask_base_uri": "https://maps.gstatic.com/mapfiles/place_api/icons/v2/school_pinlet", "name": "\u092a\u0930\u093f\u0937\u0926\u0940\u092f \u092a\u0942\u0930\u094d\u0935 \u092e\u093e\u0927\u094d\u092f\u092e\u093f\u0915 \u0935\u093f\u0926\u094d\u092f\u093e\u0932\u092f \u0907\u0938\u094d\u0932\u093e\u092e\u0917\u0902\u091c", "photos": [{"height": 1040, "html_attributions": ["<a href=\"https://maps.google.com/maps/contrib/106679180743179162473\">KC Study Classes</a>"], "photo_reference": "Aap_uEA2mrsfGg1Lul_U5AXQ4oPuw2LNhFbVB-LefBISkzOKWwr2c9WbKyrV24tEDSKtuxCQk-nGyS2aMtD7M0LklyrwMwLWUAm5fgW1C2P96HbPs4VIwZbu-_p-gZFFLFFzO7WNogGF0fYm5LXmkzqnGIbdSFJ3UYNlnMgX5YKrm6C7b-jf", "width": 780}], "place_id": "ChIJQw_CjeTLnzkRKU3sg4TD0LI", "reference": "ChIJQw_CjeTLnzkRKU3sg4TD0LI", "scope": "GOOGLE", "types": ["school", "point_of_interest", "establishment"], "vicinity": "GMXW+7MV, Islamganj"}, {"business_status": "OPERATIONAL", "geometry": {"location": {"lat": 27.54829479999999, "lng": 79.6968429}, "viewport": {"northeast": {"lat": 27.5496928302915, "lng": 79.6981288802915}, "southwest": {"lat": 27.54699486970849, "lng": 79.69543091970849}}}, "icon": "https://maps.gstatic.com/mapfiles/place_api/icons/v1/png_71/school-71.png", "icon_background_color": "#7B9EB0", "icon_mask_base_uri": "https://maps.gstatic.com/mapfiles/place_api/icons/v2/school_pinlet", "name": "\u0909\u091a\u094d\u091a \u092a\u094d\u0930\u093e\u0925\u092e\u093f\u0915 \u0935\u093f\u0926\u094d\u092f\u093e\u0932\u092f \u0907\u0938\u094d\u0932\u093e\u092e\u0917\u0902\u091c \u0905\u0932\u094d\u0932\u093e\u0939\u0917\u0902\u091c", "place_id": "ChIJ8d_VDHPLnzkRWOSQzSPAdWM", "reference": "ChIJ8d_VDHPLnzkRWOSQzSPAdWM", "scope": "GOOGLE", "types": ["school", "point_of_interest", "establishment"], "vicinity": "GMXW+8P8, Islamganj"}, {"business_status": "OPERATIONAL", "geometry": {"location": {"lat": 27.5484505, "lng": 79.69678259999999}, "viewport": {"northeast": {"lat": 27.5497903802915, "lng": 79.69811963029152}, "southwest": {"lat": 27.5470924197085, "lng": 79.6954216697085}}}, "icon": "https://maps.gstatic.com/mapfiles/place_api/icons/v1/png_71/school-71.png", "icon_background_color": "#7B9EB0", "icon_mask_base_uri": "https://maps.gstatic.com/mapfiles/place_api/icons/v2/school_pinlet", "name": "Parishadiya purva madhyamik vidhyalaya", "place_id": "ChIJp8G4UijLnzkR_nSbkRH4ztw", "rating": 5, "reference": "ChIJp8G4UijLnzkR_nSbkRH4ztw", "scope": "GOOGLE", "types": ["school", "point_of_interest", "establishment"], "user_ratings_total": 2, "vicinity": "GMXW+9PM, Islamganj"}, {"business_status": "OPERATIONAL", "geometry": {"location": {"lat": 27.5523419, "lng": 79.6912589}, "viewport": {"northeast": {"lat": 27.5537025302915, "lng": 79.6924593802915}, "southwest": {"lat": 27.5510045697085, "lng": 79.68976141970849}}}, "icon": "https://maps.gstatic.com/mapfiles/place_api/icons/v1/png_71/school-71.png", "icon_background_color": "#7B9EB0", "icon_mask_base_uri": "https://maps.gstatic.com/mapfiles/place_api/icons/v2/school_pinlet", "name": "Sabiri hose", "place_id": "ChIJvSRRVafLnzkRlMf5-qCfFo0", "reference": "ChIJvSRRVafLnzkRlMf5-qCfFo0", "scope": "GOOGLE", "types": ["school", "point_of_interest", "establishment"], "vicinity": "HM2R+WGJ, Allaganj"}], "status": "OK"}