{"html_attributions": [], "results": [{"business_status": "OPERATIONAL", "geometry": {"location": {"lat": 27.63703709999999, "lng": 79.843808}, "viewport": {"northeast": {"lat": 27.6382155302915, "lng": 79.84511168029151}, "southwest": {"lat": 27.63551756970849, "lng": 79.8424137197085}}}, "icon": "https://maps.gstatic.com/mapfiles/place_api/icons/v1/png_71/school-71.png", "icon_background_color": "#7B9EB0", "icon_mask_base_uri": "https://maps.gstatic.com/mapfiles/place_api/icons/v2/school_pinlet", "name": "CHOUHAN JANSEVA KENDRA", "place_id": "ChIJlfXbmZOznzkR_VRbVc9-y1g", "reference": "ChIJlfXbmZOznzkR_VRbVc9-y1g", "scope": "GOOGLE", "types": ["school", "point_of_interest", "establishment"], "vicinity": "JRPV+RG7, Kundi"}, {"business_status": "OPERATIONAL", "geometry": {"location": {"lat": 27.6361147, "lng": 79.8449284}, "viewport": {"northeast": {"lat": 27.63761868029151, "lng": 79.8463196802915}, "southwest": {"lat": 27.6349207197085, "lng": 79.8436217197085}}}, "icon": "https://maps.gstatic.com/mapfiles/place_api/icons/v1/png_71/school-71.png", "icon_background_color": "#7B9EB0", "icon_mask_base_uri": "https://maps.gstatic.com/mapfiles/place_api/icons/v2/school_pinlet", "name": "H P S I C Bhuapur Kund Hardo", "place_id": "ChIJzcsLafyznzkRKwrvoHUmMeA", "plus_code": {"compound_code": "JRPV+CX Kundi, Uttar Pradesh, India", "global_code": "7JVXJRPV+CX"}, "reference": "ChIJzcsLafyznzkRKwrvoHUmMeA", "scope": "GOOGLE", "types": ["school", "point_of_interest", "establishment"], "vicinity": "Vasit Nagar Road, Kundi"}, {"business_status": "OPERATIONAL", "geometry": {"location": {"lat": 27.6359627, "lng": 79.8574797}, "viewport": {"northeast": {"lat": 27.6373383302915, "lng": 79.8587936802915}, "southwest": {"lat": 27.6346403697085, "lng": 79.85609571970848}}}, "icon": "https://maps.gstatic.com/mapfiles/place_api/icons/v1/png_71/school-71.png", "icon_background_color": "#7B9EB0", "icon_mask_base_uri": "https://maps.gstatic.com/mapfiles/place_api/icons/v2/school_pinlet", "name": "P.S Pipariya", "opening_hours": {"open_now": false}, "place_id": "ChIJe7ktAaSznzkRhIBtY97Rrtg", "plus_code": {"compound_code": "JVP4+9X Nasa, Uttar Pradesh, India", "global_code": "7JVXJVP4+9X"}, "rating": 5, "reference": "ChIJe7ktAaSznzkRhIBtY97Rrtg", "scope": "GOOGLE", "types": ["primary_school", "school", "point_of_interest", "establishment"], "user_ratings_total": 2, "vicinity": "Vasit Nagar Road, Nasa"}], "status": "OK"}