{"html_attributions": [], "results": [{"business_status": "OPERATIONAL", "geometry": {"location": {"lat": 27.0408078, "lng": 79.8645913}, "viewport": {"northeast": {"lat": 27.04215598029151, "lng": 79.8658870802915}, "southwest": {"lat": 27.0394580197085, "lng": 79.8631891197085}}}, "icon": "https://maps.gstatic.com/mapfiles/place_api/icons/v1/png_71/school-71.png", "icon_background_color": "#7B9EB0", "icon_mask_base_uri": "https://maps.gstatic.com/mapfiles/place_api/icons/v2/school_pinlet", "name": "M. Y Rahmaniya Inter College Farikapur Kannauj", "opening_hours": {"open_now": false}, "photos": [{"height": 3264, "html_attributions": ["<a href=\"https://maps.google.com/maps/contrib/104175697554028429634\">Tanveer Tanveer</a>"], "photo_reference": "Aap_uEBdT5ViHRBnA3Daif0HhgQdkK-vNUF46T30kOBJmE9A-wV4py7EkU2qGmrJHx1VxzvILXUbvJD3Ek7D4VkO2WDUecVhunVNtm4pkdkwq6zJkK5sgKH6k7nYzL7sXYam-xvixVb64qMSujMqyV0d-phy3yvImeUyJanqpv05_R9VsCfV", "width": 1836}], "place_id": "ChIJ78bcBKNvnjkRDFHgUMsHbUE", "rating": 4.3, "reference": "ChIJ78bcBKNvnjkRDFHgUMsHbUE", "scope": "GOOGLE", "types": ["school", "point_of_interest", "establishment"], "user_ratings_total": 11, "vicinity": "2VR7+8RG, Farikapur"}, {"business_status": "OPERATIONAL", "geometry": {"location": {"lat": 27.0390931, "lng": 79.863569}, "viewport": {"northeast": {"lat": 27.04043953029151, "lng": 79.8650114302915}, "southwest": {"lat": 27.0377415697085, "lng": 79.8623134697085}}}, "icon": "https://maps.gstatic.com/mapfiles/place_api/icons/v1/png_71/school-71.png", "icon_background_color": "#7B9EB0", "icon_mask_base_uri": "https://maps.gstatic.com/mapfiles/place_api/icons/v2/school_pinlet", "name": "Jama Masjid", "photos": [{"height": 4000, "html_attributions": ["<a href=\"https://maps.google.com/maps/contrib/110100036039869775226\">Sh Khan</a>"], "photo_reference": "Aap_uEAeT3UqXxUr03sL3zQmHNbBH2QHQUc5l0g771lNsZPq1mUd7gkx3ucGEdQF-tFLtNDAnOiJX97yLbsPBh2BDtMycqqOGMXVl4BZgY_2ShPksVf2zpywRakJzfhlqZ1huVvkOECcKytJas0iPIJZ_pACvjRVUTaR_cTxuRbdFxCkItjB", "width": 3000}], "place_id": "ChIJEcqLbNNvnjkRZRmUsTNFlRc", "rating": 3, "reference": "ChIJEcqLbNNvnjkRZRmUsTNFlRc", "scope": "GOOGLE", "types": ["school", "point_of_interest", "establishment"], "user_ratings_total": 2, "vicinity": "2VQ7+JCP, Farikapur"}, {"business_status": "OPERATIONAL", "geometry": {"location": {"lat": 27.0469796, "lng": 79.86480259999999}, "viewport": {"northeast": {"lat": 27.04840663029151, "lng": 79.8661027802915}, "southwest": {"lat": 27.0457086697085, "lng": 79.86340481970849}}}, "icon": "https://maps.gstatic.com/mapfiles/place_api/icons/v1/png_71/school-71.png", "icon_background_color": "#7B9EB0", "icon_mask_base_uri": "https://maps.gstatic.com/mapfiles/place_api/icons/v2/school_pinlet", "name": "Government school", "photos": [{"height": 4160, "html_attributions": ["<a href=\"https://maps.google.com/maps/contrib/112412999585291746028\">rD Gmail</a>"], "photo_reference": "Aap_uEBUBoSy3dBPLNbAl25bX3brXfqW4P69NMwBNoRPACaTlZdbbmx3rQHIGXpeWrRhhFhqd8Z5TEAcgYmdZEu-gUaUM9wWDVQfRKHujZHudDeK4MtZbB8XDFiGqsVOqK8hFSn88ctwVO0jiawQSWTLhL9WUzYsahhmp3sbk-D-hi8AubTv", "width": 3120}], "place_id": "ChIJfW_j511vnjkRNvVMgyzI-F8", "rating": 3, "reference": "ChIJfW_j511vnjkRNvVMgyzI-F8", "scope": "GOOGLE", "types": ["school", "point_of_interest", "establishment"], "user_ratings_total": 2, "vicinity": "2VW7+QWV, Ghamaichmau"}, {"business_status": "OPERATIONAL", "geometry": {"location": {"lat": 27.0480066, "lng": 79.8661597}, "viewport": {"northeast": {"lat": 27.0493233302915, "lng": 79.86749143029151}, "southwest": {"lat": 27.0466253697085, "lng": 79.86479346970849}}}, "icon": "https://maps.gstatic.com/mapfiles/place_api/icons/v1/png_71/school-71.png", "icon_background_color": "#7B9EB0", "icon_mask_base_uri": "https://maps.gstatic.com/mapfiles/place_api/icons/v2/school_pinlet", "name": "Ateekur Rahman", "place_id": "ChIJFaZGDzJvnjkRG1p7rIjZGSc", "reference": "ChIJFaZGDzJvnjkRG1p7rIjZGSc", "scope": "GOOGLE", "types": ["secondary_school", "school", "point_of_interest", "establishment"], "vicinity": "2VX8+6F3, Ghamaichmau"}, {"business_status": "OPERATIONAL", "geometry": {"location": {"lat": 27.0495034, "lng": 79.8637251}, "viewport": {"northeast": {"lat": 27.0508546802915, "lng": 79.8650288802915}, "southwest": {"lat": 27.0481567197085, "lng": 79.8623309197085}}}, "icon": "https://maps.gstatic.com/mapfiles/place_api/icons/v1/png_71/school-71.png", "icon_background_color": "#7B9EB0", "icon_mask_base_uri": "https://maps.gstatic.com/mapfiles/place_api/icons/v2/school_pinlet", "name": "Masjid ahle hadith Ghamachmau", "photos": [{"height": 1920, "html_attributions": ["<a href=\"https://maps.google.com/maps/contrib/100537861009202086781\">Nazim khan Khan</a>"], "photo_reference": "Aap_uED89Xt9L1KMk-nHmcIn4NJzGckYpNuOaH3zeNnuvyEQoHdZo6EUPe0YB00KeSZVZLXuRvTH6FuDC3cJSZeUeMXMt3nzi_jdAgY_V7bkgedHEV_UYdD9KOnP6iRGzsKgKx-8zvfaCHHRsS27Dl43elzGC_SXfY2vut_nN7jObyoPBar3", "width": 1080}], "place_id": "ChIJvQYlM-9vnjkRaFYxh3fWv1M", "rating": 4, "reference": "ChIJvQYlM-9vnjkRaFYxh3fWv1M", "scope": "GOOGLE", "types": ["school", "point_of_interest", "establishment"], "user_ratings_total": 2, "vicinity": "2VX7+RF5, Ghamaichmau"}, {"business_status": "OPERATIONAL", "geometry": {"location": {"lat": 27.0491298, "lng": 79.8618833}, "viewport": {"northeast": {"lat": 27.0504811302915, "lng": 79.8632269302915}, "southwest": {"lat": 27.0477831697085, "lng": 79.8605289697085}}}, "icon": "https://maps.gstatic.com/mapfiles/place_api/icons/v1/png_71/school-71.png", "icon_background_color": "#7B9EB0", "icon_mask_base_uri": "https://maps.gstatic.com/mapfiles/place_api/icons/v2/school_pinlet", "name": "DAS EDUCATION CENTRE", "opening_hours": {"open_now": false}, "place_id": "ChIJzatvn4ZvnjkRVAIzApD9BXM", "plus_code": {"compound_code": "2VX6+MQ Ghamaichmau, Uttar Pradesh, India", "global_code": "7JVX2VX6+MQ"}, "reference": "ChIJzatvn4ZvnjkRVAIzApD9BXM", "scope": "GOOGLE", "types": ["school", "point_of_interest", "establishment"], "vicinity": "near Alam Cold Storage, Sandohan purwa road, near Alam Cold Storage, Ghamaichmau"}, {"business_status": "OPERATIONAL", "geometry": {"location": {"lat": 27.0499941, "lng": 79.8630141}, "viewport": {"northeast": {"lat": 27.0512862802915, "lng": 79.8644546302915}, "southwest": {"lat": 27.0485883197085, "lng": 79.8617566697085}}}, "icon": "https://maps.gstatic.com/mapfiles/place_api/icons/v1/png_71/school-71.png", "icon_background_color": "#7B9EB0", "icon_mask_base_uri": "https://maps.gstatic.com/mapfiles/place_api/icons/v2/school_pinlet", "name": "Saban Khan", "place_id": "ChIJu-N0H-pvnjkR6yc6RZizFvY", "reference": "ChIJu-N0H-pvnjkR6yc6RZizFvY", "scope": "GOOGLE", "types": ["school", "point_of_interest", "establishment"], "vicinity": "2VX7+X6R, Ghamaichmau"}, {"business_status": "OPERATIONAL", "geometry": {"location": {"lat": 27.0503978, "lng": 79.8638627}, "viewport": {"northeast": {"lat": 27.05175828029151, "lng": 79.8652117802915}, "southwest": {"lat": 27.0490603197085, "lng": 79.86251381970848}}}, "icon": "https://maps.gstatic.com/mapfiles/place_api/icons/v1/png_71/school-71.png", "icon_background_color": "#7B9EB0", "icon_mask_base_uri": "https://maps.gstatic.com/mapfiles/place_api/icons/v2/school_pinlet", "name": "DAS EDUCATION CENTRE", "opening_hours": {"open_now": false}, "photos": [{"height": 1080, "html_attributions": ["<a href=\"https://maps.google.com/maps/contrib/105635037162125830783\">SAHIBE ALAM</a>"], "photo_reference": "Aap_uEDDb8QjeaOpx14anrXPxvLGtmyDHnp9PqKoTwZz2KJHdVmoN_kAlO8rRB4Vni3fVMb0s9bmTva_leFAauwdUfV-MBeX-jilM8o3yQM8q84rLTDMvT_w00QXCu8v3b7uBIYe1K0f6COklX67znaHYOlJIq6QBMaZ431AsRXt84oQKbDM", "width": 1920}], "place_id": "ChIJmb7xDv1vnjkREx-JmavvDCg", "reference": "ChIJmb7xDv1vnjkREx-JmavvDCg", "scope": "GOOGLE", "types": ["school", "point_of_interest", "establishment"], "vicinity": "3V27+5G5, Ghamaichmau"}], "status": "OK"}