{"html_attributions": [], "results": [{"business_status": "OPERATIONAL", "geometry": {"location": {"lat": 27.0772222, "lng": 79.8635985}, "viewport": {"northeast": {"lat": 27.0785913302915, "lng": 79.8650503802915}, "southwest": {"lat": 27.0758933697085, "lng": 79.8623524197085}}}, "icon": "https://maps.gstatic.com/mapfiles/place_api/icons/v1/png_71/school-71.png", "icon_background_color": "#7B9EB0", "icon_mask_base_uri": "https://maps.gstatic.com/mapfiles/place_api/icons/v2/school_pinlet", "name": "\u0909\u0924\u094d\u0924\u092e \u092c\u093e\u0932 \u0935\u093f\u0926\u094d\u092f\u093e \u092e\u0902\u0926\u093f\u0930", "opening_hours": {"open_now": false}, "photos": [{"height": 1334, "html_attributions": ["<a href=\"https://maps.google.com/maps/contrib/106233886327221900793\">Uttam Dubey ag</a>"], "photo_reference": "Aap_uEAEWkNUidsxVUx9343RDFeUnpJ2pAWiN4XeW5Y6ge-vJycWyroqhcWqSweOax3oc42UJpg2mhHygvYqKK99YWiN0PPajYl5cY-RINzUJui3oDmHR8kHXuATmLf83RbDjEtQhRJ89arGFDwxUxjJWfHdUZc_LEkbJg2DkD1L4ZZ7uLSi", "width": 2360}], "place_id": "ChIJg40akgVvnjkRl9o3BU_DcPc", "plus_code": {"compound_code": "3VG7+VC Kannauj, Uttar Pradesh, India", "global_code": "7JVX3VG7+VC"}, "rating": 5, "reference": "ChIJg40akgVvnjkRl9o3BU_DcPc", "scope": "GOOGLE", "types": ["school", "point_of_interest", "establishment"], "user_ratings_total": 2, "vicinity": "Goverdhani Devi Mandir, Dubey chauraha, road, Kannauj"}, {"business_status": "OPERATIONAL", "geometry": {"location": {"lat": 27.0797677, "lng": 79.87586160000001}, "viewport": {"northeast": {"lat": 27.0811264802915, "lng": 79.87719968029151}, "southwest": {"lat": 27.0784285197085, "lng": 79.8745017197085}}}, "icon": "https://maps.gstatic.com/mapfiles/place_api/icons/v1/png_71/school-71.png", "icon_background_color": "#7B9EB0", "icon_mask_base_uri": "https://maps.gstatic.com/mapfiles/place_api/icons/v2/school_pinlet", "name": "Gautam", "place_id": "ChIJ7cSGwVBvnjkRTD9pIf3m96c", "plus_code": {"compound_code": "3VHG+W8 Bhau Khurd, Uttar Pradesh, India", "global_code": "7JVX3VHG+W8"}, "reference": "ChIJ7cSGwVBvnjkRTD9pIf3m96c", "scope": "GOOGLE", "types": ["primary_school", "school", "point_of_interest", "establishment"], "vicinity": "Unnamed Road, Bhau Khurd"}, {"business_status": "OPERATIONAL", "geometry": {"location": {"lat": 27.0717751, "lng": 79.86020649999999}, "viewport": {"northeast": {"lat": 27.0731884802915, "lng": 79.8615776302915}, "southwest": {"lat": 27.0704905197085, "lng": 79.8588796697085}}}, "icon": "https://maps.gstatic.com/mapfiles/place_api/icons/v1/png_71/school-71.png", "icon_background_color": "#7B9EB0", "icon_mask_base_uri": "https://maps.gstatic.com/mapfiles/place_api/icons/v2/school_pinlet", "name": "Ch. Vishwanath Singh Residential Inter College", "place_id": "ChIJWxCZY8RunjkRrhLCDz2VNyQ", "rating": 3.3, "reference": "ChIJWxCZY8RunjkRrhLCDz2VNyQ", "scope": "GOOGLE", "types": ["school", "point_of_interest", "establishment"], "user_ratings_total": 3, "vicinity": "3VC6+P38, Sarontop"}, {"business_status": "OPERATIONAL", "geometry": {"location": {"lat": 27.0699764, "lng": 79.86340779999999}, "viewport": {"northeast": {"lat": 27.0717311802915, "lng": 79.8648869302915}, "southwest": {"lat": 27.06903321970849, "lng": 79.8621889697085}}}, "icon": "https://maps.gstatic.com/mapfiles/place_api/icons/v1/png_71/school-71.png", "icon_background_color": "#7B9EB0", "icon_mask_base_uri": "https://maps.gstatic.com/mapfiles/place_api/icons/v2/school_pinlet", "name": "P.S. inayatpur", "place_id": "ChIJ9_Fe2RtvnjkR46tUMfkgLuA", "plus_code": {"compound_code": "3V97+X9 Sarontop, Uttar Pradesh, India", "global_code": "7JVX3V97+X9"}, "reference": "ChIJ9_Fe2RtvnjkR46tUMfkgLuA", "scope": "GOOGLE", "types": ["primary_school", "school", "point_of_interest", "establishment"], "vicinity": "Unnamed Road, Sarontop"}], "status": "OK"}