{"html_attributions": [], "results": [{"business_status": "OPERATIONAL", "geometry": {"location": {"lat": 27.3882194, "lng": 79.8660836}, "viewport": {"northeast": {"lat": 27.3900522802915, "lng": 79.86699688029151}, "southwest": {"lat": 27.38735431970849, "lng": 79.86429891970849}}}, "icon": "https://maps.gstatic.com/mapfiles/place_api/icons/v1/png_71/school-71.png", "icon_background_color": "#7B9EB0", "icon_mask_base_uri": "https://maps.gstatic.com/mapfiles/place_api/icons/v2/school_pinlet", "name": "Smt A.S.V Inter Collage", "opening_hours": {"open_now": false}, "place_id": "ChIJHwoeWjtPnjkRhTrQW7Gu2iQ", "rating": 5, "reference": "ChIJHwoeWjtPnjkRhTrQW7Gu2iQ", "scope": "GOOGLE", "types": ["school", "point_of_interest", "establishment"], "user_ratings_total": 1, "vicinity": "9VQ8+7CP, Dularpur"}, {"business_status": "OPERATIONAL", "geometry": {"location": {"lat": 27.3773338, "lng": 79.8562826}, "viewport": {"northeast": {"lat": 27.3782752302915, "lng": 79.85893700000001}, "southwest": {"lat": 27.3755772697085, "lng": 79.85539779999999}}}, "icon": "https://maps.gstatic.com/mapfiles/place_api/icons/v1/png_71/school-71.png", "icon_background_color": "#7B9EB0", "icon_mask_base_uri": "https://maps.gstatic.com/mapfiles/place_api/icons/v2/school_pinlet", "name": "Sariya Paras Pur", "opening_hours": {"open_now": false}, "photos": [{"height": 4160, "html_attributions": ["<a href=\"https://maps.google.com/maps/contrib/109769178679894702455\">Ramlakhan</a>"], "photo_reference": "Aap_uEAjraUbbfsVvrOkWki4kO_2NeiSY2M5_fSLw7XwdB5473TQjHM6PpVJDr08KmevHpefRmWmawmoYsimH0LlvINDf8GrL1eg0ZYLD7A4cgLykTbcRkaYiL659Z0qMDYR4GVvK-xeq0YXVk7iOiy6QicLe76iPFdODMfXmkStIaMYGdw0", "width": 3120}], "place_id": "ChIJVVVVFWZPnjkRJB350mI4gjI", "rating": 3, "reference": "ChIJVVVVFWZPnjkRJB350mI4gjI", "scope": "GOOGLE", "types": ["school", "point_of_interest", "establishment"], "user_ratings_total": 2, "vicinity": "9VG4+WGM, Sariya Paraspur"}, {"business_status": "OPERATIONAL", "geometry": {"location": {"lat": 27.3784753, "lng": 79.8795473}, "viewport": {"northeast": {"lat": 27.3802564802915, "lng": 79.88121318029151}, "southwest": {"lat": 27.3775585197085, "lng": 79.87851521970849}}}, "icon": "https://maps.gstatic.com/mapfiles/place_api/icons/v1/png_71/school-71.png", "icon_background_color": "#7B9EB0", "icon_mask_base_uri": "https://maps.gstatic.com/mapfiles/place_api/icons/v2/school_pinlet", "name": "Primary School Ram Pur Dharm pur", "place_id": "ChIJpS0BZYNPnjkRXFHAkqV9SUA", "plus_code": {"compound_code": "9VHH+9R Rampur Lalji, Uttar Pradesh, India", "global_code": "7JVX9VHH+9R"}, "rating": 5, "reference": "ChIJpS0BZYNPnjkRXFHAkqV9SUA", "scope": "GOOGLE", "types": ["school", "point_of_interest", "establishment"], "user_ratings_total": 1, "vicinity": "Naktaura Laalji Road, Rampur Lalji"}], "status": "OK"}