{"html_attributions": [], "results": [{"business_status": "OPERATIONAL", "geometry": {"location": {"lat": 26.8978759, "lng": 79.8925553}, "viewport": {"northeast": {"lat": 26.8992357302915, "lng": 79.89389443029151}, "southwest": {"lat": 26.8965377697085, "lng": 79.8911964697085}}}, "icon": "https://maps.gstatic.com/mapfiles/place_api/icons/v1/png_71/school-71.png", "icon_background_color": "#7B9EB0", "icon_mask_base_uri": "https://maps.gstatic.com/mapfiles/place_api/icons/v2/school_pinlet", "name": "\u091b\u094d\u0924\u0930\u092a\u0941\u0930 \u092a\u094d\u0930\u093e\u0966\u092a\u093e\u0920\u0936\u093e\u0932\u093e", "place_id": "ChIJnwBOumV3njkRhyeE0I4kYQo", "rating": 5, "reference": "ChIJnwBOumV3njkRhyeE0I4kYQo", "scope": "GOOGLE", "types": ["school", "point_of_interest", "establishment"], "user_ratings_total": 1, "vicinity": "VVXV+523, Jainpura"}, {"business_status": "OPERATIONAL", "geometry": {"location": {"lat": 26.890898, "lng": 79.8866967}, "viewport": {"northeast": {"lat": 26.8920728802915, "lng": 79.8880601302915}, "southwest": {"lat": 26.8893749197085, "lng": 79.8853621697085}}}, "icon": "https://maps.gstatic.com/mapfiles/place_api/icons/v1/png_71/school-71.png", "icon_background_color": "#7B9EB0", "icon_mask_base_uri": "https://maps.gstatic.com/mapfiles/place_api/icons/v2/school_pinlet", "name": "Abhishek Rajput", "place_id": "ChIJMTtxvTB3njkRck3KDijhd-g", "plus_code": {"compound_code": "VVRP+9M Jainpura, Uttar Pradesh, India", "global_code": "7JRXVVRP+9M"}, "reference": "ChIJMTtxvTB3njkRck3KDijhd-g", "scope": "GOOGLE", "types": ["primary_school", "school", "point_of_interest", "establishment"], "vicinity": "Unnamed Road, \u091c\u0948\u0928\u092a\u0941\u0930\u093e"}, {"business_status": "OPERATIONAL", "geometry": {"location": {"lat": 26.8919758, "lng": 79.89394709999999}, "viewport": {"northeast": {"lat": 26.8933699802915, "lng": 79.8954047302915}, "southwest": {"lat": 26.8906720197085, "lng": 79.89270676970848}}}, "icon": "https://maps.gstatic.com/mapfiles/place_api/icons/v1/png_71/school-71.png", "icon_background_color": "#7B9EB0", "icon_mask_base_uri": "https://maps.gstatic.com/mapfiles/place_api/icons/v2/school_pinlet", "name": "Shiv Mandir Kahipurwa", "place_id": "ChIJbdtxzTl3njkRZLU11bTXHfY", "rating": 5, "reference": "ChIJbdtxzTl3njkRZLU11bTXHfY", "scope": "GOOGLE", "types": ["school", "point_of_interest", "establishment"], "user_ratings_total": 1, "vicinity": "VVRV+QHW, Chandouli"}, {"business_status": "OPERATIONAL", "geometry": {"location": {"lat": 26.89615809999999, "lng": 79.8744749}, "viewport": {"northeast": {"lat": 26.8975872302915, "lng": 79.8757368802915}, "southwest": {"lat": 26.89488926970849, "lng": 79.87303891970849}}}, "icon": "https://maps.gstatic.com/mapfiles/place_api/icons/v1/png_71/school-71.png", "icon_background_color": "#7B9EB0", "icon_mask_base_uri": "https://maps.gstatic.com/mapfiles/place_api/icons/v2/school_pinlet", "name": "P.R. Shiksha Niketan", "place_id": "ChIJPXg_c1t3njkR-yHE8swGZ94", "plus_code": {"compound_code": "VVWF+FQ Jainpura, Uttar Pradesh, India", "global_code": "7JRXVVWF+FQ"}, "reference": "ChIJPXg_c1t3njkR-yHE8swGZ94", "scope": "GOOGLE", "types": ["school", "point_of_interest", "establishment"], "vicinity": "Sadaleypurwa ,thathia"}], "status": "OK"}