{"html_attributions": [], "results": [{"business_status": "OPERATIONAL", "geometry": {"location": {"lat": 27.1223493, "lng": 79.8884819}, "viewport": {"northeast": {"lat": 27.1242826802915, "lng": 79.88955393029151}, "southwest": {"lat": 27.12158471970849, "lng": 79.8868559697085}}}, "icon": "https://maps.gstatic.com/mapfiles/place_api/icons/v1/png_71/school-71.png", "icon_background_color": "#7B9EB0", "icon_mask_base_uri": "https://maps.gstatic.com/mapfiles/place_api/icons/v2/school_pinlet", "name": "Madarsa Jamia Maariful Quran", "place_id": "ChIJVVVVVe5onjkR73y5ZBnf3mc", "reference": "ChIJVVVVVe5onjkR73y5ZBnf3mc", "scope": "GOOGLE", "types": ["school", "point_of_interest", "establishment"], "vicinity": "4VCQ+W9Q, Ibrahimpur B"}, {"business_status": "OPERATIONAL", "geometry": {"location": {"lat": 27.1223493, "lng": 79.8884819}, "viewport": {"northeast": {"lat": 27.1242826802915, "lng": 79.88955393029151}, "southwest": {"lat": 27.12158471970849, "lng": 79.8868559697085}}}, "icon": "https://maps.gstatic.com/mapfiles/place_api/icons/v1/png_71/school-71.png", "icon_background_color": "#7B9EB0", "icon_mask_base_uri": "https://maps.gstatic.com/mapfiles/place_api/icons/v2/school_pinlet", "name": "Madras Jamiya Mareful Quran Ibrahimpur And Fulpur", "place_id": "ChIJVVVVVe5onjkRFgsvNSDci5E", "reference": "ChIJVVVVVe5onjkRFgsvNSDci5E", "scope": "GOOGLE", "types": ["school", "point_of_interest", "establishment"], "vicinity": "4VCQ+W9Q, Ibrahimpur B"}, {"business_status": "OPERATIONAL", "geometry": {"location": {"lat": 27.1252185, "lng": 79.88721939999999}, "viewport": {"northeast": {"lat": 27.1265509302915, "lng": 79.88859803029149}, "southwest": {"lat": 27.1238529697085, "lng": 79.88590006970848}}}, "icon": "https://maps.gstatic.com/mapfiles/place_api/icons/v1/png_71/school-71.png", "icon_background_color": "#7B9EB0", "icon_mask_base_uri": "https://maps.gstatic.com/mapfiles/place_api/icons/v2/school_pinlet", "name": "School", "place_id": "ChIJg23UceNpnjkRjl4Gl4lVE8U", "reference": "ChIJg23UceNpnjkRjl4Gl4lVE8U", "scope": "GOOGLE", "types": ["primary_school", "school", "point_of_interest", "establishment"], "vicinity": "4VGP+3VQ, Kusumkhor Ka"}, {"business_status": "OPERATIONAL", "geometry": {"location": {"lat": 27.1197006, "lng": 79.8792251}, "viewport": {"northeast": {"lat": 27.1209751802915, "lng": 79.8803961302915}, "southwest": {"lat": 27.1182772197085, "lng": 79.8776981697085}}}, "icon": "https://maps.gstatic.com/mapfiles/place_api/icons/v1/png_71/school-71.png", "icon_background_color": "#7B9EB0", "icon_mask_base_uri": "https://maps.gstatic.com/mapfiles/place_api/icons/v2/school_pinlet", "name": "\u092a\u094d\u0930\u093e\u0925\u092e\u093f\u0915 \u0935\u093f\u0926\u094d\u092f\u093e\u0932\u092f \u0905\u0932\u094d\u0932\u093e\u092a\u0941\u0930 \u0915\u0928\u094d\u0928\u094c\u091c", "photos": [{"height": 1440, "html_attributions": ["<a href=\"https://maps.google.com/maps/contrib/118001173107625564255\">Arvind Singh</a>"], "photo_reference": "Aap_uECR5viDeHBM2Dy2cjwT1W5ACp6Gdraj9ShR1BshcUxHT1Fvnn8I51T7R5esuf_iAptGLnjEHG92oFB_lGpVW7ISwyq7RrsMQxlw7aYjb06Ba1Bb2lwBqlYs6_ePVWdlpu7VJGJ2yJpNTeidZkXYx8LrjUdnuonMVqmZIEQXol6i51C-", "width": 2560}], "place_id": "ChIJs1wAPuxpnjkR8p8njtvmX3U", "rating": 5, "reference": "ChIJs1wAPuxpnjkR8p8njtvmX3U", "scope": "GOOGLE", "types": ["school", "point_of_interest", "establishment"], "user_ratings_total": 3, "vicinity": "4V9H+VMQ, Kachhiapur"}, {"business_status": "OPERATIONAL", "geometry": {"location": {"lat": 27.1197645, "lng": 79.8790464}, "viewport": {"northeast": {"lat": 27.1211883802915, "lng": 79.88027923029149}, "southwest": {"lat": 27.1184904197085, "lng": 79.87758126970849}}}, "icon": "https://maps.gstatic.com/mapfiles/place_api/icons/v1/png_71/school-71.png", "icon_background_color": "#7B9EB0", "icon_mask_base_uri": "https://maps.gstatic.com/mapfiles/place_api/icons/v2/school_pinlet", "name": "\u0906\u0902\u0917\u0928\u092c\u093e\u095c\u0940 \u0915\u0947\u0928\u094d\u0926\u094d\u0930 \u0905\u0932\u094d\u0932\u093e\u092a\u0941\u0930", "photos": [{"height": 1440, "html_attributions": ["<a href=\"https://maps.google.com/maps/contrib/118001173107625564255\">Arvind Singh</a>"], "photo_reference": "Aap_uECi6m0uFNA9xIR2Pj-0YRtpkEYIfB8nQLzojy4yu-AcG0g_gRzvpzs-bNZKGEjTLgUpvfnDvE_8QkyoZZ2K-e_WJAchfrD168jfqz8nvGA40d1Z94G2WoY02MSSlFsOaXcu7xSDUTca3PnlMuV3dD4-wDdpPGNzxJs-WYSx9c-p2rY5", "width": 2560}], "place_id": "ChIJL-OhgP9pnjkRi2zmSym6GOg", "rating": 4, "reference": "ChIJL-OhgP9pnjkRi2zmSym6GOg", "scope": "GOOGLE", "types": ["school", "point_of_interest", "establishment"], "user_ratings_total": 4, "vicinity": "4V9H+WJ3, Kachhiapur"}, {"business_status": "OPERATIONAL", "geometry": {"location": {"lat": 27.1219805, "lng": 79.8972227}, "viewport": {"northeast": {"lat": 27.1238676302915, "lng": 79.89950225000001}, "southwest": {"lat": 27.12116966970849, "lng": 79.89646284999999}}}, "icon": "https://maps.gstatic.com/mapfiles/place_api/icons/v1/png_71/school-71.png", "icon_background_color": "#7B9EB0", "icon_mask_base_uri": "https://maps.gstatic.com/mapfiles/place_api/icons/v2/school_pinlet", "name": "Shri Dev Darbaar Aashram DSV Karimpur Kannauj", "place_id": "ChIJtTIfkQxpnjkRrh1vAajxMc0", "reference": "ChIJtTIfkQxpnjkRrh1vAajxMc0", "scope": "GOOGLE", "types": ["school", "point_of_interest", "establishment"], "vicinity": "4VCW+QVX, Ibrahimpur B"}, {"business_status": "OPERATIONAL", "geometry": {"location": {"lat": 27.1128446, "lng": 79.8863551}, "viewport": {"northeast": {"lat": 27.1141708802915, "lng": 79.88772898029151}, "southwest": {"lat": 27.1114729197085, "lng": 79.88503101970849}}}, "icon": "https://maps.gstatic.com/mapfiles/place_api/icons/v1/png_71/school-71.png", "icon_background_color": "#7B9EB0", "icon_mask_base_uri": "https://maps.gstatic.com/mapfiles/place_api/icons/v2/school_pinlet", "name": "Radhey Radhey", "place_id": "ChIJfQbpL2ppnjkRy08OX9U6Akk", "plus_code": {"compound_code": "4V7P+4G Tahsipur Kan, Uttar Pradesh, India", "global_code": "7JVX4V7P+4G"}, "reference": "ChIJfQbpL2ppnjkRy08OX9U6Akk", "scope": "GOOGLE", "types": ["school", "point_of_interest", "establishment"], "vicinity": "Unnamed Road, Tahsipur Kan"}, {"business_status": "OPERATIONAL", "geometry": {"location": {"lat": 27.11422779999999, "lng": 79.8968798}, "viewport": {"northeast": {"lat": 27.11887674999999, "lng": 79.89911825000001}, "southwest": {"lat": 27.11267814999999, "lng": 79.89613365000001}}}, "icon": "https://maps.gstatic.com/mapfiles/place_api/icons/v1/png_71/school-71.png", "icon_background_color": "#7B9EB0", "icon_mask_base_uri": "https://maps.gstatic.com/mapfiles/place_api/icons/v2/school_pinlet", "name": "Shimla Devi Baal Vidya Mandir School", "photos": [{"height": 3096, "html_attributions": ["<a href=\"https://maps.google.com/maps/contrib/105259085606840101486\">Praveen Kushwaha</a>"], "photo_reference": "Aap_uEDpHYXO3dNraG77zz0Z-OZZbqGOsrFDXH9gtQ9GBeFL4SmBNUND12tI3re9zcC_7Jpz-EoSFrChuvD2X2OTwJkRhyb97swd_CTZcWEj_i_2HwXAm2FE5S_JP2qhfJ1D91NndzXKdkWQQZCIO7UyKWyJIE4Kn2O6nRrGBFNVN7bFTKsR", "width": 4128}], "place_id": "ChIJrTDROaNvnjkRk_qjGTAmsMY", "plus_code": {"compound_code": "4V7W+MQ Sariapurbang, Uttar Pradesh, India", "global_code": "7JVX4V7W+MQ"}, "rating": 5, "reference": "ChIJrTDROaNvnjkRk_qjGTAmsMY", "scope": "GOOGLE", "types": ["school", "point_of_interest", "establishment"], "user_ratings_total": 2, "vicinity": "Jalalpur Panwara"}, {"business_status": "OPERATIONAL", "geometry": {"location": {"lat": 27.11422779999999, "lng": 79.8968798}, "viewport": {"northeast": {"lat": 27.11887674999999, "lng": 79.89911825000001}, "southwest": {"lat": 27.11267814999999, "lng": 79.89613365000001}}}, "icon": "https://maps.gstatic.com/mapfiles/place_api/icons/v1/png_71/school-71.png", "icon_background_color": "#7B9EB0", "icon_mask_base_uri": "https://maps.gstatic.com/mapfiles/place_api/icons/v2/school_pinlet", "name": "\u0906\u0901\u0917\u0928\u092c\u093e\u095c\u0940 \u0915\u0947\u0928\u094d\u0926\u094d\u0930 \u0905\u0932\u094d\u0932\u093e\u092a\u0941\u0930 \u0915\u0928\u094d\u0928\u094c\u091c", "photos": [{"height": 1440, "html_attributions": ["<a href=\"https://maps.google.com/maps/contrib/118001173107625564255\">Arvind Singh</a>"], "photo_reference": "Aap_uECtOJgNaxX7czej05g-tYuSDQ2Cuhg4TEGlAd1xO1IWQPvB9g-3Nj4HUJP3UKeqlO4SPCwR3Uk2KsbkFRXxsDUSXXqnfXQe8KJv1VMfcHE76d7oRwIvv-7W7SL56suyNATml_Rg3cHItFiwXzbjXrwCqfEwIoc25MQsqum9aSbxAS_o", "width": 2560}], "place_id": "ChIJObMMBOZpnjkRpY8udcmHpJo", "rating": 5, "reference": "ChIJObMMBOZpnjkRpY8udcmHpJo", "scope": "GOOGLE", "types": ["school", "point_of_interest", "establishment"], "user_ratings_total": 1, "vicinity": "4V7W+MQR, Allapur"}], "status": "OK"}