{"html_attributions": [], "results": [{"business_status": "OPERATIONAL", "geometry": {"location": {"lat": 27.7804581, "lng": 79.8933426}, "viewport": {"northeast": {"lat": 27.7818060302915, "lng": 79.8946744802915}, "southwest": {"lat": 27.7791080697085, "lng": 79.89197651970849}}}, "icon": "https://maps.gstatic.com/mapfiles/place_api/icons/v1/png_71/school-71.png", "icon_background_color": "#7B9EB0", "icon_mask_base_uri": "https://maps.gstatic.com/mapfiles/place_api/icons/v2/school_pinlet", "name": "Babkkarpur Prathmik Vidahlaya", "photos": [{"height": 2448, "html_attributions": ["<a href=\"https://maps.google.com/maps/contrib/114635994608041402609\">Shobhit Kumar</a>"], "photo_reference": "Aap_uEDhucYc6n4iAVhJgXnnBfCMzGxfxb89DSlY06lchHoUx3MwWbwuskLdbGcZPMxYUpO6OHGrOC_CeRO6UjslXTPTIoBCN4KCvW-3mK9g08jmjOZn2NgxkP9qVbs__8TtP7fZBc9b6iz0xVP5_6B4-ECu3EKZMGmkjwiawnFY98_ELwTp", "width": 3264}], "place_id": "ChIJt_5z5-a6nzkRK4SP2feCEgs", "plus_code": {"compound_code": "QVJV+58 Bawakkarpur, Uttar Pradesh, India", "global_code": "7JVXQVJV+58"}, "rating": 4.3, "reference": "ChIJt_5z5-a6nzkRK4SP2feCEgs", "scope": "GOOGLE", "types": ["school", "point_of_interest", "establishment"], "user_ratings_total": 3, "vicinity": "Ajijganj chandapur chauhnapur Road"}, {"business_status": "OPERATIONAL", "geometry": {"location": {"lat": 27.7735407, "lng": 79.8932812}, "viewport": {"northeast": {"lat": 27.7749020302915, "lng": 79.8946341302915}, "southwest": {"lat": 27.7722040697085, "lng": 79.89193616970849}}}, "icon": "https://maps.gstatic.com/mapfiles/place_api/icons/v1/png_71/school-71.png", "icon_background_color": "#7B9EB0", "icon_mask_base_uri": "https://maps.gstatic.com/mapfiles/place_api/icons/v2/school_pinlet", "name": "Vinod p&s studio", "place_id": "ChIJ-ReeXkS7nzkRO621G9khFeY", "plus_code": {"compound_code": "QVFV+C8 Saraura, Uttar Pradesh, India", "global_code": "7JVXQVFV+C8"}, "reference": "ChIJ-ReeXkS7nzkRO621G9khFeY", "scope": "GOOGLE", "types": ["school", "point_of_interest", "establishment"], "vicinity": "Unnamed Road, Saraura"}, {"business_status": "OPERATIONAL", "geometry": {"location": {"lat": 27.773432, "lng": 79.89370219999999}, "viewport": {"northeast": {"lat": 27.77486068029151, "lng": 79.8950157302915}, "southwest": {"lat": 27.7721627197085, "lng": 79.89231776970848}}}, "icon": "https://maps.gstatic.com/mapfiles/place_api/icons/v1/png_71/school-71.png", "icon_background_color": "#7B9EB0", "icon_mask_base_uri": "https://maps.gstatic.com/mapfiles/place_api/icons/v2/school_pinlet", "name": "Shiv Om Computer And Book Shop Chandapur", "place_id": "ChIJE3ceAum6nzkRSUN9hUaiSac", "reference": "ChIJE3ceAum6nzkRSUN9hUaiSac", "scope": "GOOGLE", "types": ["school", "point_of_interest", "establishment"], "vicinity": "QVFV+9FG, Chandapur Barkatpur"}], "status": "OK"}