{"html_attributions": [], "results": [{"business_status": "OPERATIONAL", "geometry": {"location": {"lat": 27.001727, "lng": 79.9108744}, "viewport": {"northeast": {"lat": 27.0026091302915, "lng": 79.91252673029152}, "southwest": {"lat": 26.9999111697085, "lng": 79.90982876970851}}}, "icon": "https://maps.gstatic.com/mapfiles/place_api/icons/v1/png_71/school-71.png", "icon_background_color": "#7B9EB0", "icon_mask_base_uri": "https://maps.gstatic.com/mapfiles/place_api/icons/v2/school_pinlet", "name": "Chaman katiyar", "place_id": "ChIJJ4bTQANvnjkR83Gq-GphQBc", "reference": "ChIJJ4bTQANvnjkR83Gq-GphQBc", "scope": "GOOGLE", "types": ["school", "point_of_interest", "establishment"], "vicinity": "2W26+M8X, Kannauj"}, {"business_status": "OPERATIONAL", "geometry": {"location": {"lat": 26.9996928, "lng": 79.9158815}, "viewport": {"northeast": {"lat": 27.0010843802915, "lng": 79.9172312302915}, "southwest": {"lat": 26.9983864197085, "lng": 79.9145332697085}}}, "icon": "https://maps.gstatic.com/mapfiles/place_api/icons/v1/png_71/school-71.png", "icon_background_color": "#7B9EB0", "icon_mask_base_uri": "https://maps.gstatic.com/mapfiles/place_api/icons/v2/school_pinlet", "name": "Primary school, Balarpur", "photos": [{"height": 4000, "html_attributions": ["<a href=\"https://maps.google.com/maps/contrib/108517750195613325050\">Arpit Katiyar</a>"], "photo_reference": "Aap_uEC-m3OsRYoeKN8kM6mr7y4lcdwFnjs1ZWX5xqzO5BIl7n0eWV5ru_XOmybL1Iuaj3AO5bDX5buErdP6Ap-LtA0x6KCqhV51Xa4jkkFWsyki4oFomo4GNl-3WXSAqyPNnnkS1xubkuqWfxHhhXX5BFSASmA4Xk6ecPM_zPwU1UcHKWPk", "width": 3000}], "place_id": "ChIJ058OL_5vnjkRK9rNna_xD_I", "rating": 4, "reference": "ChIJ058OL_5vnjkRK9rNna_xD_I", "scope": "GOOGLE", "types": ["school", "point_of_interest", "establishment"], "user_ratings_total": 1, "vicinity": "XWX8+V9C, Padarath Pur"}, {"business_status": "OPERATIONAL", "geometry": {"location": {"lat": 26.997519, "lng": 79.916275}, "viewport": {"northeast": {"lat": 26.9989081802915, "lng": 79.9173225302915}, "southwest": {"lat": 26.9962102197085, "lng": 79.9146245697085}}}, "icon": "https://maps.gstatic.com/mapfiles/place_api/icons/v1/png_71/school-71.png", "icon_background_color": "#7B9EB0", "icon_mask_base_uri": "https://maps.gstatic.com/mapfiles/place_api/icons/v2/school_pinlet", "name": "Jai Hanuman Traders Balarpur", "place_id": "ChIJLfLwaIxxnjkRy6_JCe45i4w", "reference": "ChIJLfLwaIxxnjkRy6_JCe45i4w", "scope": "GOOGLE", "types": ["school", "point_of_interest", "establishment"], "vicinity": "XWX8+2G2, Padarath Pur"}, {"business_status": "OPERATIONAL", "geometry": {"location": {"lat": 27.0129689, "lng": 79.9052768}, "viewport": {"northeast": {"lat": 27.0143527302915, "lng": 79.90655868029151}, "southwest": {"lat": 27.0116547697085, "lng": 79.90386071970849}}}, "icon": "https://maps.gstatic.com/mapfiles/place_api/icons/v1/png_71/school-71.png", "icon_background_color": "#7B9EB0", "icon_mask_base_uri": "https://maps.gstatic.com/mapfiles/place_api/icons/v2/school_pinlet", "name": "Rabbul kirana store", "place_id": "ChIJ4Yt0w81vnjkRXlF-W52pyeM", "reference": "ChIJ4Yt0w81vnjkRXlF-W52pyeM", "scope": "GOOGLE", "types": ["school", "point_of_interest", "establishment"], "vicinity": "2W74+54J, Ahamadpur Ra"}], "status": "OK"}