{"html_attributions": [], "next_page_token": "Aap_uEBtfYozRMrhrGI_rv3dPpKyao39IuwO58LikeF19z3AkuNTauZTtz21M_Bw8ihmyKfN4S75tyjbh0oF_-3ZMthOpeVZsxivyRSRdAfFnG9RUIif_YMkG172iDs0Mk61dXOgirvgtcxthvI4p5_L6EDdoZ6YhLlwpzsoGnMkXp9W8Gr3Ob-bDpnixQCukE1r8WkQ-BX0z9VuWd1hTMwDteMN4kjsLXeVvOCFxtqgy4HS9oArubHmu84SYLllTGPREZToejJGhCkl30p9jyv_BnABDE2f0BI-4nlZ_BHyA7JlWcOc-fDqpd-f74gLr-LfnjZPDH6JHZvfx1dn_WgYoFOBwKtlPr-5YPgpKPMEH7T-90XL94441fzTda9MG3aNMAyNCTNOEpGsrtUx0leh7eQ7h9asLao3I3DJIm0X6b5yRCCjZgHzB7ABokqrKMCMj-hguHqq2owd3K5l4loyibr6R29_F54ICxSo-OkXhzi0kiCkeHGy3RQWSM_0KLl6V9N62_6Q8-_a5OlOEALnPGyxV9qd1b4a2D1dmJmuVqYyrwU0EMuY7z4szAzg7N9tlZN4nKGtwV4a68Rbn8rNtFHT3MG0AzESmCTdGZy1-ZZwPJLVXn0Lkf2Ro2E-5RDe9dqzE64-", "results": [{"business_status": "OPERATIONAL", "geometry": {"location": {"lat": 27.0437585, "lng": 79.9157735}, "viewport": {"northeast": {"lat": 27.0446700802915, "lng": 79.91733703029149}, "southwest": {"lat": 27.0419721197085, "lng": 79.91463906970849}}}, "icon": "https://maps.gstatic.com/mapfiles/place_api/icons/v1/png_71/school-71.png", "icon_background_color": "#7B9EB0", "icon_mask_base_uri": "https://maps.gstatic.com/mapfiles/place_api/icons/v2/school_pinlet", "name": "BR Vidhi Mahavidyalaya tirwa kannauj", "photos": [{"height": 4160, "html_attributions": ["<a href=\"https://maps.google.com/maps/contrib/118248180417993609376\">Raj Babu</a>"], "photo_reference": "Aap_uEBiSXOZiqEVwelwIE_9wcCA791ISBgChlmrNOkkihH1lCdgojNIDEvP0_937qdyql9sF4fuSaEe-fw-9TxqaMRgXx2QFZ8ASa--YgpoGNxLnlX2uuD9q6PzoYcTWnV15x2kmxU98lVJOi4fdTvhXssGKKXwr_scw-St8WVwyiKjKjR6", "width": 2080}], "place_id": "ChIJA0pCuHFvnjkRijdg95qD37c", "rating": 5, "reference": "ChIJA0pCuHFvnjkRijdg95qD37c", "scope": "GOOGLE", "types": ["school", "point_of_interest", "establishment"], "user_ratings_total": 2, "vicinity": "2WV8+G82, Kannauj"}, {"business_status": "OPERATIONAL", "geometry": {"location": {"lat": 27.0343129, "lng": 79.9135057}, "viewport": {"northeast": {"lat": 27.0356335302915, "lng": 79.9149661302915}, "southwest": {"lat": 27.0329355697085, "lng": 79.9122681697085}}}, "icon": "https://maps.gstatic.com/mapfiles/place_api/icons/v1/png_71/school-71.png", "icon_background_color": "#7B9EB0", "icon_mask_base_uri": "https://maps.gstatic.com/mapfiles/place_api/icons/v2/school_pinlet", "name": "Ravi", "place_id": "ChIJ8VZO7ZFvnjkRAa8KIQUJkPw", "reference": "ChIJ8VZO7ZFvnjkRAa8KIQUJkPw", "scope": "GOOGLE", "types": ["school", "point_of_interest", "establishment"], "vicinity": "2WM7+PCC, Ahamadpur Ra"}, {"business_status": "OPERATIONAL", "geometry": {"location": {"lat": 27.0492204, "lng": 79.91417129999999}, "viewport": {"northeast": {"lat": 27.0506482302915, "lng": 79.9153297802915}, "southwest": {"lat": 27.04795026970849, "lng": 79.9126318197085}}}, "icon": "https://maps.gstatic.com/mapfiles/place_api/icons/v1/png_71/school-71.png", "icon_background_color": "#7B9EB0", "icon_mask_base_uri": "https://maps.gstatic.com/mapfiles/place_api/icons/v2/school_pinlet", "name": "Bharat Education", "opening_hours": {"open_now": false}, "place_id": "ChIJb-vT0X5vnjkRibWCPCoeVOE", "reference": "ChIJb-vT0X5vnjkRibWCPCoeVOE", "scope": "GOOGLE", "types": ["school", "point_of_interest", "establishment"], "vicinity": "2WX7+MMM, HardevGanj Chaudharana, Kannauj"}, {"business_status": "OPERATIONAL", "geometry": {"location": {"lat": 27.03862, "lng": 79.91728599999999}, "viewport": {"northeast": {"lat": 27.0399690302915, "lng": 79.91863483029151}, "southwest": {"lat": 27.0372710697085, "lng": 79.91593686970849}}}, "icon": "https://maps.gstatic.com/mapfiles/place_api/icons/v1/png_71/school-71.png", "icon_background_color": "#7B9EB0", "icon_mask_base_uri": "https://maps.gstatic.com/mapfiles/place_api/icons/v2/school_pinlet", "name": "Rajkiya Mahila Mahavidhyalaya, Banger ,Kannauj", "photos": [{"height": 2340, "html_attributions": ["<a href=\"https://maps.google.com/maps/contrib/115593082417746630223\">Anshika Kushwaha</a>"], "photo_reference": "Aap_uEB6PKZDBERXsjdHZy-RkRfWi630g6TKxb39L8M-Gd6oYVjdVwrlwlPnrJMBIUee9jzH1zLNve1jQINFVwUDHLKzoRFNfYZY6SbVcDGOmnb6XJgsCsJGbUGpCci2Y-d4M85C39x9Vhmqe84TmM8H1KKsxL2XcG-sDvw7pNSkO7LeJK4_", "width": 4160}], "place_id": "ChIJqfJlPYdvnjkR2a41rCRcd0g", "rating": 3, "reference": "ChIJqfJlPYdvnjkR2a41rCRcd0g", "scope": "GOOGLE", "types": ["school", "point_of_interest", "establishment"], "user_ratings_total": 5, "vicinity": "2WQ8+CWV, Kannauj"}, {"business_status": "OPERATIONAL", "geometry": {"location": {"lat": 27.0394106, "lng": 79.8955591}, "viewport": {"northeast": {"lat": 27.0408538302915, "lng": 79.8968315802915}, "southwest": {"lat": 27.0381558697085, "lng": 79.8941336197085}}}, "icon": "https://maps.gstatic.com/mapfiles/place_api/icons/v1/png_71/school-71.png", "icon_background_color": "#7B9EB0", "icon_mask_base_uri": "https://maps.gstatic.com/mapfiles/place_api/icons/v2/school_pinlet", "name": "primary school kanpatiyapur", "photos": [{"height": 3120, "html_attributions": ["<a href=\"https://maps.google.com/maps/contrib/102655127082536296701\">Rahul Kushwaha</a>"], "photo_reference": "Aap_uECFLzwM9OsdFgzG33ixhST7N7iCdaamnxNUmzUJRYNJFwVYVpKA2RSaVgmYTcOV_pZ7b1UHQBMd1Edqq0OZfbgraARmZ8FcV1lCL16L9vwCIBX0sDQS39Ubop85iiB4Ky8AcE6l7Z9fVGnIy9PotvFaz2YemDaIKCXsvMr-EHmADvKE", "width": 4160}], "place_id": "ChIJdSVAOAZvnjkRFAJRArFaiEQ", "rating": 5, "reference": "ChIJdSVAOAZvnjkRFAJRArFaiEQ", "scope": "GOOGLE", "types": ["school", "point_of_interest", "establishment"], "user_ratings_total": 1, "vicinity": "2VQW+Q67, Mauampur Mou"}, {"business_status": "OPERATIONAL", "geometry": {"location": {"lat": 27.03647139999999, "lng": 79.8966239}, "viewport": {"northeast": {"lat": 27.0376852802915, "lng": 79.89785873029149}, "southwest": {"lat": 27.0349873197085, "lng": 79.89516076970848}}}, "icon": "https://maps.gstatic.com/mapfiles/place_api/icons/v1/png_71/school-71.png", "icon_background_color": "#7B9EB0", "icon_mask_base_uri": "https://maps.gstatic.com/mapfiles/place_api/icons/v2/school_pinlet", "name": "Gautam Biddh Balika Mahavidyalaya", "place_id": "ChIJtdwVd6JvnjkRTKvhr0G2-gM", "rating": 5, "reference": "ChIJtdwVd6JvnjkRTKvhr0G2-gM", "scope": "GOOGLE", "types": ["school", "point_of_interest", "establishment"], "user_ratings_total": 1, "vicinity": "2VPW+HJQ, Mauampur Mou"}, {"business_status": "OPERATIONAL", "geometry": {"location": {"lat": 27.0514156, "lng": 79.9136731}, "viewport": {"northeast": {"lat": 27.0527440802915, "lng": 79.9150527302915}, "southwest": {"lat": 27.0500461197085, "lng": 79.9123547697085}}}, "icon": "https://maps.gstatic.com/mapfiles/place_api/icons/v1/png_71/school-71.png", "icon_background_color": "#7B9EB0", "icon_mask_base_uri": "https://maps.gstatic.com/mapfiles/place_api/icons/v2/school_pinlet", "name": "mr alok", "place_id": "ChIJaV-jLIBvnjkRrv6wMnNTJv4", "reference": "ChIJaV-jLIBvnjkRrv6wMnNTJv4", "scope": "GOOGLE", "types": ["school", "point_of_interest", "establishment"], "vicinity": "3W27+HF7, Kannauj"}, {"business_status": "OPERATIONAL", "geometry": {"location": {"lat": 27.0514156, "lng": 79.9136731}, "viewport": {"northeast": {"lat": 27.0527440802915, "lng": 79.9150527302915}, "southwest": {"lat": 27.0500461197085, "lng": 79.9123547697085}}}, "icon": "https://maps.gstatic.com/mapfiles/place_api/icons/v1/png_71/school-71.png", "icon_background_color": "#7B9EB0", "icon_mask_base_uri": "https://maps.gstatic.com/mapfiles/place_api/icons/v2/school_pinlet", "name": "Kamal pal nandpur.", "photos": [{"height": 1080, "html_attributions": ["<a href=\"https://maps.google.com/maps/contrib/102673142055035693901\">Kamal Kumar Anuj pal</a>"], "photo_reference": "Aap_uEDeiNNwMoSFVO2DktsrKSU_aELTzAEog548fn-H7vjTFQLjQi-0Q7b1sI-e68QxCfkkcR7HSB7JMWAelN2J7K4JEXpLgzB0V8VO3KjL9vV3Iad_Nxq2QFoqUOFyxi-NR6dFebUaLDYMOD-UClPxPtTwCie_CQWh5SgT2MR3qPvk-zkt", "width": 1080}], "place_id": "ChIJVaFcvkpvnjkRUxd90b9qmUw", "plus_code": {"compound_code": "3W27+HF Kannauj, Uttar Pradesh, India", "global_code": "7JVX3W27+HF"}, "reference": "ChIJVaFcvkpvnjkRUxd90b9qmUw", "scope": "GOOGLE", "types": ["school", "point_of_interest", "establishment"], "vicinity": "Kamal home nandpur Nauli, Kannauj"}, {"business_status": "OPERATIONAL", "geometry": {"location": {"lat": 27.0514156, "lng": 79.9136731}, "viewport": {"northeast": {"lat": 27.0527440802915, "lng": 79.9150527302915}, "southwest": {"lat": 27.0500461197085, "lng": 79.9123547697085}}}, "icon": "https://maps.gstatic.com/mapfiles/place_api/icons/v1/png_71/school-71.png", "icon_background_color": "#7B9EB0", "icon_mask_base_uri": "https://maps.gstatic.com/mapfiles/place_api/icons/v2/school_pinlet", "name": "lala shyam lal inter college kannauj up", "place_id": "ChIJSdyqgIRvnjkRPlw6NnJkLU0", "plus_code": {"compound_code": "3W27+HF Kannauj, Uttar Pradesh, India", "global_code": "7JVX3W27+HF"}, "reference": "ChIJSdyqgIRvnjkRPlw6NnJkLU0", "scope": "GOOGLE", "types": ["school", "point_of_interest", "establishment"], "vicinity": "lala shyam lal inter college"}, {"business_status": "OPERATIONAL", "geometry": {"location": {"lat": 27.0514156, "lng": 79.9136731}, "viewport": {"northeast": {"lat": 27.0527440802915, "lng": 79.9150527302915}, "southwest": {"lat": 27.0500461197085, "lng": 79.9123547697085}}}, "icon": "https://maps.gstatic.com/mapfiles/place_api/icons/v1/png_71/school-71.png", "icon_background_color": "#7B9EB0", "icon_mask_base_uri": "https://maps.gstatic.com/mapfiles/place_api/icons/v2/school_pinlet", "name": "\u0905\u091c\u092f \u0930\u093e\u091c \u092c\u0930\u094d\u092e\u093e \u0938\u092a\u0939\u093e \u0935\u093e\u0932\u0947 \u0907\u0902\u0926\u0930\u0917\u0922\u093c \u0915\u0928\u094d\u0928\u094c\u091c", "place_id": "ChIJPZPWyXRvnjkR9bWP6rCLSz0", "reference": "ChIJPZPWyXRvnjkR9bWP6rCLSz0", "scope": "GOOGLE", "types": ["school", "point_of_interest", "establishment"], "vicinity": "3W27+HF7, Kannauj"}, {"business_status": "OPERATIONAL", "geometry": {"location": {"lat": 27.0514156, "lng": 79.9136731}, "viewport": {"northeast": {"lat": 27.0527440802915, "lng": 79.9150527302915}, "southwest": {"lat": 27.0500461197085, "lng": 79.9123547697085}}}, "icon": "https://maps.gstatic.com/mapfiles/place_api/icons/v1/png_71/school-71.png", "icon_background_color": "#7B9EB0", "icon_mask_base_uri": "https://maps.gstatic.com/mapfiles/place_api/icons/v2/school_pinlet", "name": "\u0905\u0902\u0926\u094c\u0906", "photos": [{"height": 3264, "html_attributions": ["<a href=\"https://maps.google.com/maps/contrib/109752296071605637755\">Aman Yadav Aman Yadav</a>"], "photo_reference": "Aap_uED3R1kLoh5EnE8auxBoia0gH_Q_KCGCJGFIA7K5KdqiWT0DqXUvXIns9j93vZwsXATnyTS8OtF58aSFuRp6Gv9MzKsZbvOr8DZuPg2t95WW6mVt-bqfWjHwIzvWNWe2h_rmEoIktL-DKm0GkwgYl__NWImBbdH67DEjL2_ZOaLx70Kx", "width": 2448}], "place_id": "ChIJCZiiPUdvnjkRvmANNuTYO0M", "reference": "ChIJCZiiPUdvnjkRvmANNuTYO0M", "scope": "GOOGLE", "types": ["school", "point_of_interest", "establishment"], "vicinity": "Kannauj"}, {"business_status": "OPERATIONAL", "geometry": {"location": {"lat": 27.0514156, "lng": 79.9136731}, "viewport": {"northeast": {"lat": 27.0527440802915, "lng": 79.9150527302915}, "southwest": {"lat": 27.0500461197085, "lng": 79.9123547697085}}}, "icon": "https://maps.gstatic.com/mapfiles/place_api/icons/v1/png_71/school-71.png", "icon_background_color": "#7B9EB0", "icon_mask_base_uri": "https://maps.gstatic.com/mapfiles/place_api/icons/v2/school_pinlet", "name": "Sirhind Public School (mesco)", "photos": [{"height": 720, "html_attributions": ["<a href=\"https://maps.google.com/maps/contrib/109995749355949040738\">Abudujana Mujaddidi</a>"], "photo_reference": "Aap_uEB6ekj1vBVqdhLDlxUyZ0F2Uv8WmtgQQq6AUQxqN86RDgk92RKb6U0-tfwSEdMvva0XfyZCd8q9qgs_ixLGVQxZWcH5x_eaNhrX91rcrNItaL54S4k44M-mdjDGlPK4nqGMJuO2kfwU-xTOsL_cYQzw7LSb3Ys0PVsyCzpum_hPml7b", "width": 960}], "place_id": "ChIJwU5tW6ZvnjkR9IaNU9iwi4U", "rating": 4, "reference": "ChIJwU5tW6ZvnjkR9IaNU9iwi4U", "scope": "GOOGLE", "types": ["school", "point_of_interest", "establishment"], "user_ratings_total": 3, "vicinity": "Police line Road, Kannauj"}, {"business_status": "OPERATIONAL", "geometry": {"location": {"lat": 27.0514156, "lng": 79.9136731}, "viewport": {"northeast": {"lat": 27.0527440802915, "lng": 79.9150527302915}, "southwest": {"lat": 27.0500461197085, "lng": 79.9123547697085}}}, "icon": "https://maps.gstatic.com/mapfiles/place_api/icons/v1/png_71/school-71.png", "icon_background_color": "#7B9EB0", "icon_mask_base_uri": "https://maps.gstatic.com/mapfiles/place_api/icons/v2/school_pinlet", "name": "Rahul Diwakar", "photos": [{"height": 1920, "html_attributions": ["<a href=\"https://maps.google.com/maps/contrib/103463800489203517205\">Prince Rahul</a>"], "photo_reference": "Aap_uEBlGgRSKb060Vgq8pS2Pn1__tOW0dZA-foPgp2k6dYpq9d6K3LyvH7_py0m9xAWANVZWnncuxhDSO-5yNL8so52uH8rz2m7Q5VlVLjGFxnbtrWVZNdRt7FgNOz_vIqaXH_obLgoq3S16Xz-9JYaS4fyllHkUFm_Gi_7hkWR9P6-vDtc", "width": 1920}], "place_id": "ChIJP65nhC5vnjkR6aL6jkn6pI0", "reference": "ChIJP65nhC5vnjkR6aL6jkn6pI0", "scope": "GOOGLE", "types": ["school", "point_of_interest", "establishment"], "vicinity": "Kannauj"}, {"business_status": "OPERATIONAL", "geometry": {"location": {"lat": 27.0514156, "lng": 79.9136731}, "viewport": {"northeast": {"lat": 27.0527440802915, "lng": 79.9150527302915}, "southwest": {"lat": 27.0500461197085, "lng": 79.9123547697085}}}, "icon": "https://maps.gstatic.com/mapfiles/place_api/icons/v1/png_71/school-71.png", "icon_background_color": "#7B9EB0", "icon_mask_base_uri": "https://maps.gstatic.com/mapfiles/place_api/icons/v2/school_pinlet", "name": "Mustak KirNa Stor", "photos": [{"height": 2304, "html_attributions": ["<a href=\"https://maps.google.com/maps/contrib/114287036334552969433\">Mustaqueem Ahmad</a>"], "photo_reference": "Aap_uECS6wVPHIf47ZByw26Rmuv0ambFaexgert6dM2lz3VguREnghOP1iHY4hDa2t9r8EdhUPYZB9irHoYiF-6Irb5ekXUTDlbbQZ_1TqPJLh-JXYb-OxqbJNCvViIc0buvAGDKVJWv3EVcc_krcjoWzkeWdT2uGaqzYLZoUBzLUwsWHG8v", "width": 4096}], "place_id": "ChIJVVVVVXlvnjkRj1fcNSqg0a8", "reference": "ChIJVVVVVXlvnjkRj1fcNSqg0a8", "scope": "GOOGLE", "types": ["school", "point_of_interest", "establishment"], "vicinity": "Mohalla Kazi Tola, Kannauj"}, {"business_status": "OPERATIONAL", "geometry": {"location": {"lat": 27.0514156, "lng": 79.9136731}, "viewport": {"northeast": {"lat": 27.0527440802915, "lng": 79.9150527302915}, "southwest": {"lat": 27.0500461197085, "lng": 79.9123547697085}}}, "icon": "https://maps.gstatic.com/mapfiles/place_api/icons/v1/png_71/school-71.png", "icon_background_color": "#7B9EB0", "icon_mask_base_uri": "https://maps.gstatic.com/mapfiles/place_api/icons/v2/school_pinlet", "name": "Deepu Kumar", "place_id": "ChIJw4cZvDlvnjkROVFFbOf1C5w", "plus_code": {"compound_code": "3W27+HF Kannauj, Uttar Pradesh, India", "global_code": "7JVX3W27+HF"}, "rating": 3, "reference": "ChIJw4cZvDlvnjkROVFFbOf1C5w", "scope": "GOOGLE", "types": ["school", "point_of_interest", "establishment"], "user_ratings_total": 1, "vicinity": "Village dariyapur Patti Post pandabad"}, {"business_status": "OPERATIONAL", "geometry": {"location": {"lat": 27.0514156, "lng": 79.9136731}, "viewport": {"northeast": {"lat": 27.0527440802915, "lng": 79.9150527302915}, "southwest": {"lat": 27.0500461197085, "lng": 79.9123547697085}}}, "icon": "https://maps.gstatic.com/mapfiles/place_api/icons/v1/png_71/school-71.png", "icon_background_color": "#7B9EB0", "icon_mask_base_uri": "https://maps.gstatic.com/mapfiles/place_api/icons/v2/school_pinlet", "name": "Aljamiatul Ahmadya", "place_id": "ChIJZaxkkB9vnjkRFnKGIQ4cAfw", "reference": "ChIJZaxkkB9vnjkRFnKGIQ4cAfw", "scope": "GOOGLE", "types": ["school", "point_of_interest", "establishment"], "vicinity": "3W27+HF7, Kannauj"}, {"business_status": "OPERATIONAL", "geometry": {"location": {"lat": 27.0514156, "lng": 79.9136731}, "viewport": {"northeast": {"lat": 27.0527440802915, "lng": 79.9150527302915}, "southwest": {"lat": 27.0500461197085, "lng": 79.9123547697085}}}, "icon": "https://maps.gstatic.com/mapfiles/place_api/icons/v1/png_71/school-71.png", "icon_background_color": "#7B9EB0", "icon_mask_base_uri": "https://maps.gstatic.com/mapfiles/place_api/icons/v2/school_pinlet", "name": "Phoolmati Tempale", "opening_hours": {"open_now": true}, "photos": [{"height": 4160, "html_attributions": ["<a href=\"https://maps.google.com/maps/contrib/103260635687573312794\">Vijay Caowbay</a>"], "photo_reference": "Aap_uEBiGJLx-jmSKv3WkYyFK6Qf5bxdqZxX1xyxYEq94i7cozWd3zxORRKdPrb2sVyOkp9LQQTK6AZDTyEhTaE88SzZS4MpUKQN5_R0EfU06SuvWq3Z1x92BS02lzg6-OYY3MjLs62pt8dXPO1uyEYOcYIS9YRYPqLa_idtpPdAtoCE67V1", "width": 2352}], "place_id": "ChIJVVVVVXlvnjkRMcrhiKvs1E4", "reference": "ChIJVVVVVXlvnjkRMcrhiKvs1E4", "scope": "GOOGLE", "types": ["school", "point_of_interest", "establishment"], "vicinity": "Kannauj"}, {"business_status": "OPERATIONAL", "geometry": {"location": {"lat": 27.0514156, "lng": 79.9136731}, "viewport": {"northeast": {"lat": 27.0527440802915, "lng": 79.9150527302915}, "southwest": {"lat": 27.0500461197085, "lng": 79.9123547697085}}}, "icon": "https://maps.gstatic.com/mapfiles/place_api/icons/v1/png_71/school-71.png", "icon_background_color": "#7B9EB0", "icon_mask_base_uri": "https://maps.gstatic.com/mapfiles/place_api/icons/v2/school_pinlet", "name": "Jasoda", "opening_hours": {"open_now": true}, "photos": [{"height": 1920, "html_attributions": ["<a href=\"https://maps.google.com/maps/contrib/102641055749032376084\">Ajeet Goutam</a>"], "photo_reference": "Aap_uEC9OSC3MxVMRuSMjzXxZNHMHZgP1oYIq_OyPM6gJLSHedUvfW2-hnwN_yHZTtFkq3Q91USNyyp-44W0s6qaKm0LNQfsXwVLCJVahyRh8_KKyq2F3o1g3sZdQwgereUqZ285qGflmZtgPHQCTnxyqUzhRy4Q8zo6tWU-NU43FqzatQAc", "width": 1080}], "place_id": "ChIJVVVVVXlvnjkRbj8RXRadeSo", "rating": 3.7, "reference": "ChIJVVVVVXlvnjkRbj8RXRadeSo", "scope": "GOOGLE", "types": ["school", "point_of_interest", "establishment"], "user_ratings_total": 6, "vicinity": "Mohalla Kazi Tola, Kannauj"}, {"business_status": "OPERATIONAL", "geometry": {"location": {"lat": 27.0514156, "lng": 79.9136731}, "viewport": {"northeast": {"lat": 27.0527440802915, "lng": 79.9150527302915}, "southwest": {"lat": 27.0500461197085, "lng": 79.9123547697085}}}, "icon": "https://maps.gstatic.com/mapfiles/place_api/icons/v1/png_71/school-71.png", "icon_background_color": "#7B9EB0", "icon_mask_base_uri": "https://maps.gstatic.com/mapfiles/place_api/icons/v2/school_pinlet", "name": "S B N Degree College", "place_id": "ChIJVVVVVXlvnjkR6v5SulWNZww", "reference": "ChIJVVVVVXlvnjkR6v5SulWNZww", "scope": "GOOGLE", "types": ["school", "point_of_interest", "establishment"], "vicinity": "Bhugaitapur Road, Mohalla Kazi Tola, Kannauj"}, {"business_status": "OPERATIONAL", "geometry": {"location": {"lat": 27.0518627, "lng": 79.91324019999999}, "viewport": {"northeast": {"lat": 27.0532018302915, "lng": 79.9145503302915}, "southwest": {"lat": 27.05050386970849, "lng": 79.91185236970848}}}, "icon": "https://maps.gstatic.com/mapfiles/place_api/icons/v1/png_71/school-71.png", "icon_background_color": "#7B9EB0", "icon_mask_base_uri": "https://maps.gstatic.com/mapfiles/place_api/icons/v2/school_pinlet", "name": "Soni Paria School", "place_id": "ChIJU5lt-XtvnjkREn-iV_efQk0", "rating": 5, "reference": "ChIJU5lt-XtvnjkREn-iV_efQk0", "scope": "GOOGLE", "types": ["school", "point_of_interest", "establishment"], "user_ratings_total": 1, "vicinity": "3W27+P7X, Kannauj"}], "status": "OK"}