{"html_attributions": [], "results": [{"business_status": "OPERATIONAL", "geometry": {"location": {"lat": 26.9207163, "lng": 79.7194047}, "viewport": {"northeast": {"lat": 26.9221526302915, "lng": 79.7207624802915}, "southwest": {"lat": 26.91945466970849, "lng": 79.71806451970849}}}, "icon": "https://maps.gstatic.com/mapfiles/place_api/icons/v1/png_71/school-71.png", "icon_background_color": "#7B9EB0", "icon_mask_base_uri": "https://maps.gstatic.com/mapfiles/place_api/icons/v2/school_pinlet", "name": "Adarsh prathmik vidyalaya diyora", "place_id": "ChIJ46z5TCYNnjkRExjMg1l_P1E", "plus_code": {"compound_code": "WPC9+7Q Liluiya, Uttar Pradesh, India", "global_code": "7JRXWPC9+7Q"}, "reference": "ChIJ46z5TCYNnjkRExjMg1l_P1E", "scope": "GOOGLE", "types": ["school", "point_of_interest", "establishment"], "vicinity": "Ratanpur Road, Liluiya"}, {"business_status": "OPERATIONAL", "geometry": {"location": {"lat": 26.93345, "lng": 79.7091633}, "viewport": {"northeast": {"lat": 26.93421603029151, "lng": 79.71280155000001}, "southwest": {"lat": 26.93151806970851, "lng": 79.70795054999999}}}, "icon": "https://maps.gstatic.com/mapfiles/place_api/icons/v1/png_71/school-71.png", "icon_background_color": "#7B9EB0", "icon_mask_base_uri": "https://maps.gstatic.com/mapfiles/place_api/icons/v2/school_pinlet", "name": "Prathamik Vodhyalya Dabaha", "opening_hours": {"open_now": false}, "place_id": "ChIJ7-h37McNnjkRy5E2VCpIIVw", "reference": "ChIJ7-h37McNnjkRy5E2VCpIIVw", "scope": "GOOGLE", "types": ["school", "point_of_interest", "establishment"], "vicinity": "WPM5+9MF, Agous"}, {"business_status": "CLOSED_TEMPORARILY", "geometry": {"location": {"lat": 26.9147327, "lng": 79.6965371}, "viewport": {"northeast": {"lat": 26.9160796302915, "lng": 79.69789498029151}, "southwest": {"lat": 26.9133816697085, "lng": 79.69519701970849}}}, "icon": "https://maps.gstatic.com/mapfiles/place_api/icons/v1/png_71/school-71.png", "icon_background_color": "#7B9EB0", "icon_mask_base_uri": "https://maps.gstatic.com/mapfiles/place_api/icons/v2/school_pinlet", "name": "\u0928\u0948\u0915\u093e\u092a\u0941\u0930", "permanently_closed": true, "place_id": "ChIJ55wZpTgNnjkRT79jc95ngzQ", "plus_code": {"compound_code": "WM7W+VJ Rampurmaghil, Uttar Pradesh, India", "global_code": "7JRXWM7W+VJ"}, "reference": "ChIJ55wZpTgNnjkRT79jc95ngzQ", "scope": "GOOGLE", "types": ["school", "point_of_interest", "establishment"], "vicinity": "Naikapur Rampur, majhila"}, {"business_status": "OPERATIONAL", "geometry": {"location": {"lat": 26.92244269999999, "lng": 79.69347909999999}, "viewport": {"northeast": {"lat": 26.9239511802915, "lng": 79.6945721302915}, "southwest": {"lat": 26.9212532197085, "lng": 79.6918741697085}}}, "icon": "https://maps.gstatic.com/mapfiles/place_api/icons/v1/png_71/school-71.png", "icon_background_color": "#7B9EB0", "icon_mask_base_uri": "https://maps.gstatic.com/mapfiles/place_api/icons/v2/school_pinlet", "name": "Gautam Budhha P G College", "opening_hours": {"open_now": false}, "photos": [{"height": 4160, "html_attributions": ["<a href=\"https://maps.google.com/maps/contrib/111065109183583042437\">Nikhil Katiyar</a>"], "photo_reference": "Aap_uEBp72BXCfG2XAI-m3MOBtTOr9GawRZ0vPkWWfR8wiVUws9OBCoZ_DOPC6xu3kVBSoEkNDQuSCOi1AdXuGszRmxGK9rBii4tv-oGA60BYb4_iNOtXY144O2UH6c4p1Zck_ViV7-fS0emMqpTtStAErpX8dOIY84mA-2Pj4hGygkcHAIf", "width": 3120}], "place_id": "ChIJlSX3XFgMnjkRRge4DO6j4mE", "plus_code": {"compound_code": "WMCV+X9 Rampurmaghil, Uttar Pradesh, India", "global_code": "7JRXWMCV+X9"}, "reference": "ChIJlSX3XFgMnjkRRge4DO6j4mE", "scope": "GOOGLE", "types": ["school", "point_of_interest", "establishment"], "vicinity": "Unnamed Road"}], "status": "OK"}