{"html_attributions": [], "results": [{"business_status": "OPERATIONAL", "geometry": {"location": {"lat": 26.9309537, "lng": 79.93082509999999}, "viewport": {"northeast": {"lat": 26.9322332802915, "lng": 79.9321968802915}, "southwest": {"lat": 26.9295353197085, "lng": 79.9294989197085}}}, "icon": "https://maps.gstatic.com/mapfiles/place_api/icons/v1/png_71/school-71.png", "icon_background_color": "#7B9EB0", "icon_mask_base_uri": "https://maps.gstatic.com/mapfiles/place_api/icons/v2/school_pinlet", "name": "\u092a\u094d\u0930\u093e\u0925\u092e\u093f\u0915 \u0938\u094d\u0915\u0942\u0932 \u092e\u0939\u0938\u0948\u092f\u093e\u0902", "photos": [{"height": 480, "html_attributions": ["<a href=\"https://maps.google.com/maps/contrib/113909074305014336605\">Ravi Shuthar</a>"], "photo_reference": "Aap_uEBwYDgvD3F6XdZo36ass6dobnRPs_--AstpD402SrmOhW80pee9DG8bF5nC7MNpKRB_OPQ7fLXR34L3feJYiABQ5xqLj7WQN3W19coFDAN7MiSaftfqPSpMEBZ2SdfUU1F9KLYm8RasWNCAY_PG63VzWj5FZMymzEjIjhhCa7HVYVhw", "width": 480}], "place_id": "ChIJDWbNUG16njkRifMxdxiTeNA", "rating": 5, "reference": "ChIJDWbNUG16njkRifMxdxiTeNA", "scope": "GOOGLE", "types": ["school", "point_of_interest", "establishment"], "user_ratings_total": 2, "vicinity": "WWJJ+98P, Mahsaiyan"}, {"business_status": "OPERATIONAL", "geometry": {"location": {"lat": 26.921498, "lng": 79.91605249999999}, "viewport": {"northeast": {"lat": 26.9226989802915, "lng": 79.91728698029151}, "southwest": {"lat": 26.92000101970849, "lng": 79.91458901970849}}}, "icon": "https://maps.gstatic.com/mapfiles/place_api/icons/v1/png_71/school-71.png", "icon_background_color": "#7B9EB0", "icon_mask_base_uri": "https://maps.gstatic.com/mapfiles/place_api/icons/v2/school_pinlet", "name": "Junior School Of Ballpurwa", "place_id": "ChIJjXZysSpxnjkRHI35Pa8JpvM", "reference": "ChIJjXZysSpxnjkRHI35Pa8JpvM", "scope": "GOOGLE", "types": ["school", "point_of_interest", "establishment"], "vicinity": "WWC8+HCV, Thathiya"}, {"business_status": "OPERATIONAL", "geometry": {"location": {"lat": 26.9315863, "lng": 79.93055330000001}, "viewport": {"northeast": {"lat": 26.9328721802915, "lng": 79.93191183029153}, "southwest": {"lat": 26.9301742197085, "lng": 79.92921386970852}}}, "icon": "https://maps.gstatic.com/mapfiles/place_api/icons/v1/png_71/school-71.png", "icon_background_color": "#7B9EB0", "icon_mask_base_uri": "https://maps.gstatic.com/mapfiles/place_api/icons/v2/school_pinlet", "name": "\u092c\u091c\u0930\u0902\u0917\u092c\u0932\u0940 \u092e\u0902\u0928\u094d\u0926\u093f\u0930", "place_id": "ChIJx6EMX216njkR6aaajXKk_No", "rating": 5, "reference": "ChIJx6EMX216njkR6aaajXKk_No", "scope": "GOOGLE", "types": ["school", "point_of_interest", "establishment"], "user_ratings_total": 1, "vicinity": "WWJJ+J6M, Mahsaiyan"}, {"business_status": "OPERATIONAL", "geometry": {"location": {"lat": 26.9176904, "lng": 79.91378259999999}, "viewport": {"northeast": {"lat": 26.9190791302915, "lng": 79.9151887302915}, "southwest": {"lat": 26.9163811697085, "lng": 79.9124907697085}}}, "icon": "https://maps.gstatic.com/mapfiles/place_api/icons/v1/png_71/school-71.png", "icon_background_color": "#7B9EB0", "icon_mask_base_uri": "https://maps.gstatic.com/mapfiles/place_api/icons/v2/school_pinlet", "name": "Himanshu Internet sevakendra and telicom", "photos": [{"height": 3120, "html_attributions": ["<a href=\"https://maps.google.com/maps/contrib/108671390510507532411\">Drew Doyon</a>"], "photo_reference": "Aap_uECnkU1s-uv1ixtlrdmJvioUoGWXB453u_dV3gG5nuFyYTLYrBOEwJTZXmL4vZ_7UI-ukFgDjlSyN4q0UYan1ZfBkIKT-lLhK6bm9YRviiR6YVqakOlyx5x74DAB08oLp8CeM0PRMyJJJkv_MIAZnZqQdwZO0Sp0cdVgUibXaaGnFL_s", "width": 4160}], "place_id": "ChIJs4Svr-BxnjkRkD-bPBZBHqE", "plus_code": {"compound_code": "WW97+3G Thathiya, Uttar Pradesh, India", "global_code": "7JRXWW97+3G"}, "rating": 4, "reference": "ChIJs4Svr-BxnjkRkD-bPBZBHqE", "scope": "GOOGLE", "types": ["school", "point_of_interest", "establishment"], "user_ratings_total": 2, "vicinity": "Unnamed Road, Thathiya"}], "status": "OK"}