{"html_attributions": [], "results": [{"business_status": "OPERATIONAL", "geometry": {"location": {"lat": 27.055684, "lng": 79.91876789999999}, "viewport": {"northeast": {"lat": 27.0570322802915, "lng": 79.92011653029151}, "southwest": {"lat": 27.0543343197085, "lng": 79.9174185697085}}}, "icon": "https://maps.gstatic.com/mapfiles/place_api/icons/v1/png_71/school-71.png", "icon_background_color": "#7B9EB0", "icon_mask_base_uri": "https://maps.gstatic.com/mapfiles/place_api/icons/v2/school_pinlet", "name": "\u092a\u094d\u0930\u093e\u0925\u092e\u093f\u0915 \u0935\u093f\u0927\u093e\u0932\u092f \u092c\u093e\u091c\u093e\u0930 \u0915\u0932\u093e \u0915\u0928\u094d\u0928\u094c\u091c", "place_id": "ChIJ-aF0cuVvnjkRhtzTgLLmkWk", "reference": "ChIJ-aF0cuVvnjkRhtzTgLLmkWk", "scope": "GOOGLE", "types": ["school", "point_of_interest", "establishment"], "vicinity": "3W49+7GC, Safdarganj, Kannauj"}, {"business_status": "OPERATIONAL", "geometry": {"location": {"lat": 27.0556306, "lng": 79.91878}, "viewport": {"northeast": {"lat": 27.0569614802915, "lng": 79.92011963029151}, "southwest": {"lat": 27.0542635197085, "lng": 79.91742166970849}}}, "icon": "https://maps.gstatic.com/mapfiles/place_api/icons/v1/png_71/school-71.png", "icon_background_color": "#7B9EB0", "icon_mask_base_uri": "https://maps.gstatic.com/mapfiles/place_api/icons/v2/school_pinlet", "name": "Kaindriya Prathmic Vidhayala Bazarkla", "place_id": "ChIJVdSbqp5vnjkRU_OjmDzy1-Q", "reference": "ChIJVdSbqp5vnjkRU_OjmDzy1-Q", "scope": "GOOGLE", "types": ["school", "point_of_interest", "establishment"], "vicinity": "3W49+7G2, Safdarganj, Kannauj"}, {"business_status": "OPERATIONAL", "geometry": {"location": {"lat": 27.05217, "lng": 79.92627499999999}, "viewport": {"northeast": {"lat": 27.05347973029151, "lng": 79.9276277802915}, "southwest": {"lat": 27.0507817697085, "lng": 79.9249298197085}}}, "icon": "https://maps.gstatic.com/mapfiles/place_api/icons/v1/png_71/school-71.png", "icon_background_color": "#7B9EB0", "icon_mask_base_uri": "https://maps.gstatic.com/mapfiles/place_api/icons/v2/school_pinlet", "name": "S.G.T.I. BHABAN", "photos": [{"height": 4000, "html_attributions": ["<a href=\"https://maps.google.com/maps/contrib/101526821264982292637\">Asad Khan</a>"], "photo_reference": "Aap_uEBoVfelf-0wEjuRNbcQtzebOx6GlzTZRe275gliGTATy4-XL85PPtx67NQGPXqBxH-AqgnB0Msu8QJd4WLwuqNVZgVNyB0xm12M5P3UBZO5F6pAyoDJoQ6l0zxwgIbtybct03WipGicMmgAhmGiMwiawpiq39fAwmAR8aTROQ1e0hCH", "width": 6000}], "place_id": "ChIJ5QzTioNlnjkRr_gWtpoN6P8", "rating": 5, "reference": "ChIJ5QzTioNlnjkRr_gWtpoN6P8", "scope": "GOOGLE", "types": ["school", "point_of_interest", "establishment"], "user_ratings_total": 1, "vicinity": "3W2G+VG6, Kannauj Kach"}, {"business_status": "OPERATIONAL", "geometry": {"location": {"lat": 27.0561807, "lng": 79.918049}, "viewport": {"northeast": {"lat": 27.0576094302915, "lng": 79.9190786302915}, "southwest": {"lat": 27.0549114697085, "lng": 79.91638066970849}}}, "icon": "https://maps.gstatic.com/mapfiles/place_api/icons/v1/png_71/shopping-71.png", "icon_background_color": "#4B96F3", "icon_mask_base_uri": "https://maps.gstatic.com/mapfiles/place_api/icons/v2/shopping_pinlet", "name": "Id Card Maker & Supplier", "opening_hours": {"open_now": true}, "photos": [{"height": 960, "html_attributions": ["<a href=\"https://maps.google.com/maps/contrib/107630422918964078942\">Id Card Maker &amp; Supplier</a>"], "photo_reference": "Aap_uEBRUzlM2U3B_ZLrdmBZ-gAKwdsJH9JXaJHpP8wzsX7HtuO7u0ieVrxPdatAHOpZc_9MGtwxl-4KR1eNDuSiAUvFsDkuA5EZP-cdV1w_lH3UJDauEr3mlnm-9pk7pWdU35z2Y12agvLF6YGfLbSkjbYBrCA9_HT6By7nJpX3EfYvHq0t", "width": 721}], "place_id": "ChIJPx39Ty5vnjkRMvCsggeOLmw", "plus_code": {"compound_code": "3W49+F6 Kannauj, Uttar Pradesh, India", "global_code": "7JVX3W49+F6"}, "rating": 5, "reference": "ChIJPx39Ty5vnjkRMvCsggeOLmw", "scope": "GOOGLE", "types": ["school", "point_of_interest", "clothing_store", "store", "establishment"], "user_ratings_total": 1, "vicinity": "near Lakhan tiraha Shankar Sweets Shop, Opposite Canara Bank (Old syndicate Bank, near Lakhan tiraha Shankar Sweets Shop, Ajaypal Road, Kannauj"}, {"business_status": "OPERATIONAL", "geometry": {"location": {"lat": 27.0541693, "lng": 79.9197114}, "viewport": {"northeast": {"lat": 27.0555119802915, "lng": 79.9210575302915}, "southwest": {"lat": 27.0528140197085, "lng": 79.91835956970849}}}, "icon": "https://maps.gstatic.com/mapfiles/place_api/icons/v1/png_71/school-71.png", "icon_background_color": "#7B9EB0", "icon_mask_base_uri": "https://maps.gstatic.com/mapfiles/place_api/icons/v2/school_pinlet", "name": "Saraswati gyan mandir jr high school", "opening_hours": {"open_now": false}, "place_id": "ChIJKacSe4dlnjkRpggt3zp4p64", "plus_code": {"compound_code": "3W39+MV Kannauj, Uttar Pradesh, India", "global_code": "7JVX3W39+MV"}, "reference": "ChIJKacSe4dlnjkRpggt3zp4p64", "scope": "GOOGLE", "types": ["school", "point_of_interest", "establishment"], "vicinity": "chauhatta, Kannauj"}, {"business_status": "OPERATIONAL", "geometry": {"location": {"lat": 27.051869, "lng": 79.928557}, "viewport": {"northeast": {"lat": 27.0532249302915, "lng": 79.93003813029149}, "southwest": {"lat": 27.0505269697085, "lng": 79.92734016970849}}}, "icon": "https://maps.gstatic.com/mapfiles/place_api/icons/v1/png_71/school-71.png", "icon_background_color": "#7B9EB0", "icon_mask_base_uri": "https://maps.gstatic.com/mapfiles/place_api/icons/v2/school_pinlet", "name": "Arshad Noori", "place_id": "ChIJvT8c019lnjkRcSfSkZcHrg4", "plus_code": {"compound_code": "3W2H+PC Kannauj, Uttar Pradesh, India", "global_code": "7JVX3W2H+PC"}, "reference": "ChIJvT8c019lnjkRcSfSkZcHrg4", "scope": "GOOGLE", "types": ["primary_school", "school", "point_of_interest", "establishment"], "vicinity": "mohalla shekhana"}, {"business_status": "OPERATIONAL", "geometry": {"location": {"lat": 27.0518164, "lng": 79.9251398}, "viewport": {"northeast": {"lat": 27.0532801302915, "lng": 79.9265270302915}, "southwest": {"lat": 27.05058216970849, "lng": 79.92382906970849}}}, "icon": "https://maps.gstatic.com/mapfiles/place_api/icons/v1/png_71/school-71.png", "icon_background_color": "#7B9EB0", "icon_mask_base_uri": "https://maps.gstatic.com/mapfiles/place_api/icons/v2/school_pinlet", "name": "Humaira Girls Inter College", "place_id": "ChIJy1gW_INlnjkRl6sZfsxPWpA", "plus_code": {"compound_code": "3W2G+P3 Kannauj, Uttar Pradesh, India", "global_code": "7JVX3W2G+P3"}, "rating": 3.3, "reference": "ChIJy1gW_INlnjkRl6sZfsxPWpA", "scope": "GOOGLE", "types": ["school", "point_of_interest", "establishment"], "user_ratings_total": 4, "vicinity": "humaira girls inter college"}, {"business_status": "OPERATIONAL", "geometry": {"location": {"lat": 27.0560827, "lng": 79.91744249999999}, "viewport": {"northeast": {"lat": 27.0574370802915, "lng": 79.9187494302915}, "southwest": {"lat": 27.0547391197085, "lng": 79.91605146970849}}}, "icon": "https://maps.gstatic.com/mapfiles/place_api/icons/v1/png_71/school-71.png", "icon_background_color": "#7B9EB0", "icon_mask_base_uri": "https://maps.gstatic.com/mapfiles/place_api/icons/v2/school_pinlet", "name": "\u091c\u093f\u092f\u093e \u090f\u0915\u0947\u0921\u092e\u0940", "place_id": "ChIJ7cwawwRvnjkRq3U-IRsDR-I", "reference": "ChIJ7cwawwRvnjkRq3U-IRsDR-I", "scope": "GOOGLE", "types": ["school", "point_of_interest", "establishment"], "vicinity": "3W48+CXP, Safdarganj, Kannauj"}, {"business_status": "OPERATIONAL", "geometry": {"location": {"lat": 27.054801, "lng": 79.918229}, "viewport": {"northeast": {"lat": 27.0562045302915, "lng": 79.9195958802915}, "southwest": {"lat": 27.0535065697085, "lng": 79.91689791970849}}}, "icon": "https://maps.gstatic.com/mapfiles/place_api/icons/v1/png_71/school-71.png", "icon_background_color": "#7B9EB0", "icon_mask_base_uri": "https://maps.gstatic.com/mapfiles/place_api/icons/v2/school_pinlet", "name": "Genius Institute 2", "place_id": "ChIJV1d4dn1vnjkRr6wEugPiads", "reference": "ChIJV1d4dn1vnjkRr6wEugPiads", "scope": "GOOGLE", "types": ["school", "point_of_interest", "establishment"], "vicinity": "3W39+W7H, Safdarganj, Kannauj"}, {"business_status": "OPERATIONAL", "geometry": {"location": {"lat": 27.0509983, "lng": 79.9276095}, "viewport": {"northeast": {"lat": 27.0522198302915, "lng": 79.9288960802915}, "southwest": {"lat": 27.0495218697085, "lng": 79.92619811970849}}}, "icon": "https://maps.gstatic.com/mapfiles/place_api/icons/v1/png_71/school-71.png", "icon_background_color": "#7B9EB0", "icon_mask_base_uri": "https://maps.gstatic.com/mapfiles/place_api/icons/v2/school_pinlet", "name": "Humaira Milly Girls Inter College", "photos": [{"height": 1280, "html_attributions": ["<a href=\"https://maps.google.com/maps/contrib/110981566974545352840\">Tauqeer Khan</a>"], "photo_reference": "Aap_uECjkubxbAx6xsqZgkDZu6-rLUs6OfEJtn-bYUKTNGH14jzR3s1Qw_bdwYPMYKKxNgO53UXwJxHQp9r2rbml68_rh-vrPR0BHjWwb5pwP4fMp4hxkWT0ZSpyrK4Se8MhMyBaKUV3eyuSS6zO3eFjCy7NK6AYhelhB6HFBi3ma5-988-H", "width": 853}], "place_id": "ChIJR6rxn4NlnjkRl7u3DBhY8EE", "plus_code": {"compound_code": "3W2H+92 Kannauj, Uttar Pradesh, India", "global_code": "7JVX3W2H+92"}, "rating": 4.4, "reference": "ChIJR6rxn4NlnjkRl7u3DBhY8EE", "scope": "GOOGLE", "types": ["school", "point_of_interest", "establishment"], "user_ratings_total": 5, "vicinity": "makhdoom jahania road kannquj"}, {"business_status": "OPERATIONAL", "geometry": {"location": {"lat": 27.0552905, "lng": 79.9171648}, "viewport": {"northeast": {"lat": 27.0566423302915, "lng": 79.9185040802915}, "southwest": {"lat": 27.0539443697085, "lng": 79.91580611970849}}}, "icon": "https://maps.gstatic.com/mapfiles/place_api/icons/v1/png_71/school-71.png", "icon_background_color": "#7B9EB0", "icon_mask_base_uri": "https://maps.gstatic.com/mapfiles/place_api/icons/v2/school_pinlet", "name": "\u0930\u093e\u0908 \u092e\u0941\u0938\u094d\u0932\u093f\u092e \u0938\u094d\u0915\u0942\u0932", "place_id": "ChIJlT4HWnNvnjkReUGCYs7r0a8", "plus_code": {"compound_code": "3W48+4V Kannauj, Uttar Pradesh, India", "global_code": "7JVX3W48+4V"}, "reference": "ChIJlT4HWnNvnjkReUGCYs7r0a8", "scope": "GOOGLE", "types": ["school", "point_of_interest", "establishment"], "vicinity": "Unnamed Road, \u0938\u092b\u0926\u0930\u0917\u0902\u091c, \u0915\u0928\u094d\u0928\u094c\u091c"}, {"business_status": "OPERATIONAL", "geometry": {"location": {"lat": 27.0511514, "lng": 79.9292768}, "viewport": {"northeast": {"lat": 27.0524294302915, "lng": 79.9306491802915}, "southwest": {"lat": 27.0497314697085, "lng": 79.92795121970849}}}, "icon": "https://maps.gstatic.com/mapfiles/place_api/icons/v1/png_71/school-71.png", "icon_background_color": "#7B9EB0", "icon_mask_base_uri": "https://maps.gstatic.com/mapfiles/place_api/icons/v2/school_pinlet", "name": "Shahbaz Shamim", "opening_hours": {"open_now": true}, "place_id": "ChIJwWrMstZlnjkRp8HxcajMx2I", "reference": "ChIJwWrMstZlnjkRp8HxcajMx2I", "scope": "GOOGLE", "types": ["school", "point_of_interest", "establishment"], "vicinity": "3W2H+FP6, Kannauj"}, {"business_status": "OPERATIONAL", "geometry": {"location": {"lat": 27.0580034, "lng": 79.9154087}, "viewport": {"northeast": {"lat": 27.0593518302915, "lng": 79.91675978029151}, "southwest": {"lat": 27.0566538697085, "lng": 79.9140618197085}}}, "icon": "https://maps.gstatic.com/mapfiles/place_api/icons/v1/png_71/school-71.png", "icon_background_color": "#7B9EB0", "icon_mask_base_uri": "https://maps.gstatic.com/mapfiles/place_api/icons/v2/school_pinlet", "name": "Darul Uloom Imam Ahmad Raza", "photos": [{"height": 2448, "html_attributions": ["<a href=\"https://maps.google.com/maps/contrib/117228632132737162013\">Hasnain Raza</a>"], "photo_reference": "Aap_uEAzTiSffltCz8aYZ6xaWW_Q8PcOIfjjmUWDLpdTM9Y-BvIcLAG4C7K09OSDsyV7yubg1Vlcl_AuoVwWC_HUj_idSfZE2hKDZvvHByJcFa1d7IPbYCYQwUVH2esGXlF1n00YkgCTvLu7nlgmdXZgEhzYR-cAzTlGDeQypo5H_A0s6_DJ", "width": 3264}], "place_id": "ChIJJWZKN2NvnjkRxoEkxAPwjFE", "plus_code": {"compound_code": "3W58+65 Kannauj, Uttar Pradesh, India", "global_code": "7JVX3W58+65"}, "rating": 5, "reference": "ChIJJWZKN2NvnjkRxoEkxAPwjFE", "scope": "GOOGLE", "types": ["school", "point_of_interest", "establishment"], "user_ratings_total": 2, "vicinity": "Safdarganj, Kannauj"}, {"business_status": "OPERATIONAL", "geometry": {"location": {"lat": 27.0552009, "lng": 79.91715959999999}, "viewport": {"northeast": {"lat": 27.0565421302915, "lng": 79.9185396302915}, "southwest": {"lat": 27.05384416970849, "lng": 79.9158416697085}}}, "icon": "https://maps.gstatic.com/mapfiles/place_api/icons/v1/png_71/school-71.png", "icon_background_color": "#7B9EB0", "icon_mask_base_uri": "https://maps.gstatic.com/mapfiles/place_api/icons/v2/school_pinlet", "name": "Hardev Ganj Chauraha", "place_id": "ChIJ5QZhBX1vnjkRX069mTrZ1Eg", "plus_code": {"compound_code": "3W48+3V Kannauj, Uttar Pradesh, India", "global_code": "7JVX3W48+3V"}, "rating": 4, "reference": "ChIJ5QZhBX1vnjkRX069mTrZ1Eg", "scope": "GOOGLE", "types": ["school", "point_of_interest", "establishment"], "user_ratings_total": 3, "vicinity": "Sankat Mochan Dham Hardev Baba Mandir Road HardevGanj, Kannauj"}, {"business_status": "OPERATIONAL", "geometry": {"location": {"lat": 27.0613564, "lng": 79.9397977}, "viewport": {"northeast": {"lat": 27.0626140802915, "lng": 79.94120678029151}, "southwest": {"lat": 27.0599161197085, "lng": 79.9385088197085}}}, "icon": "https://maps.gstatic.com/mapfiles/place_api/icons/v1/png_71/school-71.png", "icon_background_color": "#7B9EB0", "icon_mask_base_uri": "https://maps.gstatic.com/mapfiles/place_api/icons/v2/school_pinlet", "name": "Porv Madhymik Vidyalaya Arangapur", "place_id": "ChIJzWIgvp5lnjkRizfUa9KxMto", "rating": 1, "reference": "ChIJzWIgvp5lnjkRizfUa9KxMto", "scope": "GOOGLE", "types": ["school", "point_of_interest", "establishment"], "user_ratings_total": 1, "vicinity": "3W6Q+GWV, Dariapurpatt"}, {"business_status": "OPERATIONAL", "geometry": {"location": {"lat": 27.0613934, "lng": 79.9398645}, "viewport": {"northeast": {"lat": 27.0626502802915, "lng": 79.9412740802915}, "southwest": {"lat": 27.0599523197085, "lng": 79.93857611970849}}}, "icon": "https://maps.gstatic.com/mapfiles/place_api/icons/v1/png_71/school-71.png", "icon_background_color": "#7B9EB0", "icon_mask_base_uri": "https://maps.gstatic.com/mapfiles/place_api/icons/v2/school_pinlet", "name": "Arangapur Vidhalya", "place_id": "ChIJfY778qNlnjkR4SuhS5qGX88", "reference": "ChIJfY778qNlnjkR4SuhS5qGX88", "scope": "GOOGLE", "types": ["school", "point_of_interest", "establishment"], "vicinity": "3W6Q+HW5, Dariapurpatt"}, {"business_status": "OPERATIONAL", "geometry": {"location": {"lat": 27.0551966, "lng": 79.9165771}, "viewport": {"northeast": {"lat": 27.0566162302915, "lng": 79.91793273029151}, "southwest": {"lat": 27.0539182697085, "lng": 79.9152347697085}}}, "icon": "https://maps.gstatic.com/mapfiles/place_api/icons/v1/png_71/school-71.png", "icon_background_color": "#7B9EB0", "icon_mask_base_uri": "https://maps.gstatic.com/mapfiles/place_api/icons/v2/school_pinlet", "name": "j p girls int college", "photos": [{"height": 3264, "html_attributions": ["<a href=\"https://maps.google.com/maps/contrib/104671031432418202748\">Technical Word</a>"], "photo_reference": "Aap_uEDEE3CobTMAtYiRiKDrzUvKog2hxmxaPDcBZXKFob8pwBakrXja7Qff0VHStqQ5zhfU_LmYwYdKMyPlWVeSqOF6ehd-E5aVEMHQEZeMxic8kSRs-KviN4Rx-nBJO-QffSzd6G_Q9qGd3SEecrmI1PNLYLA32xHSUeqWp1LxMzUHgSOT", "width": 2448}], "place_id": "ChIJF6TIxoVvnjkRVKSnMuSi9YQ", "rating": 3, "reference": "ChIJF6TIxoVvnjkRVKSnMuSi9YQ", "scope": "GOOGLE", "types": ["school", "point_of_interest", "establishment"], "user_ratings_total": 4, "vicinity": "3W48+3JG, Safdarganj, Kannauj"}, {"business_status": "OPERATIONAL", "geometry": {"location": {"lat": 27.0508358, "lng": 79.922073}, "viewport": {"northeast": {"lat": 27.0521580302915, "lng": 79.92342003029151}, "southwest": {"lat": 27.04946006970849, "lng": 79.92072206970849}}}, "icon": "https://maps.gstatic.com/mapfiles/place_api/icons/v1/png_71/school-71.png", "icon_background_color": "#7B9EB0", "icon_mask_base_uri": "https://maps.gstatic.com/mapfiles/place_api/icons/v2/school_pinlet", "name": "M.P. Memorial School", "opening_hours": {"open_now": false}, "place_id": "ChIJN_KfIIFlnjkRuM3avfmoepM", "rating": 2.3, "reference": "ChIJN_KfIIFlnjkRuM3avfmoepM", "scope": "GOOGLE", "types": ["school", "point_of_interest", "establishment"], "user_ratings_total": 3, "vicinity": "3W2C+8RP, Mohalla Kazi Tola, Kannauj"}, {"business_status": "OPERATIONAL", "geometry": {"location": {"lat": 27.0499999, "lng": 79.92918019999999}, "viewport": {"northeast": {"lat": 27.0513300302915, "lng": 79.9304770302915}, "southwest": {"lat": 27.0486320697085, "lng": 79.92777906970848}}}, "icon": "https://maps.gstatic.com/mapfiles/place_api/icons/v1/png_71/school-71.png", "icon_background_color": "#7B9EB0", "icon_mask_base_uri": "https://maps.gstatic.com/mapfiles/place_api/icons/v2/school_pinlet", "name": "P.s Shekhana", "place_id": "ChIJa8I3UAFlnjkRVadyznAs8gU", "plus_code": {"compound_code": "2WXH+XM Kannauj, Uttar Pradesh, India", "global_code": "7JVX2WXH+XM"}, "rating": 5, "reference": "ChIJa8I3UAFlnjkRVadyznAs8gU", "scope": "GOOGLE", "types": ["school", "point_of_interest", "establishment"], "user_ratings_total": 1, "vicinity": "Unnamed Road, Kannauj"}, {"business_status": "OPERATIONAL", "geometry": {"location": {"lat": 27.0568282, "lng": 79.91437309999999}, "viewport": {"northeast": {"lat": 27.0581369802915, "lng": 79.91560323029151}, "southwest": {"lat": 27.0554390197085, "lng": 79.91290526970849}}}, "icon": "https://maps.gstatic.com/mapfiles/place_api/icons/v1/png_71/school-71.png", "icon_background_color": "#7B9EB0", "icon_mask_base_uri": "https://maps.gstatic.com/mapfiles/place_api/icons/v2/school_pinlet", "name": "Nobel Hearts Public School", "opening_hours": {"open_now": false}, "photos": [{"height": 1280, "html_attributions": ["<a href=\"https://maps.google.com/maps/contrib/115459472648326079000\">Superb_collection_786 superb clothes</a>"], "photo_reference": "Aap_uEBlrZVIwBBl5bZuQva9CAPKZykY-TXEuKf3waQUOjyjx-7bU3s_JtQ2reobQav1Q5a8I3LlhOBXlyy3sNZavCljsXFDX1kPtE9yzE9y4K7cQILjZUXMSQcZo_prO6dfB8vwZDwgcpYTPwaQIzGGnGzDdaNIbXcvZpDs2a_LwUZ4I2rw", "width": 914}], "place_id": "ChIJ4fXfsXxvnjkRwTJHrVlwx_w", "rating": 4.2, "reference": "ChIJ4fXfsXxvnjkRwTJHrVlwx_w", "scope": "GOOGLE", "types": ["school", "point_of_interest", "establishment"], "user_ratings_total": 19, "vicinity": "3W47+PPQ, Safdarganj, Kannauj"}], "status": "OK"}