{"html_attributions": [], "results": [{"business_status": "OPERATIONAL", "geometry": {"location": {"lat": 27.301009, "lng": 79.9404529}, "viewport": {"northeast": {"lat": 27.3026874302915, "lng": 79.9413763302915}, "southwest": {"lat": 27.2999894697085, "lng": 79.9386783697085}}}, "icon": "https://maps.gstatic.com/mapfiles/place_api/icons/v1/png_71/school-71.png", "icon_background_color": "#7B9EB0", "icon_mask_base_uri": "https://maps.gstatic.com/mapfiles/place_api/icons/v2/school_pinlet", "name": "Primary School Sadiyamu Lakhnpurva", "place_id": "ChIJ2baaY7FbnjkRptWubF_4hcw", "reference": "ChIJ2baaY7FbnjkRptWubF_4hcw", "scope": "GOOGLE", "types": ["school", "point_of_interest", "establishment"], "vicinity": "8W2R+C54, Sathiya Mau Sisala"}, {"business_status": "OPERATIONAL", "geometry": {"location": {"lat": 27.2972505, "lng": 79.9542438}, "viewport": {"northeast": {"lat": 27.29889968029151, "lng": 79.95754035}, "southwest": {"lat": 27.2962017197085, "lng": 79.95314495000001}}}, "icon": "https://maps.gstatic.com/mapfiles/place_api/icons/v1/png_71/school-71.png", "icon_background_color": "#7B9EB0", "icon_mask_base_uri": "https://maps.gstatic.com/mapfiles/place_api/icons/v2/school_pinlet", "name": "Sachin Tendulkar", "place_id": "ChIJlTVY1CpbnjkRVji4eA6P_MY", "reference": "ChIJlTVY1CpbnjkRVji4eA6P_MY", "scope": "GOOGLE", "types": ["school", "point_of_interest", "establishment"], "vicinity": "7XW3+WM5, Bhaurajpur"}, {"business_status": "OPERATIONAL", "geometry": {"location": {"lat": 27.2946851, "lng": 79.93885709999999}, "viewport": {"northeast": {"lat": 27.29784755, "lng": 79.94160000000001}, "southwest": {"lat": 27.29363095, "lng": 79.9379428}}}, "icon": "https://maps.gstatic.com/mapfiles/place_api/icons/v1/png_71/school-71.png", "icon_background_color": "#7B9EB0", "icon_mask_base_uri": "https://maps.gstatic.com/mapfiles/place_api/icons/v2/school_pinlet", "name": "\u092a\u094d\u0930\u093e\u0907\u092e\u0930\u0940 \u0938\u094d\u0915\u0942\u0932 \u0938\u0920\u093f\u092f\u093e\u092e\u090a \u0916\u093e\u0938", "place_id": "ChIJ91-NobNbnjkRubsP958iLHA", "reference": "ChIJ91-NobNbnjkRubsP958iLHA", "scope": "GOOGLE", "types": ["school", "point_of_interest", "establishment"], "vicinity": "7WVQ+VGH, Sathiya Mau Sisala"}, {"business_status": "OPERATIONAL", "geometry": {"location": {"lat": 27.290103, "lng": 79.95080999999999}, "viewport": {"northeast": {"lat": 27.29145383029151, "lng": 79.9521859302915}, "southwest": {"lat": 27.2887558697085, "lng": 79.9494879697085}}}, "icon": "https://maps.gstatic.com/mapfiles/place_api/icons/v1/png_71/school-71.png", "icon_background_color": "#7B9EB0", "icon_mask_base_uri": "https://maps.gstatic.com/mapfiles/place_api/icons/v2/school_pinlet", "name": "Madrsa Anas Bin Malik Na wabganj Sandi", "opening_hours": {"open_now": false}, "photos": [{"height": 754, "html_attributions": ["<a href=\"https://maps.google.com/maps/contrib/102425980543122969029\">Mohd Azim</a>"], "photo_reference": "Aap_uEC1SZIvGGwpUuz55Q2WfkaDnKhun5wF4qnOBYSAwwG3-yLVjDf7k-b15UYmx-waogqNIMur7_yveO4gqo8xTcl6ujApFr3vTob_vSfNuLh0_xpQn6jJf0LWspe3-R_-gA3PMGqXF1B7f6eNEoxub7lssLv2ORQG8KFrG9ej9QXLxK9G", "width": 1016}], "place_id": "ChIJBchYG2VbnjkR5tZDXG6E-MU", "rating": 5, "reference": "ChIJBchYG2VbnjkR5tZDXG6E-MU", "scope": "GOOGLE", "types": ["school", "point_of_interest", "establishment"], "user_ratings_total": 2, "vicinity": "7XR2+28V, Sandi"}, {"business_status": "OPERATIONAL", "geometry": {"location": {"lat": 27.2901548, "lng": 79.9516799}, "viewport": {"northeast": {"lat": 27.2914635802915, "lng": 79.95311453029151}, "southwest": {"lat": 27.2887656197085, "lng": 79.95041656970851}}}, "icon": "https://maps.gstatic.com/mapfiles/place_api/icons/v1/png_71/school-71.png", "icon_background_color": "#7B9EB0", "icon_mask_base_uri": "https://maps.gstatic.com/mapfiles/place_api/icons/v2/school_pinlet", "name": "Shishu Vidya Mandir School Sandi Hardoi", "opening_hours": {"open_now": true}, "place_id": "ChIJq7HHcTxbnjkRFHONtzDMtl4", "plus_code": {"compound_code": "7XR2+3M Sandi, Uttar Pradesh, India", "global_code": "7JVX7XR2+3M"}, "rating": 5, "reference": "ChIJq7HHcTxbnjkRFHONtzDMtl4", "scope": "GOOGLE", "types": ["school", "point_of_interest", "establishment"], "user_ratings_total": 1, "vicinity": "Saiyedwada, Sandi"}, {"geometry": {"location": {"lat": 27.2902233, "lng": 79.9519272}, "viewport": {"northeast": {"lat": 27.29154498747303, "lng": 79.95325689257118}, "southwest": {"lat": 27.28884702689002, "lng": 79.95055893198816}}}, "icon": "https://maps.gstatic.com/mapfiles/place_api/icons/v1/png_71/school-71.png", "icon_background_color": "#7B9EB0", "icon_mask_base_uri": "https://maps.gstatic.com/mapfiles/place_api/icons/v2/school_pinlet", "name": "Shisu Vidhya Mandir Primary School", "place_id": "ChIJO9snJGVbnjkRJ8UHOH5yvHU", "reference": "ChIJO9snJGVbnjkRJ8UHOH5yvHU", "scope": "GOOGLE", "types": ["school", "premise", "establishment"], "vicinity": "Sandi"}], "status": "OK"}