{"html_attributions": [], "results": [{"business_status": "OPERATIONAL", "geometry": {"location": {"lat": 27.02632209999999, "lng": 79.96209999999999}, "viewport": {"northeast": {"lat": 27.0278217302915, "lng": 79.9635627802915}, "southwest": {"lat": 27.0251237697085, "lng": 79.96086481970849}}}, "icon": "https://maps.gstatic.com/mapfiles/place_api/icons/v1/png_71/school-71.png", "icon_background_color": "#7B9EB0", "icon_mask_base_uri": "https://maps.gstatic.com/mapfiles/place_api/icons/v2/school_pinlet", "name": "P S Chaurachandpur", "photos": [{"height": 2340, "html_attributions": ["<a href=\"https://maps.google.com/maps/contrib/112858086775747263409\">Dr. Ashvani kumar</a>"], "photo_reference": "Aap_uECMHT0Knx5mKoEfR47sy7QktNcs7dRrF-2HkJrBp8ZhUz_VM0UrFvzBATpzXft-xeVhoeHe7KLwO9Pf4TWzdlLfho5BN1DU7hkO39eCaqoRryCPdwcgmAyL4YUgogBSxylO2tcHKQe1FZRO0vp5aoqYUGhSApS7xHZ7LoQOCMTY2jgo", "width": 1080}], "place_id": "ChIJK8BGdpFlnjkRDBQPMRhzyVs", "rating": 5, "reference": "ChIJK8BGdpFlnjkRDBQPMRhzyVs", "scope": "GOOGLE", "types": ["primary_school", "school", "point_of_interest", "establishment"], "user_ratings_total": 1, "vicinity": "2XG6+GRH, Chaura Chand"}, {"business_status": "OPERATIONAL", "geometry": {"location": {"lat": 27.0193011, "lng": 79.9605444}, "viewport": {"northeast": {"lat": 27.02055423029151, "lng": 79.9618477302915}, "southwest": {"lat": 27.0178562697085, "lng": 79.95914976970849}}}, "icon": "https://maps.gstatic.com/mapfiles/place_api/icons/v1/png_71/school-71.png", "icon_background_color": "#7B9EB0", "icon_mask_base_uri": "https://maps.gstatic.com/mapfiles/place_api/icons/v2/school_pinlet", "name": "Nesnal Public School", "place_id": "ChIJMdWBQOFlnjkRXN5naiRNgAk", "rating": 4, "reference": "ChIJMdWBQOFlnjkRXN5naiRNgAk", "scope": "GOOGLE", "types": ["school", "point_of_interest", "establishment"], "user_ratings_total": 1, "vicinity": "2X96+P6F, Bharhar"}, {"business_status": "OPERATIONAL", "geometry": {"location": {"lat": 27.01771759999999, "lng": 79.9616427}, "viewport": {"northeast": {"lat": 27.0191061302915, "lng": 79.96306758029151}, "southwest": {"lat": 27.01640816970849, "lng": 79.9603696197085}}}, "icon": "https://maps.gstatic.com/mapfiles/place_api/icons/v1/png_71/school-71.png", "icon_background_color": "#7B9EB0", "icon_mask_base_uri": "https://maps.gstatic.com/mapfiles/place_api/icons/v2/school_pinlet", "name": "md dawood raza uvesi", "opening_hours": {"open_now": false}, "place_id": "ChIJTXOxBCdlnjkRBweLVqhNtMQ", "plus_code": {"compound_code": "2X96+3M Kannauj, Uttar Pradesh, India", "global_code": "7JVX2X96+3M"}, "rating": 3, "reference": "ChIJTXOxBCdlnjkRBweLVqhNtMQ", "scope": "GOOGLE", "types": ["school", "point_of_interest", "establishment"], "user_ratings_total": 4, "vicinity": "madharpur jila, Kannauj"}, {"business_status": "OPERATIONAL", "geometry": {"location": {"lat": 27.0184341, "lng": 79.9600055}, "viewport": {"northeast": {"lat": 27.0197802802915, "lng": 79.9613561302915}, "southwest": {"lat": 27.0170823197085, "lng": 79.9586581697085}}}, "icon": "https://maps.gstatic.com/mapfiles/place_api/icons/v1/png_71/school-71.png", "icon_background_color": "#7B9EB0", "icon_mask_base_uri": "https://maps.gstatic.com/mapfiles/place_api/icons/v2/school_pinlet", "name": "Junior School", "photos": [{"height": 1840, "html_attributions": ["<a href=\"https://maps.google.com/maps/contrib/115949670341759446615\">Shaban Khan</a>"], "photo_reference": "Aap_uECloWQdGOKY6WFI9PvJSf4eUdo4904EL_y0lpfd7rJ0tpqDgds-Pg-7LSYdGDMIkxymD1NxPEnh04KWVhBav0nMJIWlpi3-xn9Ta_cSzlUueD4zipmfYD6b27GUCrACbB6fLY_Tn9DcRRSr7p4u4DqT2fK9ofC9Xwjubr9umoZOt25r", "width": 3264}], "place_id": "ChIJHb2QHytlnjkRk32FcljH8Fw", "plus_code": {"compound_code": "2X96+92 Bharhar, Uttar Pradesh, India", "global_code": "7JVX2X96+92"}, "reference": "ChIJHb2QHytlnjkRk32FcljH8Fw", "scope": "GOOGLE", "types": ["school", "point_of_interest", "establishment"], "vicinity": "Unnamed Road, Bharhar"}, {"business_status": "OPERATIONAL", "geometry": {"location": {"lat": 27.0154563, "lng": 79.9703269}, "viewport": {"northeast": {"lat": 27.0169545302915, "lng": 79.9714557802915}, "southwest": {"lat": 27.0142565697085, "lng": 79.96875781970849}}}, "icon": "https://maps.gstatic.com/mapfiles/place_api/icons/v1/png_71/school-71.png", "icon_background_color": "#7B9EB0", "icon_mask_base_uri": "https://maps.gstatic.com/mapfiles/place_api/icons/v2/school_pinlet", "name": "Mirza Bhai", "place_id": "ChIJ3SSL9hRlnjkRFQQsbP3VjqQ", "reference": "ChIJ3SSL9hRlnjkRFQQsbP3VjqQ", "scope": "GOOGLE", "types": ["school", "point_of_interest", "establishment"], "vicinity": "2X8C+54P, Nahar Ghati"}, {"business_status": "OPERATIONAL", "geometry": {"location": {"lat": 27.0116231, "lng": 79.9684704}, "viewport": {"northeast": {"lat": 27.0129818802915, "lng": 79.9698051302915}, "southwest": {"lat": 27.0102839197085, "lng": 79.9671071697085}}}, "icon": "https://maps.gstatic.com/mapfiles/place_api/icons/v1/png_71/school-71.png", "icon_background_color": "#7B9EB0", "icon_mask_base_uri": "https://maps.gstatic.com/mapfiles/place_api/icons/v2/school_pinlet", "name": "BaruabagTemle", "opening_hours": {"open_now": false}, "photos": [{"height": 780, "html_attributions": ["<a href=\"https://maps.google.com/maps/contrib/110643189041305666445\">Amarjit Yadav</a>"], "photo_reference": "Aap_uED__1BNOx1bW98ThgeHdgWFK2Sbr4z4T9lhWNaoYPrcsPNZDDrPBhZvN8xFC57W5UDN5GQ1rT_bfIldt3qoujovOdUlOa6KflAKXOUkvhaae5N0fqBF-QAbOypEDiLZTrIf5MgEowdHVyAA6aP1mv40C_uwoXHmNJoB3nBb8QPiscTE", "width": 1040}], "place_id": "ChIJDXtXw7NlnjkRQVtZbc6opdw", "plus_code": {"compound_code": "2X69+J9 Nahar Ghati, Uttar Pradesh, India", "global_code": "7JVX2X69+J9"}, "rating": 3, "reference": "ChIJDXtXw7NlnjkRQVtZbc6opdw", "scope": "GOOGLE", "types": ["school", "point_of_interest", "establishment"], "user_ratings_total": 2, "vicinity": "Unnamed Road"}, {"business_status": "OPERATIONAL", "geometry": {"location": {"lat": 27.0198175, "lng": 79.9715983}, "viewport": {"northeast": {"lat": 27.0211604802915, "lng": 79.97295538029151}, "southwest": {"lat": 27.0184625197085, "lng": 79.9702574197085}}}, "icon": "https://maps.gstatic.com/mapfiles/place_api/icons/v1/png_71/school-71.png", "icon_background_color": "#7B9EB0", "icon_mask_base_uri": "https://maps.gstatic.com/mapfiles/place_api/icons/v2/school_pinlet", "name": "Girendra general store", "place_id": "ChIJmQdV0dJlnjkReJw1vJbIkiQ", "plus_code": {"compound_code": "2X9C+WJ Katri Rampur Nauabad, Uttar Pradesh, India", "global_code": "7JVX2X9C+WJ"}, "reference": "ChIJmQdV0dJlnjkReJw1vJbIkiQ", "scope": "GOOGLE", "types": ["school", "point_of_interest", "establishment"], "vicinity": "Unnamed Road, Katri Rampur Nauabad"}, {"business_status": "OPERATIONAL", "geometry": {"location": {"lat": 27.020495, "lng": 79.9725304}, "viewport": {"northeast": {"lat": 27.0217087302915, "lng": 79.9735734802915}, "southwest": {"lat": 27.0190107697085, "lng": 79.9708755197085}}}, "icon": "https://maps.gstatic.com/mapfiles/place_api/icons/v1/png_71/school-71.png", "icon_background_color": "#7B9EB0", "icon_mask_base_uri": "https://maps.gstatic.com/mapfiles/place_api/icons/v2/school_pinlet", "name": "Laxmi hous", "photos": [{"height": 1920, "html_attributions": ["<a href=\"https://maps.google.com/maps/contrib/107450117337755704406\">Akash Akash kumar</a>"], "photo_reference": "Aap_uEDOW-Pbf-PEU6BRg96RczyW5z3Q-y3dmC4uBVFeRWiGNZ1f_5wm4hJTsXKYqnlYsIHDwZPk1oW72WhCPgn-9tNbELEQqqicJbjyOd9geB1zbjAPU7s0m_CiaWUltg4cB65Kk9wxhO_eVSncHhQee5r-NFgM91yTOI2Wxw5Mpn4Cim-S", "width": 1080}], "place_id": "ChIJcSltPEplnjkRTIP1en9gUsg", "reference": "ChIJcSltPEplnjkRTIP1en9gUsg", "scope": "GOOGLE", "types": ["primary_school", "school", "point_of_interest", "establishment"], "vicinity": "2XCF+52R, Katri Rampur Nauabad"}, {"business_status": "OPERATIONAL", "geometry": {"location": {"lat": 27.0131067, "lng": 79.9697285}, "viewport": {"northeast": {"lat": 27.0145003302915, "lng": 79.97101813029151}, "southwest": {"lat": 27.0118023697085, "lng": 79.9683201697085}}}, "icon": "https://maps.gstatic.com/mapfiles/place_api/icons/v1/png_71/school-71.png", "icon_background_color": "#7B9EB0", "icon_mask_base_uri": "https://maps.gstatic.com/mapfiles/place_api/icons/v2/school_pinlet", "name": "(mirza) Royal House", "place_id": "ChIJm9yZQR9lnjkRbvXL5EM0MmA", "reference": "ChIJm9yZQR9lnjkRbvXL5EM0MmA", "scope": "GOOGLE", "types": ["school", "point_of_interest", "establishment"], "vicinity": "2X79+6VX, Nahar Ghati"}], "status": "OK"}