{"html_attributions": [], "results": [{"business_status": "OPERATIONAL", "geometry": {"location": {"lat": 26.9608519, "lng": 79.98592339999999}, "viewport": {"northeast": {"lat": 26.9621625802915, "lng": 79.9872323302915}, "southwest": {"lat": 26.9594646197085, "lng": 79.9845343697085}}}, "icon": "https://maps.gstatic.com/mapfiles/place_api/icons/v1/png_71/school-71.png", "icon_background_color": "#7B9EB0", "icon_mask_base_uri": "https://maps.gstatic.com/mapfiles/place_api/icons/v2/school_pinlet", "name": "Baburam Saxena Sweet Home", "place_id": "ChIJwxcuKQt7njkRwx97b6ZOL1c", "reference": "ChIJwxcuKQt7njkRwx97b6ZOL1c", "scope": "GOOGLE", "types": ["school", "point_of_interest", "establishment"], "vicinity": "XX6P+89V, Taramau"}, {"business_status": "OPERATIONAL", "geometry": {"location": {"lat": 26.9711804, "lng": 79.9882599}, "viewport": {"northeast": {"lat": 26.9726381302915, "lng": 79.9894241802915}, "southwest": {"lat": 26.9699401697085, "lng": 79.98672621970849}}}, "icon": "https://maps.gstatic.com/mapfiles/place_api/icons/v1/png_71/school-71.png", "icon_background_color": "#7B9EB0", "icon_mask_base_uri": "https://maps.gstatic.com/mapfiles/place_api/icons/v2/school_pinlet", "name": "K.R.S.PUBLIC SCHOOL", "photos": [{"height": 3264, "html_attributions": ["<a href=\"https://maps.google.com/maps/contrib/108807287013751742855\">K.R.S.PUBLIC SCHOOL</a>"], "photo_reference": "Aap_uECQ3We6ntxysul7DhKMdf4Hva7sNCQDGjDhG1c33KHyTuP-YTkBWvbFFeQG3KUfC8FHDQw2R4XOFFQLXjZLQmj4m46uHguiZhgvvgagBV1rH4BSq8O2vu8d8zgFv2mxqwfiBbhqeHIMtNFTpIzymxdsQTVR2Jc_Hq6JPT2mcoPvtB5D", "width": 1588}], "place_id": "ChIJ4_98r0Z7njkRMJ-PkpnJ9qA", "plus_code": {"compound_code": "XXCQ+F8 Tikhwa, Uttar Pradesh, India", "global_code": "7JRXXXCQ+F8"}, "rating": 5, "reference": "ChIJ4_98r0Z7njkRMJ-PkpnJ9qA", "scope": "GOOGLE", "types": ["school", "point_of_interest", "establishment"], "user_ratings_total": 2, "vicinity": "National Highway 34, Tikhwa"}, {"business_status": "OPERATIONAL", "geometry": {"location": {"lat": 26.9556066, "lng": 79.9958784}, "viewport": {"northeast": {"lat": 26.9569978302915, "lng": 79.9972612302915}, "southwest": {"lat": 26.9542998697085, "lng": 79.9945632697085}}}, "icon": "https://maps.gstatic.com/mapfiles/place_api/icons/v1/png_71/school-71.png", "icon_background_color": "#7B9EB0", "icon_mask_base_uri": "https://maps.gstatic.com/mapfiles/place_api/icons/v2/school_pinlet", "name": "Maa Parwati Memoriyal Vidyalaya Gangupur Kanpur (nagar)", "opening_hours": {"open_now": true}, "place_id": "ChIJ9Zj6TGJ7njkRJLK-AMqSxT4", "plus_code": {"compound_code": "XX4W+69 Gangupur, Uttar Pradesh, India", "global_code": "7JRXXX4W+69"}, "reference": "ChIJ9Zj6TGJ7njkRJLK-AMqSxT4", "scope": "GOOGLE", "types": ["school", "point_of_interest", "establishment"], "vicinity": "gajna, Gangupur"}, {"business_status": "OPERATIONAL", "geometry": {"location": {"lat": 26.9573641, "lng": 79.9983859}, "viewport": {"northeast": {"lat": 26.9586142802915, "lng": 79.9998261802915}, "southwest": {"lat": 26.9559163197085, "lng": 79.9971282197085}}}, "icon": "https://maps.gstatic.com/mapfiles/place_api/icons/v1/png_71/school-71.png", "icon_background_color": "#7B9EB0", "icon_mask_base_uri": "https://maps.gstatic.com/mapfiles/place_api/icons/v2/school_pinlet", "name": "Swaroop Narayan Memorial Academy", "place_id": "ChIJOxuNuYJ7njkR4ta06UFXZgI", "plus_code": {"compound_code": "XX4X+W9 Abdulpur, Uttar Pradesh, India", "global_code": "7JRXXX4X+W9"}, "reference": "ChIJOxuNuYJ7njkR4ta06UFXZgI", "scope": "GOOGLE", "types": ["school", "point_of_interest", "establishment"], "vicinity": "gangwapur, Sitapur - Kanpur Road, Gangapur"}, {"business_status": "OPERATIONAL", "geometry": {"location": {"lat": 26.9689474, "lng": 79.9974089}, "viewport": {"northeast": {"lat": 26.9703315302915, "lng": 79.9987584302915}, "southwest": {"lat": 26.9676335697085, "lng": 79.9960604697085}}}, "icon": "https://maps.gstatic.com/mapfiles/place_api/icons/v1/png_71/school-71.png", "icon_background_color": "#7B9EB0", "icon_mask_base_uri": "https://maps.gstatic.com/mapfiles/place_api/icons/v2/school_pinlet", "name": "Tarif Ali", "place_id": "ChIJiZrJNaF7njkRwEC58MOR_gs", "reference": "ChIJiZrJNaF7njkRwEC58MOR_gs", "scope": "GOOGLE", "types": ["school", "point_of_interest", "establishment"], "vicinity": "XX9W+HXF, Gangupur"}], "status": "OK"}