{"html_attributions": [], "results": [{"business_status": "OPERATIONAL", "geometry": {"location": {"lat": 26.9795799, "lng": 79.98780529999999}, "viewport": {"northeast": {"lat": 26.9807928802915, "lng": 79.9889054802915}, "southwest": {"lat": 26.97809491970849, "lng": 79.9862075197085}}}, "icon": "https://maps.gstatic.com/mapfiles/place_api/icons/v1/png_71/school-71.png", "icon_background_color": "#7B9EB0", "icon_mask_base_uri": "https://maps.gstatic.com/mapfiles/place_api/icons/v2/school_pinlet", "name": "KRS international school", "place_id": "ChIJGRbstl17njkRfEZEUx9h0E8", "reference": "ChIJGRbstl17njkRfEZEUx9h0E8", "scope": "GOOGLE", "types": ["school", "point_of_interest", "establishment"], "vicinity": "XXHQ+R4M, Sakari Khurd"}, {"business_status": "OPERATIONAL", "geometry": {"location": {"lat": 26.9795799, "lng": 79.98780529999999}, "viewport": {"northeast": {"lat": 26.9807928802915, "lng": 79.9889054802915}, "southwest": {"lat": 26.97809491970849, "lng": 79.9862075197085}}}, "icon": "https://maps.gstatic.com/mapfiles/place_api/icons/v1/png_71/school-71.png", "icon_background_color": "#7B9EB0", "icon_mask_base_uri": "https://maps.gstatic.com/mapfiles/place_api/icons/v2/school_pinlet", "name": "Sakari Khurd", "opening_hours": {"open_now": false}, "place_id": "ChIJq6qq6mp7njkRqQwqpB6ee1k", "reference": "ChIJq6qq6mp7njkRqQwqpB6ee1k", "scope": "GOOGLE", "types": ["school", "point_of_interest", "establishment"], "vicinity": "XXHQ+R4M, Sakari Khurd"}, {"business_status": "OPERATIONAL", "geometry": {"location": {"lat": 26.9782286, "lng": 79.98698780000001}, "viewport": {"northeast": {"lat": 26.9795944302915, "lng": 79.98829888029151}, "southwest": {"lat": 26.9768964697085, "lng": 79.9856009197085}}}, "icon": "https://maps.gstatic.com/mapfiles/place_api/icons/v1/png_71/school-71.png", "icon_background_color": "#7B9EB0", "icon_mask_base_uri": "https://maps.gstatic.com/mapfiles/place_api/icons/v2/school_pinlet", "name": "Primary School Of Yaseenpur", "place_id": "ChIJAQAAwD57njkRf72LTyPNtDw", "rating": 4, "reference": "ChIJAQAAwD57njkRf72LTyPNtDw", "scope": "GOOGLE", "types": ["primary_school", "school", "point_of_interest", "establishment"], "user_ratings_total": 1, "vicinity": "XXHP+7QX, Yaseenpur"}, {"business_status": "OPERATIONAL", "geometry": {"location": {"lat": 26.9790911, "lng": 79.975687}, "viewport": {"northeast": {"lat": 26.9803676302915, "lng": 79.9769973302915}, "southwest": {"lat": 26.9776696697085, "lng": 79.97429936970848}}}, "icon": "https://maps.gstatic.com/mapfiles/place_api/icons/v1/png_71/school-71.png", "icon_background_color": "#7B9EB0", "icon_mask_base_uri": "https://maps.gstatic.com/mapfiles/place_api/icons/v2/school_pinlet", "name": "Goverment Primary School", "place_id": "ChIJ-7Nj8Rd7njkRzk-Z7ndeoqc", "reference": "ChIJ-7Nj8Rd7njkRzk-Z7ndeoqc", "scope": "GOOGLE", "types": ["school", "point_of_interest", "establishment"], "vicinity": "XXHG+J7M, Tikhwa"}, {"business_status": "OPERATIONAL", "geometry": {"location": {"lat": 26.9711804, "lng": 79.9882599}, "viewport": {"northeast": {"lat": 26.9726381302915, "lng": 79.9894241802915}, "southwest": {"lat": 26.9699401697085, "lng": 79.98672621970849}}}, "icon": "https://maps.gstatic.com/mapfiles/place_api/icons/v1/png_71/school-71.png", "icon_background_color": "#7B9EB0", "icon_mask_base_uri": "https://maps.gstatic.com/mapfiles/place_api/icons/v2/school_pinlet", "name": "K.R.S.PUBLIC SCHOOL", "photos": [{"height": 3264, "html_attributions": ["<a href=\"https://maps.google.com/maps/contrib/108807287013751742855\">K.R.S.PUBLIC SCHOOL</a>"], "photo_reference": "Aap_uECfLC2FwnU6kytGP-JBSCQX9hP8QFkh0wGItSFJ6WIiaYiKY8sbqnVY06lDMPvUyp7yqfBYEiJNyP_BcvlCiCLDaFGJIhrd7qRAOAMS32lEMKuxc5ybahy_oXdcTbnr1aVLky2B8emhZFLelPiPkB1PJW6fyTHURBJGXFvKbexABMA7", "width": 1588}], "place_id": "ChIJ4_98r0Z7njkRMJ-PkpnJ9qA", "plus_code": {"compound_code": "XXCQ+F8 Tikhwa, Uttar Pradesh, India", "global_code": "7JRXXXCQ+F8"}, "rating": 5, "reference": "ChIJ4_98r0Z7njkRMJ-PkpnJ9qA", "scope": "GOOGLE", "types": ["school", "point_of_interest", "establishment"], "user_ratings_total": 2, "vicinity": "National Highway 34, Tikhwa"}], "status": "OK"}