{"html_attributions": [], "results": [{"business_status": "OPERATIONAL", "geometry": {"location": {"lat": 26.9975885, "lng": 79.990984}, "viewport": {"northeast": {"lat": 26.99892683029151, "lng": 79.9923094302915}, "southwest": {"lat": 26.9962288697085, "lng": 79.98961146970849}}}, "icon": "https://maps.gstatic.com/mapfiles/place_api/icons/v1/png_71/school-71.png", "icon_background_color": "#7B9EB0", "icon_mask_base_uri": "https://maps.gstatic.com/mapfiles/place_api/icons/v2/school_pinlet", "name": "Primary school durjanapur Kannauj", "place_id": "ChIJt7i80E17njkRFwzEBFqm31w", "rating": 5, "reference": "ChIJt7i80E17njkRFwzEBFqm31w", "scope": "GOOGLE", "types": ["school", "point_of_interest", "establishment"], "user_ratings_total": 1, "vicinity": "XXXR+29Q, Durjanpur"}, {"business_status": "OPERATIONAL", "geometry": {"location": {"lat": 26.9945826, "lng": 79.9845266}, "viewport": {"northeast": {"lat": 26.9959659802915, "lng": 79.9858225302915}, "southwest": {"lat": 26.99326801970849, "lng": 79.98312456970848}}}, "icon": "https://maps.gstatic.com/mapfiles/place_api/icons/v1/png_71/school-71.png", "icon_background_color": "#7B9EB0", "icon_mask_base_uri": "https://maps.gstatic.com/mapfiles/place_api/icons/v2/school_pinlet", "name": "Anganwadi kendra", "opening_hours": {"open_now": false}, "photos": [{"height": 1280, "html_attributions": ["<a href=\"https://maps.google.com/maps/contrib/115254136293027864294\">Vishal kumar</a>"], "photo_reference": "Aap_uEA2DH4XVD-dr8CmHCJQXnN3c0pgUOIBp9YkqVaNLecmV9X25OE2qgqie9JEqVjvYGr8v-6TdGsphgtYQjvAxEDo45-aOUkAdNjRyuyDqSYbd0yEZSXlC3AmuREfDPsqnGj55Ccndf5KytfAMulNnnCRRjcvBz9jCx_kL8lmoPPdvde7", "width": 960}], "place_id": "ChIJFTW2GWl7njkRh0uKg59ooGk", "rating": 5, "reference": "ChIJFTW2GWl7njkRh0uKg59ooGk", "scope": "GOOGLE", "types": ["primary_school", "school", "point_of_interest", "establishment"], "user_ratings_total": 1, "vicinity": "XXVM+RRJ, Gadanpur Nar"}, {"business_status": "OPERATIONAL", "geometry": {"location": {"lat": 27.01359059999999, "lng": 79.9895028}, "viewport": {"northeast": {"lat": 27.01489958029149, "lng": 79.9908894802915}, "southwest": {"lat": 27.01220161970849, "lng": 79.9881915197085}}}, "icon": "https://maps.gstatic.com/mapfiles/place_api/icons/v1/png_71/school-71.png", "icon_background_color": "#7B9EB0", "icon_mask_base_uri": "https://maps.gstatic.com/mapfiles/place_api/icons/v2/school_pinlet", "name": "\u0932\u093e\u0932 \u092c\u0939\u093e\u0926\u0941\u0930 \u0936\u093e\u0938\u094d\u0924\u094d\u0930\u0940 \u0938\u0930\u094d\u0935 \u0936\u093f\u0915\u094d\u0937\u093e \u090f\u0935\u0902 \u092a\u094d\u0930\u092c\u0902\u0927\u0928 \u0917\u0941\u0930\u0941\u0915\u0941\u0932 , \u092c\u093f\u0930\u093f\u092f\u093e\u092c\u093e\u092c\u093e \u0906\u0936\u094d\u0930\u092e", "place_id": "ChIJ41COMpBlnjkRiUj9OSfflu0", "plus_code": {"compound_code": "2X7Q+CR Kalsanapur, Uttar Pradesh, India", "global_code": "7JVX2X7Q+CR"}, "reference": "ChIJ41COMpBlnjkRiUj9OSfflu0", "scope": "GOOGLE", "types": ["school", "point_of_interest", "establishment"], "vicinity": "Ganga River Bridge, Bridge, Nabiganj - Jasmai Road, Kalsanapur"}, {"business_status": "OPERATIONAL", "geometry": {"location": {"lat": 26.9999366, "lng": 79.973432}, "viewport": {"northeast": {"lat": 27.0012781802915, "lng": 79.9748030802915}, "southwest": {"lat": 26.9985802197085, "lng": 79.97210511970849}}}, "icon": "https://maps.gstatic.com/mapfiles/place_api/icons/v1/png_71/school-71.png", "icon_background_color": "#7B9EB0", "icon_mask_base_uri": "https://maps.gstatic.com/mapfiles/place_api/icons/v2/school_pinlet", "name": "Primary school miyaganj", "place_id": "ChIJA6QL-2J7njkRDYWVZm9QSZo", "reference": "ChIJA6QL-2J7njkRDYWVZm9QSZo", "scope": "GOOGLE", "types": ["school", "point_of_interest", "establishment"], "vicinity": "XXXF+X9F, Saidpur Sakr"}], "status": "OK"}