{"html_attributions": [], "results": [{"business_status": "OPERATIONAL", "geometry": {"location": {"lat": 27.4861712, "lng": 79.9884919}, "viewport": {"northeast": {"lat": 27.48739588029151, "lng": 79.9897582302915}, "southwest": {"lat": 27.4846979197085, "lng": 79.9870602697085}}}, "icon": "https://maps.gstatic.com/mapfiles/place_api/icons/v1/png_71/school-71.png", "icon_background_color": "#7B9EB0", "icon_mask_base_uri": "https://maps.gstatic.com/mapfiles/place_api/icons/v2/school_pinlet", "name": "Shree Asharam Memoreal Inter College Manpur Hardoi", "photos": [{"height": 1080, "html_attributions": ["<a href=\"https://maps.google.com/maps/contrib/101643536674921051889\">Vishwnath Pratatp</a>"], "photo_reference": "Aap_uEACptCEw64s-xcjztU-CyAwDjgkmSuUuQVoIMtDQmZXvrJN-zCoPUNl6GbTlam_iV8ao0r33cdZRs5R1ZwqF8PuLISOG60G95eE7xFy2zvDR-4qwHGardQonuQ7gMp3pXVqn65BDyG-KHDjCU-pqGZXiARI-wELdYLPeIPa79MoJdtb", "width": 1920}], "place_id": "ChIJH0XvPA1TnjkR7PIE0NAsDeU", "plus_code": {"compound_code": "FXPQ+F9 Sikandarpur, Uttar Pradesh, India", "global_code": "7JVXFXPQ+F9"}, "reference": "ChIJH0XvPA1TnjkR7PIE0NAsDeU", "scope": "GOOGLE", "types": ["school", "point_of_interest", "establishment"], "vicinity": "Manpur Road, Sikandarpur"}, {"business_status": "OPERATIONAL", "geometry": {"location": {"lat": 27.4866036, "lng": 79.9876867}, "viewport": {"northeast": {"lat": 27.48788818029151, "lng": 79.98897628029151}, "southwest": {"lat": 27.4851902197085, "lng": 79.98627831970849}}}, "icon": "https://maps.gstatic.com/mapfiles/place_api/icons/v1/png_71/school-71.png", "icon_background_color": "#7B9EB0", "icon_mask_base_uri": "https://maps.gstatic.com/mapfiles/place_api/icons/v2/school_pinlet", "name": "Amit Jan Sewa Kendra Manpur", "photos": [{"height": 960, "html_attributions": ["<a href=\"https://maps.google.com/maps/contrib/100340392490558661603\">Amit Jan Sewa Kendra Manpur</a>"], "photo_reference": "Aap_uEAj5bnEWWn_GkqPBLw54ZDpqF_7cQ5BlAVFiIrCxlNyfTbcSMX9YQtJWpof83j9toAx6P64PYFUigHr681c50C1f5kw8mehKlRkQPdlIrq2SWfCexFfm4DosQAZ4kxPz8oizYizohgj2fBCAd6fBt4qlhPHf9BLbB6VpOUca61_w9Bt", "width": 720}], "place_id": "ChIJW68b8-lTnjkRSVqYtYnCCfo", "plus_code": {"compound_code": "FXPQ+J3 Sikandarpur, Uttar Pradesh, India", "global_code": "7JVXFXPQ+J3"}, "reference": "ChIJW68b8-lTnjkRSVqYtYnCCfo", "scope": "GOOGLE", "types": ["school", "point_of_interest", "establishment"], "vicinity": "Manpur Road, Sikandarpur"}, {"business_status": "OPERATIONAL", "geometry": {"location": {"lat": 27.4881833, "lng": 79.9898977}, "viewport": {"northeast": {"lat": 27.4898354302915, "lng": 79.99102863029151}, "southwest": {"lat": 27.4871374697085, "lng": 79.98833066970849}}}, "icon": "https://maps.gstatic.com/mapfiles/place_api/icons/v1/png_71/school-71.png", "icon_background_color": "#7B9EB0", "icon_mask_base_uri": "https://maps.gstatic.com/mapfiles/place_api/icons/v2/school_pinlet", "name": "Bhagvan Buddha inter college", "place_id": "ChIJe2xjigFTnjkRBYhUHfaxA-g", "reference": "ChIJe2xjigFTnjkRBYhUHfaxA-g", "scope": "GOOGLE", "types": ["school", "point_of_interest", "establishment"], "vicinity": "FXQQ+7XC, Manpur"}, {"business_status": "OPERATIONAL", "geometry": {"location": {"lat": 27.489594, "lng": 79.98486249999999}, "viewport": {"northeast": {"lat": 27.4909336802915, "lng": 79.9862343802915}, "southwest": {"lat": 27.48823571970849, "lng": 79.98353641970849}}}, "icon": "https://maps.gstatic.com/mapfiles/place_api/icons/v1/png_71/school-71.png", "icon_background_color": "#7B9EB0", "icon_mask_base_uri": "https://maps.gstatic.com/mapfiles/place_api/icons/v2/school_pinlet", "name": "Uma Singh Girls School", "photos": [{"height": 3000, "html_attributions": ["<a href=\"https://maps.google.com/maps/contrib/102421939511678769724\">TP Singh</a>"], "photo_reference": "Aap_uEDBju52ltyk7GNyRtC-zoEjvIvhHQstwQxbZK6RYQ8NGDJokyzBsqJ7cB4qCFrBzV1Nj_fN3PWi4tMEoTtDTHINkQiAQvhOGNN4lDvSlCBUVc7reMycLvk2vv3CwEvA-aqb8GWso81MOTFNQpY3MYzMsEPiVdirSPEWjg9VkyoCcDgP", "width": 4000}], "place_id": "ChIJZbvoVPxTnjkRasSCT9zSU28", "plus_code": {"compound_code": "FXQM+RW Udhranpur, Uttar Pradesh, India", "global_code": "7JVXFXQM+RW"}, "rating": 5, "reference": "ChIJZbvoVPxTnjkRasSCT9zSU28", "scope": "GOOGLE", "types": ["school", "point_of_interest", "establishment"], "user_ratings_total": 1, "vicinity": "manpur, Bawan"}, {"business_status": "OPERATIONAL", "geometry": {"location": {"lat": 27.472518, "lng": 79.985451}, "viewport": {"northeast": {"lat": 27.4738224302915, "lng": 79.98659348029152}, "southwest": {"lat": 27.4711244697085, "lng": 79.98389551970851}}}, "icon": "https://maps.gstatic.com/mapfiles/place_api/icons/v1/png_71/school-71.png", "icon_background_color": "#7B9EB0", "icon_mask_base_uri": "https://maps.gstatic.com/mapfiles/place_api/icons/v2/school_pinlet", "name": "Brijraj Singh Public Inter College ,Paheliya", "opening_hours": {"open_now": false}, "photos": [{"height": 1040, "html_attributions": ["<a href=\"https://maps.google.com/maps/contrib/118236877920368794076\">Ashutosh Singh</a>"], "photo_reference": "Aap_uEA5EQKOHoGB20haLyXmDsaU9hvVQQEjuJ37Z_OTEzpLd9EcafrLXwfEx5NVaMyWCukvWk73SvZOhu1xWVMspc6qUHbCieeKhGq5u9A3mea0iqIap5NmqXV3-Q0M8QCPg0Kf1tssh1m_AbKFMudp0rcTuk0Tbcygf9u6_aGNWIiV00Em", "width": 780}], "place_id": "ChIJTWXQTSpTnjkR9BMx0bhZs3E", "plus_code": {"compound_code": "FXFP+25 Manpur, Uttar Pradesh, India", "global_code": "7JVXFXFP+25"}, "rating": 4, "reference": "ChIJTWXQTSpTnjkR9BMx0bhZs3E", "scope": "GOOGLE", "types": ["school", "point_of_interest", "establishment"], "user_ratings_total": 1, "vicinity": "Manpur"}, {"business_status": "OPERATIONAL", "geometry": {"location": {"lat": 27.4712942, "lng": 79.9795262}, "viewport": {"northeast": {"lat": 27.4726511302915, "lng": 79.9809095302915}, "southwest": {"lat": 27.4699531697085, "lng": 79.97821156970849}}}, "icon": "https://maps.gstatic.com/mapfiles/place_api/icons/v1/png_71/school-71.png", "icon_background_color": "#7B9EB0", "icon_mask_base_uri": "https://maps.gstatic.com/mapfiles/place_api/icons/v2/school_pinlet", "name": "Bashar", "photos": [{"height": 2576, "html_attributions": ["<a href=\"https://maps.google.com/maps/contrib/113623788639298818371\">Mithilesh Kumar</a>"], "photo_reference": "Aap_uEDN4Ngga98zgnteLRvDwpqpBrnS2JiABSPAE_E4gsNl16ms31-G-bV5JcB4WN8CYzRNQnOzRm-mfFh5ghJuqRF_2mQY3u77WwAw6ojbZZsUjHDCnkTc8LygT96b4vEh8efB15jz-6cUs-XOU2z_yQBWPHmDGTczUoZGYhZ9MiEtPBwG", "width": 1932}], "place_id": "ChIJkUlezlhhnjkROFa70v1QOG8", "plus_code": {"compound_code": "FXCH+GR Sikandarpur, Uttar Pradesh, India", "global_code": "7JVXFXCH+GR"}, "reference": "ChIJkUlezlhhnjkROFa70v1QOG8", "scope": "GOOGLE", "types": ["school", "point_of_interest", "establishment"], "vicinity": "Sandi, Sandi - Shahabad Road, Bilgram"}], "status": "OK"}