{"html_attributions": [], "results": [{"business_status": "OPERATIONAL", "geometry": {"location": {"lat": 26.90031, "lng": 80.0303077}, "viewport": {"northeast": {"lat": 26.9015724802915, "lng": 80.0315530802915}, "southwest": {"lat": 26.89887451970849, "lng": 80.0288551197085}}}, "icon": "https://maps.gstatic.com/mapfiles/place_api/icons/v1/png_71/school-71.png", "icon_background_color": "#7B9EB0", "icon_mask_base_uri": "https://maps.gstatic.com/mapfiles/place_api/icons/v2/school_pinlet", "name": "Pyare lal prashikshan mahavidyalaya", "place_id": "ChIJVaUaoDB_njkRcL2h2WXnFgM", "plus_code": {"compound_code": "W22J+44 Meruwa, Uttar Pradesh, India", "global_code": "7MR2W22J+44"}, "reference": "ChIJVaUaoDB_njkRcL2h2WXnFgM", "scope": "GOOGLE", "types": ["school", "point_of_interest", "establishment"], "vicinity": "National Highway 34, Meruwa"}, {"business_status": "OPERATIONAL", "geometry": {"location": {"lat": 26.8992251, "lng": 80.0313673}, "viewport": {"northeast": {"lat": 26.9005279802915, "lng": 80.03266773029151}, "southwest": {"lat": 26.8978300197085, "lng": 80.0299697697085}}}, "icon": "https://maps.gstatic.com/mapfiles/place_api/icons/v1/png_71/school-71.png", "icon_background_color": "#7B9EB0", "icon_mask_base_uri": "https://maps.gstatic.com/mapfiles/place_api/icons/v2/school_pinlet", "name": "pyare lal mv", "place_id": "ChIJfYDUMLd_njkRTHgewNAZqK4", "plus_code": {"compound_code": "V2XJ+MG Meruwa, Uttar Pradesh, India", "global_code": "7MR2V2XJ+MG"}, "reference": "ChIJfYDUMLd_njkRTHgewNAZqK4", "scope": "GOOGLE", "types": ["school", "point_of_interest", "establishment"], "vicinity": "National Highway 34, Meruwa"}, {"business_status": "OPERATIONAL", "geometry": {"location": {"lat": 26.8957, "lng": 80.03139999999999}, "viewport": {"northeast": {"lat": 26.8969080302915, "lng": 80.03236168029149}, "southwest": {"lat": 26.8942100697085, "lng": 80.02966371970848}}}, "icon": "https://maps.gstatic.com/mapfiles/place_api/icons/v1/png_71/school-71.png", "icon_background_color": "#7B9EB0", "icon_mask_base_uri": "https://maps.gstatic.com/mapfiles/place_api/icons/v2/school_pinlet", "name": "Swarup Narayan Memorial Shiksha Niketan", "place_id": "ChIJI5mi9pV-njkRGUqTdwKqqkQ", "plus_code": {"compound_code": "V2WJ+7H Bawan Jhala Muzaffarpur, Uttar Pradesh, India", "global_code": "7MR2V2WJ+7H"}, "rating": 2.5, "reference": "ChIJI5mi9pV-njkRGUqTdwKqqkQ", "scope": "GOOGLE", "types": ["school", "point_of_interest", "establishment"], "user_ratings_total": 2, "vicinity": "Medua, Kanpur Nagar NH-91, Grand Trunk Road, Kannauj Road, Kanpur"}], "status": "OK"}