{"html_attributions": [], "results": [{"business_status": "OPERATIONAL", "geometry": {"location": {"lat": 26.9218687, "lng": 80.0234481}, "viewport": {"northeast": {"lat": 26.9233580302915, "lng": 80.02466323029151}, "southwest": {"lat": 26.9206600697085, "lng": 80.0219652697085}}}, "icon": "https://maps.gstatic.com/mapfiles/place_api/icons/v1/png_71/school-71.png", "icon_background_color": "#7B9EB0", "icon_mask_base_uri": "https://maps.gstatic.com/mapfiles/place_api/icons/v2/school_pinlet", "name": "Badi field", "place_id": "ChIJy9o1iuF9njkRwSBxdAg1vW0", "reference": "ChIJy9o1iuF9njkRwSBxdAg1vW0", "scope": "GOOGLE", "types": ["school", "point_of_interest", "establishment"], "vicinity": "W2CF+P9W, Ankin"}, {"business_status": "OPERATIONAL", "geometry": {"location": {"lat": 26.919771, "lng": 80.0212481}, "viewport": {"northeast": {"lat": 26.9210462802915, "lng": 80.0225366802915}, "southwest": {"lat": 26.9183483197085, "lng": 80.01983871970849}}}, "icon": "https://maps.gstatic.com/mapfiles/place_api/icons/v1/png_71/school-71.png", "icon_background_color": "#7B9EB0", "icon_mask_base_uri": "https://maps.gstatic.com/mapfiles/place_api/icons/v2/school_pinlet", "name": "VIDYA BHAWAN INTER COLLEGE", "photos": [{"height": 1080, "html_attributions": ["<a href=\"https://maps.google.com/maps/contrib/117329307938867501147\">Pooja Katiyar</a>"], "photo_reference": "Aap_uEBknss6CFsWt6wdWl4Yq7OY0Rk0UUOx9uf_sOc4ECfu-ubFdZfYcoz7PMaPzOZpgC2D_aK51lhCA3k2giXWF994tLhu6zNZPv1DZQ6jWvwjzQn1OGvtmnFp6DcGtRbkKNhNZHYrOeejgTKJxXBR2K4LCxi6JrVb2H2tj8KuJEyP_hxo", "width": 1920}], "place_id": "ChIJw53hYBt8njkRZ6oL8XFlivU", "rating": 3.6, "reference": "ChIJw53hYBt8njkRZ6oL8XFlivU", "scope": "GOOGLE", "types": ["school", "point_of_interest", "establishment"], "user_ratings_total": 8, "vicinity": "W29C+WF5, Araul"}, {"business_status": "OPERATIONAL", "geometry": {"location": {"lat": 26.9199489, "lng": 80.02028279999999}, "viewport": {"northeast": {"lat": 26.9213227302915, "lng": 80.0216085802915}, "southwest": {"lat": 26.9186247697085, "lng": 80.01891061970848}}}, "icon": "https://maps.gstatic.com/mapfiles/place_api/icons/v1/png_71/school-71.png", "icon_background_color": "#7B9EB0", "icon_mask_base_uri": "https://maps.gstatic.com/mapfiles/place_api/icons/v2/school_pinlet", "name": "SIR R.S MATHS CLASSES", "place_id": "ChIJB6wpwYh9njkRWndbWBCzxdw", "reference": "ChIJB6wpwYh9njkRWndbWBCzxdw", "scope": "GOOGLE", "types": ["school", "point_of_interest", "establishment"], "vicinity": "W29C+X4F, Araul"}, {"business_status": "OPERATIONAL", "geometry": {"location": {"lat": 26.9203155, "lng": 80.0196069}, "viewport": {"northeast": {"lat": 26.9216683302915, "lng": 80.02095283029149}, "southwest": {"lat": 26.9189703697085, "lng": 80.01825486970849}}}, "icon": "https://maps.gstatic.com/mapfiles/place_api/icons/v1/png_71/school-71.png", "icon_background_color": "#7B9EB0", "icon_mask_base_uri": "https://maps.gstatic.com/mapfiles/place_api/icons/v2/school_pinlet", "name": "Sardar Patel JHS Araul", "place_id": "ChIJ-f__swR8njkRaZuxXLYxHIY", "plus_code": {"compound_code": "W2C9+4R Araul, Uttar Pradesh, India", "global_code": "7MR2W2C9+4R"}, "reference": "ChIJ-f__swR8njkRaZuxXLYxHIY", "scope": "GOOGLE", "types": ["school", "point_of_interest", "establishment"], "vicinity": "Bilhapur, Kanpur, Araul"}, {"business_status": "OPERATIONAL", "geometry": {"location": {"lat": 26.9203155, "lng": 80.01960679999999}, "viewport": {"northeast": {"lat": 26.9216682302915, "lng": 80.02095273029151}, "southwest": {"lat": 26.9189702697085, "lng": 80.01825476970849}}}, "icon": "https://maps.gstatic.com/mapfiles/place_api/icons/v1/png_71/school-71.png", "icon_background_color": "#7B9EB0", "icon_mask_base_uri": "https://maps.gstatic.com/mapfiles/place_api/icons/v2/school_pinlet", "name": "\u0935\u093f\u0926\u094d\u092f\u093e\u092d\u0935\u0928 \u0907\u0923\u094d\u091f\u0930 \u0915\u0949\u0932\u0947\u091c \u0905\u0930\u094c\u0932", "place_id": "ChIJA-RLugR9njkRzSS-7hl8-xE", "reference": "ChIJA-RLugR9njkRzSS-7hl8-xE", "scope": "GOOGLE", "types": ["school", "point_of_interest", "establishment"], "vicinity": "W2C9+4RH, Araul"}, {"business_status": "OPERATIONAL", "geometry": {"location": {"lat": 26.9203155, "lng": 80.01960679999999}, "viewport": {"northeast": {"lat": 26.9216682302915, "lng": 80.02095273029151}, "southwest": {"lat": 26.9189702697085, "lng": 80.01825476970849}}}, "icon": "https://maps.gstatic.com/mapfiles/place_api/icons/v1/png_71/school-71.png", "icon_background_color": "#7B9EB0", "icon_mask_base_uri": "https://maps.gstatic.com/mapfiles/place_api/icons/v2/school_pinlet", "name": "Devraj glash haoush", "place_id": "ChIJwyWiHtZ9njkRHxtKcLjALIE", "reference": "ChIJwyWiHtZ9njkRHxtKcLjALIE", "scope": "GOOGLE", "types": ["school", "point_of_interest", "establishment"], "vicinity": "W2C9+4RH, Araul"}, {"business_status": "OPERATIONAL", "geometry": {"location": {"lat": 26.9203155, "lng": 80.01960679999999}, "viewport": {"northeast": {"lat": 26.9216682302915, "lng": 80.02095273029151}, "southwest": {"lat": 26.9189702697085, "lng": 80.01825476970849}}}, "icon": "https://maps.gstatic.com/mapfiles/place_api/icons/v1/png_71/school-71.png", "icon_background_color": "#7B9EB0", "icon_mask_base_uri": "https://maps.gstatic.com/mapfiles/place_api/icons/v2/school_pinlet", "name": "Maa Sitladevi Mahavidyalaya Araul", "place_id": "ChIJq6qqtgR8njkRZzeZvmHWqY0", "rating": 1, "reference": "ChIJq6qqtgR8njkRZzeZvmHWqY0", "scope": "GOOGLE", "types": ["school", "point_of_interest", "establishment"], "user_ratings_total": 1, "vicinity": "W2C9+4RH, Araul"}, {"business_status": "OPERATIONAL", "geometry": {"location": {"lat": 26.9212801, "lng": 80.0193346}, "viewport": {"northeast": {"lat": 26.9226254802915, "lng": 80.02068698029149}, "southwest": {"lat": 26.91992751970849, "lng": 80.01798901970848}}}, "icon": "https://maps.gstatic.com/mapfiles/place_api/icons/v1/png_71/school-71.png", "icon_background_color": "#7B9EB0", "icon_mask_base_uri": "https://maps.gstatic.com/mapfiles/place_api/icons/v2/school_pinlet", "name": "Maa gayatri vidhya pheeth shikshan Sansthan Araul kanpur nagar", "place_id": "ChIJ0WQ3XfN9njkReczig1zuaXo", "reference": "ChIJ0WQ3XfN9njkReczig1zuaXo", "scope": "GOOGLE", "types": ["school", "point_of_interest", "establishment"], "vicinity": "W2C9+GP8, Araul"}, {"business_status": "OPERATIONAL", "geometry": {"location": {"lat": 26.92109749999999, "lng": 80.0192971}, "viewport": {"northeast": {"lat": 26.9224774302915, "lng": 80.0206826302915}, "southwest": {"lat": 26.9197794697085, "lng": 80.01798466970848}}}, "icon": "https://maps.gstatic.com/mapfiles/place_api/icons/v1/png_71/school-71.png", "icon_background_color": "#7B9EB0", "icon_mask_base_uri": "https://maps.gstatic.com/mapfiles/place_api/icons/v2/school_pinlet", "name": "Maa gayatri vidhya pheeth shikshan Sansthan jonior high school", "place_id": "ChIJr6QEK719njkRDBGwNwoURr4", "reference": "ChIJr6QEK719njkRDBGwNwoURr4", "scope": "GOOGLE", "types": ["school", "point_of_interest", "establishment"], "vicinity": "W2C9+CPM, Araul"}, {"business_status": "OPERATIONAL", "geometry": {"location": {"lat": 26.915912, "lng": 80.02303599999999}, "viewport": {"northeast": {"lat": 26.9171901802915, "lng": 80.0244936302915}, "southwest": {"lat": 26.91449221970849, "lng": 80.0217956697085}}}, "icon": "https://maps.gstatic.com/mapfiles/place_api/icons/v1/png_71/school-71.png", "icon_background_color": "#7B9EB0", "icon_mask_base_uri": "https://maps.gstatic.com/mapfiles/place_api/icons/v2/school_pinlet", "name": "MLKD PUBLIC SCHOOL", "photos": [{"height": 3024, "html_attributions": ["<a href=\"https://maps.google.com/maps/contrib/104879901932118307812\">Abhishek Pratap Singh Chandel</a>"], "photo_reference": "Aap_uEArNmDC-nQORzdS6XK6baIaVD98MKwHelBIvZGnds7kGT7XIjyQzhv43LsSkKl4Thx62JsIR1DPveUUjxVYvANHed3JTWzDS5S95_NS6pndiLL0UDGzPKwGecVB67JA731RrNKFl_8wQaNPO8PmvVkdJzUOOobHkPcHDTQajP_hfIIA", "width": 4032}], "place_id": "ChIJK3krtgt9njkReVobVwGE5_4", "rating": 4.5, "reference": "ChIJK3krtgt9njkReVobVwGE5_4", "scope": "GOOGLE", "types": ["school", "point_of_interest", "establishment"], "user_ratings_total": 2, "vicinity": "W28F+967, Behrampur"}, {"business_status": "OPERATIONAL", "geometry": {"location": {"lat": 26.9206637, "lng": 80.0186688}, "viewport": {"northeast": {"lat": 26.9219544302915, "lng": 80.0199245302915}, "southwest": {"lat": 26.9192564697085, "lng": 80.0172265697085}}}, "icon": "https://maps.gstatic.com/mapfiles/place_api/icons/v1/png_71/school-71.png", "icon_background_color": "#7B9EB0", "icon_mask_base_uri": "https://maps.gstatic.com/mapfiles/place_api/icons/v2/school_pinlet", "name": "Sardar Patel Rashtriya Vidyalaya", "place_id": "ChIJbQtuwAR8njkRsS3NL1hEKNA", "reference": "ChIJbQtuwAR8njkRsS3NL1hEKNA", "scope": "GOOGLE", "types": ["school", "point_of_interest", "establishment"], "vicinity": "W2C9+7F7, Araul"}, {"business_status": "OPERATIONAL", "geometry": {"location": {"lat": 26.9220042, "lng": 80.01709699999999}, "viewport": {"northeast": {"lat": 26.9233146302915, "lng": 80.0184731802915}, "southwest": {"lat": 26.9206166697085, "lng": 80.01577521970849}}}, "icon": "https://maps.gstatic.com/mapfiles/place_api/icons/v1/png_71/school-71.png", "icon_background_color": "#7B9EB0", "icon_mask_base_uri": "https://maps.gstatic.com/mapfiles/place_api/icons/v2/school_pinlet", "name": "KATIYAR BOOK DIPOT", "opening_hours": {"open_now": true}, "photos": [{"height": 1920, "html_attributions": ["<a href=\"https://maps.google.com/maps/contrib/114902958280923398213\">S.K.Katiyar</a>"], "photo_reference": "Aap_uECVz8XwtxWqlLrU4O70WasTb55rputwpCP9hNxNIA1-sfGy5XdlsKHwUwWgEOR5HZ6vv8UxBokKUCGknom8-tj09BelimX4ybazvZaX2JwVv3pS0Rp3NsGCmBpGkTCHriiui3ADRLStuu7saDxph1sXSIfwVBn87fqeRFBjgegdXY8w", "width": 1080}], "place_id": "ChIJmcYW62p9njkRs5K6jPAJMjc", "plus_code": {"compound_code": "W2C8+RR Araul, Uttar Pradesh, India", "global_code": "7MR2W2C8+RR"}, "rating": 5, "reference": "ChIJmcYW62p9njkRs5K6jPAJMjc", "scope": "GOOGLE", "types": ["school", "point_of_interest", "establishment"], "user_ratings_total": 3, "vicinity": "Makanpur Road, Araul"}, {"business_status": "OPERATIONAL", "geometry": {"location": {"lat": 26.9203097, "lng": 80.01633729999999}, "viewport": {"northeast": {"lat": 26.9217007302915, "lng": 80.01770778029149}, "southwest": {"lat": 26.9190027697085, "lng": 80.01500981970848}}}, "icon": "https://maps.gstatic.com/mapfiles/place_api/icons/v1/png_71/school-71.png", "icon_background_color": "#7B9EB0", "icon_mask_base_uri": "https://maps.gstatic.com/mapfiles/place_api/icons/v2/school_pinlet", "name": "Sardar Patel public school", "place_id": "ChIJrwzXecB9njkRtu1HBskEnzE", "reference": "ChIJrwzXecB9njkRtu1HBskEnzE", "scope": "GOOGLE", "types": ["school", "point_of_interest", "establishment"], "vicinity": "W2C8+4GG, Araul"}, {"business_status": "OPERATIONAL", "geometry": {"location": {"lat": 26.9211764, "lng": 80.0160734}, "viewport": {"northeast": {"lat": 26.9225911302915, "lng": 80.0173778802915}, "southwest": {"lat": 26.9198931697085, "lng": 80.01467991970848}}}, "icon": "https://maps.gstatic.com/mapfiles/place_api/icons/v1/png_71/school-71.png", "icon_background_color": "#7B9EB0", "icon_mask_base_uri": "https://maps.gstatic.com/mapfiles/place_api/icons/v2/school_pinlet", "name": "SR Memorial Junior High School Araul", "photos": [{"height": 3120, "html_attributions": ["<a href=\"https://maps.google.com/maps/contrib/110449969124247968991\">Sudhanshu Pandey</a>"], "photo_reference": "Aap_uECbvw6IVKrsH02ENf4TBcvKQyXBQWJAgzQfXCH7D300ImA0cE1-O3zmSUwJas98KTxks2SRIrhdUo4ksD7sw6PEhv9JgzREzOaC5GV5s1uV-C7jbSr-eqGj3pdD2s6Xf87Jry2mMH2Ov7TndFxXzqptDVPznDNwRWtAX_ee7nPgqYfT", "width": 4160}], "place_id": "ChIJG78HRgR8njkRZS6Sp-DBkSQ", "plus_code": {"compound_code": "W2C8+FC Araul, Uttar Pradesh, India", "global_code": "7MR2W2C8+FC"}, "rating": 4.6, "reference": "ChIJG78HRgR8njkRZS6Sp-DBkSQ", "scope": "GOOGLE", "types": ["school", "point_of_interest", "establishment"], "user_ratings_total": 11, "vicinity": "Araul"}, {"business_status": "OPERATIONAL", "geometry": {"location": {"lat": 26.9216865, "lng": 80.01584009999999}, "viewport": {"northeast": {"lat": 26.9231194802915, "lng": 80.01727813029152}, "southwest": {"lat": 26.9204215197085, "lng": 80.0145801697085}}}, "icon": "https://maps.gstatic.com/mapfiles/place_api/icons/v1/png_71/school-71.png", "icon_background_color": "#7B9EB0", "icon_mask_base_uri": "https://maps.gstatic.com/mapfiles/place_api/icons/v2/school_pinlet", "name": "Nehru Vidyalaya Inter college Araul", "photos": [{"height": 3120, "html_attributions": ["<a href=\"https://maps.google.com/maps/contrib/110570434562675442575\">Maurya Arjun</a>"], "photo_reference": "Aap_uEBDiM6EobljCQZs8aTKl1qX3cnrFSeD-9CCbDYP_yL8Nb4yrdFP2uBQu-PjsnFQ5Q7f2bm0F1VJZs0vZQF7AyByRgfelQ46yR5ZBpDQcp3NGExaNNMnS0pzcmpNE9IBfyCt_plx5I1CtKhK0PEC0pOuYZZ3koRcxm-T8K3DOP5CKePo", "width": 4160}], "place_id": "ChIJJ4CKSgR8njkRvVrmU3wQq3Y", "plus_code": {"compound_code": "W2C8+M8 Bilhaur, Uttar Pradesh, India", "global_code": "7MR2W2C8+M8"}, "rating": 4.4, "reference": "ChIJJ4CKSgR8njkRvVrmU3wQq3Y", "scope": "GOOGLE", "types": ["school", "point_of_interest", "establishment"], "user_ratings_total": 14, "vicinity": "Ararl,, Bilhaur"}, {"business_status": "OPERATIONAL", "geometry": {"location": {"lat": 26.9200709, "lng": 80.015998}, "viewport": {"northeast": {"lat": 26.9215813302915, "lng": 80.0175381302915}, "southwest": {"lat": 26.9188833697085, "lng": 80.01484016970848}}}, "icon": "https://maps.gstatic.com/mapfiles/place_api/icons/v1/png_71/school-71.png", "icon_background_color": "#7B9EB0", "icon_mask_base_uri": "https://maps.gstatic.com/mapfiles/place_api/icons/v2/school_pinlet", "name": "Gauri Telecom Araul", "place_id": "ChIJywqJawR8njkRbAN7P9cqKt4", "reference": "ChIJywqJawR8njkRbAN7P9cqKt4", "scope": "GOOGLE", "types": ["school", "point_of_interest", "establishment"], "vicinity": "W2C8+29H, Keshwapur"}, {"business_status": "OPERATIONAL", "geometry": {"location": {"lat": 26.9336198, "lng": 80.02685079999999}, "viewport": {"northeast": {"lat": 26.9348902302915, "lng": 80.0281557802915}, "southwest": {"lat": 26.9321922697085, "lng": 80.02545781970849}}}, "icon": "https://maps.gstatic.com/mapfiles/place_api/icons/v1/png_71/school-71.png", "icon_background_color": "#7B9EB0", "icon_mask_base_uri": "https://maps.gstatic.com/mapfiles/place_api/icons/v2/school_pinlet", "name": "\u092a\u094d\u0930\u093e\u0925\u092e\u093f\u0915 \u0935\u093f\u0926\u094d\u092f\u093e\u0932\u092f \u0917\u094d\u0930\u093e\u092e-\u0906\u0901\u0915\u093f\u0928 primary school, village ankin, kanpur nagar", "photos": [{"height": 1920, "html_attributions": ["<a href=\"https://maps.google.com/maps/contrib/108623721172927085460\">Shlvashlva Shlvashlva</a>"], "photo_reference": "Aap_uEASDCOAhjq61pfWcqtoWLQdA5vfgIjPZGaeW4G0WeiKquH9e1zYfTSyb4TaSzxAYhi74uWGMwz68dSYN5TISWz8jERgLpS9NreHLc5j723r77FI9xpA2IYQXvhXB4ujHwtVvOVa3Y3wbG-TBpZ3Bqmn6qSO3y8HXRF359ejaE1i-iML", "width": 1080}], "place_id": "ChIJseRZAdF9njkRY_2fVZ3UeYY", "plus_code": {"compound_code": "W2MG+CP Ankin, Uttar Pradesh, India", "global_code": "7MR2W2MG+CP"}, "rating": 3.7, "reference": "ChIJseRZAdF9njkRY_2fVZ3UeYY", "scope": "GOOGLE", "types": ["school", "point_of_interest", "establishment"], "user_ratings_total": 3, "vicinity": "\u0917\u094d\u0930\u093e\u092e \u0935 \u092a\u094b\u0938\u094d\u091f, \u0906\u0901\u0915\u093f\u0928, \u091c\u093f\u0932\u093e"}, {"business_status": "OPERATIONAL", "geometry": {"location": {"lat": 26.920493, "lng": 80.0133932}, "viewport": {"northeast": {"lat": 26.9217076802915, "lng": 80.01466728029152}, "southwest": {"lat": 26.9190097197085, "lng": 80.0119693197085}}}, "icon": "https://maps.gstatic.com/mapfiles/place_api/icons/v1/png_71/school-71.png", "icon_background_color": "#7B9EB0", "icon_mask_base_uri": "https://maps.gstatic.com/mapfiles/place_api/icons/v2/school_pinlet", "name": "Nehru Vidhaylay Inter College, Araul", "place_id": "ChIJmWGUlgZ8njkRJHcjzSFTnZU", "reference": "ChIJmWGUlgZ8njkRJHcjzSFTnZU", "scope": "GOOGLE", "types": ["school", "point_of_interest", "establishment"], "vicinity": "W2C7+59R, Keshwapur"}, {"business_status": "OPERATIONAL", "geometry": {"location": {"lat": 26.9204993, "lng": 80.0133815}, "viewport": {"northeast": {"lat": 26.9217135302915, "lng": 80.0146553302915}, "southwest": {"lat": 26.9190155697085, "lng": 80.0119573697085}}}, "icon": "https://maps.gstatic.com/mapfiles/place_api/icons/v1/png_71/school-71.png", "icon_background_color": "#7B9EB0", "icon_mask_base_uri": "https://maps.gstatic.com/mapfiles/place_api/icons/v2/school_pinlet", "name": "Gyan Bharti Inter College Araul", "place_id": "ChIJC36WlgZ8njkRLcxEFJxGxyM", "rating": 5, "reference": "ChIJC36WlgZ8njkRLcxEFJxGxyM", "scope": "GOOGLE", "types": ["school", "point_of_interest", "establishment"], "user_ratings_total": 3, "vicinity": "W2C7+59R, Keshwapur"}], "status": "OK"}