{"html_attributions": [], "results": [{"business_status": "OPERATIONAL", "geometry": {"location": {"lat": 27.3596707, "lng": 80.0512868}, "viewport": {"northeast": {"lat": 27.3610234302915, "lng": 80.0526356302915}, "southwest": {"lat": 27.3583254697085, "lng": 80.0499376697085}}}, "icon": "https://maps.gstatic.com/mapfiles/place_api/icons/v1/png_71/school-71.png", "icon_background_color": "#7B9EB0", "icon_mask_base_uri": "https://maps.gstatic.com/mapfiles/place_api/icons/v2/school_pinlet", "name": "Gopal Vanprasthi Junior School Kakendi Hardoi", "photos": [{"height": 2448, "html_attributions": ["<a href=\"https://maps.google.com/maps/contrib/106184128833346537696\">Gopal Vanprasthi</a>"], "photo_reference": "Aap_uEAmEBuI4mEandbqqJHgLjEtBKtasbosJsqtce0pXbfsE6F2TuCzImZ71lzaYQ7YMgbIth8y2APkwMOgjYVWYJ8vS-Ns32d_lAtfvOZDU5MF3UNucJJWqt3AQAD8Ry5zK2bGUKjFeuNZ6K64rEAiBeEUlJ7MXcp-sFRhfSxyfwmL59fx", "width": 3264}], "place_id": "ChIJ7bdu8spZnjkRloA2M_IjLG8", "plus_code": {"compound_code": "9352+VG Kakerhi, Uttar Pradesh, India", "global_code": "7MV29352+VG"}, "rating": 4.8, "reference": "ChIJ7bdu8spZnjkRloA2M_IjLG8", "scope": "GOOGLE", "types": ["school", "point_of_interest", "establishment"], "user_ratings_total": 13, "vicinity": "ullamau, rode, kakendi, Kakerhi"}, {"business_status": "OPERATIONAL", "geometry": {"location": {"lat": 27.3564371, "lng": 80.057361}, "viewport": {"northeast": {"lat": 27.3578304302915, "lng": 80.0586746302915}, "southwest": {"lat": 27.3551324697085, "lng": 80.0559766697085}}}, "icon": "https://maps.gstatic.com/mapfiles/place_api/icons/v1/png_71/school-71.png", "icon_background_color": "#7B9EB0", "icon_mask_base_uri": "https://maps.gstatic.com/mapfiles/place_api/icons/v2/school_pinlet", "name": "Gurdev photos studio", "place_id": "ChIJbdPJISdZnjkRUCHa7G2B7Ko", "reference": "ChIJbdPJISdZnjkRUCHa7G2B7Ko", "scope": "GOOGLE", "types": ["school", "point_of_interest", "establishment"], "vicinity": "9344+HWH, Kakerhi"}, {"business_status": "OPERATIONAL", "geometry": {"location": {"lat": 27.3501255, "lng": 80.0478727}, "viewport": {"northeast": {"lat": 27.3514987302915, "lng": 80.0491990302915}, "southwest": {"lat": 27.3488007697085, "lng": 80.0465010697085}}}, "icon": "https://maps.gstatic.com/mapfiles/place_api/icons/v1/png_71/school-71.png", "icon_background_color": "#7B9EB0", "icon_mask_base_uri": "https://maps.gstatic.com/mapfiles/place_api/icons/v2/school_pinlet", "name": "NEW SPEED COMPETITION CLASSES", "photos": [{"height": 1200, "html_attributions": ["<a href=\"https://maps.google.com/maps/contrib/109827589848970793280\">SURYA DEV SINGH SURAJBALI</a>"], "photo_reference": "Aap_uEDFtfm0yrP9FLUGufcfOJioMrbVNfkPqvU7hMj01tjJSBzTS6O_u22JGtWR_g4Yn38oXlYQONOk8Y1AU9CVfMbMKxoL5q3e9B192y70kEGeyP0G0MvpynxSX1AvSr0doR3Gtnc1y3TfZD_wbJu3ifZHV1uogfU8BZIVAsqI3mTA9CGt", "width": 750}], "place_id": "ChIJK12Myp9ZnjkRxXbafw7sXEE", "plus_code": {"compound_code": "922X+34 Hardoi, Uttar Pradesh, India", "global_code": "7MV2922X+34"}, "reference": "ChIJK12Myp9ZnjkRxXbafw7sXEE", "scope": "GOOGLE", "types": ["school", "point_of_interest", "establishment"], "vicinity": "NEAR ALLO MILL BILGRAM CHUNGI, Sandi Road, Hardoi"}, {"geometry": {"location": {"lat": 27.3550546, "lng": 80.0575525}, "viewport": {"northeast": {"lat": 27.35681726812053, "lng": 80.05855530318794}, "southwest": {"lat": 27.35411930753752, "lng": 80.05585734260494}}}, "icon": "https://maps.gstatic.com/mapfiles/place_api/icons/v1/png_71/school-71.png", "icon_background_color": "#7B9EB0", "icon_mask_base_uri": "https://maps.gstatic.com/mapfiles/place_api/icons/v2/school_pinlet", "name": "Kashiram Memorial School", "place_id": "ChIJU4AUt0tYnjkREZ1BAHv5iW8", "reference": "ChIJU4AUt0tYnjkREZ1BAHv5iW8", "scope": "GOOGLE", "types": ["premise", "school", "establishment"], "vicinity": "Kakerhi"}], "status": "OK"}