{"html_attributions": [], "results": [{"business_status": "OPERATIONAL", "geometry": {"location": {"lat": 26.95372, "lng": 80.06292169999999}, "viewport": {"northeast": {"lat": 26.9547594802915, "lng": 80.06520665}, "southwest": {"lat": 26.9520615197085, "lng": 80.06216005}}}, "icon": "https://maps.gstatic.com/mapfiles/place_api/icons/v1/png_71/school-71.png", "icon_background_color": "#7B9EB0", "icon_mask_base_uri": "https://maps.gstatic.com/mapfiles/place_api/icons/v2/school_pinlet", "name": "Ancee tilcom Nonar shapurpwar malawa", "photos": [{"height": 4160, "html_attributions": ["<a href=\"https://maps.google.com/maps/contrib/114096072568732681724\">Ancee tilcom Nonar shapurpwar malawa</a>"], "photo_reference": "Aap_uEDAGe7-Annan8wRBdA8cPMmlPr8CZGPEWXlCkj5wYk7MrrumT8LtFOjq91RU4bNxTITAQywV-VZFYpccxQHhIO92SDklgf4XOGdP6O4nZs8-1J1f7YduulrPg6KjIQ17m4Pdam0sIZUh9UFgxDzX001aK-Fnsbtjy0SRVEoTrraaltm", "width": 1952}], "place_id": "ChIJR411ijV9njkRSdATCrcEf2M", "plus_code": {"compound_code": "X337+F5 Shahpur Pawanr Sisala, Uttar Pradesh, India", "global_code": "7MR2X337+F5"}, "reference": "ChIJR411ijV9njkRSdATCrcEf2M", "scope": "GOOGLE", "types": ["school", "point_of_interest", "establishment"], "vicinity": "Nonar shapurpwar, Shahpur Pawanr Sisala"}, {"business_status": "OPERATIONAL", "geometry": {"location": {"lat": 26.9621599, "lng": 80.0786966}, "viewport": {"northeast": {"lat": 26.9635168802915, "lng": 80.0800607302915}, "southwest": {"lat": 26.96081891970849, "lng": 80.07736276970849}}}, "icon": "https://maps.gstatic.com/mapfiles/place_api/icons/v1/png_71/school-71.png", "icon_background_color": "#7B9EB0", "icon_mask_base_uri": "https://maps.gstatic.com/mapfiles/place_api/icons/v2/school_pinlet", "name": "Maniram Kirana Store", "place_id": "ChIJJaov0vt9njkR5KLr5QAfFA8", "plus_code": {"compound_code": "X36H+VF Beria Nazirpur, Uttar Pradesh, India", "global_code": "7MR2X36H+VF"}, "reference": "ChIJJaov0vt9njkR5KLr5QAfFA8", "scope": "GOOGLE", "types": ["school", "point_of_interest", "establishment"], "vicinity": "Unnamed Road, Beria Nazirpur"}, {"business_status": "OPERATIONAL", "geometry": {"location": {"lat": 26.9639206, "lng": 80.07909029999999}, "viewport": {"northeast": {"lat": 26.9653762302915, "lng": 80.0805199802915}, "southwest": {"lat": 26.9626782697085, "lng": 80.07782201970849}}}, "icon": "https://maps.gstatic.com/mapfiles/place_api/icons/v1/png_71/school-71.png", "icon_background_color": "#7B9EB0", "icon_mask_base_uri": "https://maps.gstatic.com/mapfiles/place_api/icons/v2/school_pinlet", "name": "Govt. Primary School, Mansoorpur", "place_id": "ChIJ1U1oKZ59njkRAhJn0jBB_8E", "reference": "ChIJ1U1oKZ59njkRAhJn0jBB_8E", "scope": "GOOGLE", "types": ["school", "point_of_interest", "establishment"], "vicinity": "X37H+HJ8, Beria Nazirpur"}, {"business_status": "OPERATIONAL", "geometry": {"location": {"lat": 26.9695767, "lng": 80.07628559999999}, "viewport": {"northeast": {"lat": 26.9709009302915, "lng": 80.0774893802915}, "southwest": {"lat": 26.9682029697085, "lng": 80.07479141970849}}}, "icon": "https://maps.gstatic.com/mapfiles/place_api/icons/v1/png_71/school-71.png", "icon_background_color": "#7B9EB0", "icon_mask_base_uri": "https://maps.gstatic.com/mapfiles/place_api/icons/v2/school_pinlet", "name": "Shri Grivar Pradar Inter College, Rampur", "place_id": "ChIJiWYVqXR9njkR4MOZh-hY8PQ", "reference": "ChIJiWYVqXR9njkR4MOZh-hY8PQ", "scope": "GOOGLE", "types": ["school", "point_of_interest", "establishment"], "vicinity": "X39G+RGM, Beria Nazirpur"}, {"business_status": "OPERATIONAL", "geometry": {"location": {"lat": 26.96967919999999, "lng": 80.07652569999999}, "viewport": {"northeast": {"lat": 26.9710639802915, "lng": 80.0779139302915}, "southwest": {"lat": 26.96836601970849, "lng": 80.0752159697085}}}, "icon": "https://maps.gstatic.com/mapfiles/place_api/icons/v1/png_71/school-71.png", "icon_background_color": "#7B9EB0", "icon_mask_base_uri": "https://maps.gstatic.com/mapfiles/place_api/icons/v2/school_pinlet", "name": "Sri Girvar Prashad Intet College, Rampur Mansoorpur", "place_id": "ChIJJZeAqHR9njkRB2S7Um5IvMs", "rating": 5, "reference": "ChIJJZeAqHR9njkRB2S7Um5IvMs", "scope": "GOOGLE", "types": ["school", "point_of_interest", "establishment"], "user_ratings_total": 1, "vicinity": "X39G+VJC, Beria Nazirpur"}, {"business_status": "OPERATIONAL", "geometry": {"location": {"lat": 26.9627119, "lng": 80.0801212}, "viewport": {"northeast": {"lat": 26.9640868802915, "lng": 80.08144373029151}, "southwest": {"lat": 26.9613889197085, "lng": 80.0787457697085}}}, "icon": "https://maps.gstatic.com/mapfiles/place_api/icons/v1/png_71/school-71.png", "icon_background_color": "#7B9EB0", "icon_mask_base_uri": "https://maps.gstatic.com/mapfiles/place_api/icons/v2/school_pinlet", "name": "Pandit radheyshayam mansh gyan stali", "place_id": "ChIJszaQXlZ9njkR4JXEUp1Fcpg", "rating": 5, "reference": "ChIJszaQXlZ9njkR4JXEUp1Fcpg", "scope": "GOOGLE", "types": ["school", "point_of_interest", "establishment"], "user_ratings_total": 3, "vicinity": "X37J+32Q, Beria Nazirpur"}], "status": "OK"}