{"html_attributions": [], "results": [{"business_status": "OPERATIONAL", "geometry": {"location": {"lat": 27.0009577, "lng": 80.059213}, "viewport": {"northeast": {"lat": 27.0023135302915, "lng": 80.0605340802915}, "southwest": {"lat": 26.9996155697085, "lng": 80.0578361197085}}}, "icon": "https://maps.gstatic.com/mapfiles/place_api/icons/v1/png_71/school-71.png", "icon_background_color": "#7B9EB0", "icon_mask_base_uri": "https://maps.gstatic.com/mapfiles/place_api/icons/v2/school_pinlet", "name": "Govt. Primary School", "place_id": "ChIJj2SN1C59njkRUb7ASfXIVKU", "reference": "ChIJj2SN1C59njkRUb7ASfXIVKU", "scope": "GOOGLE", "types": ["school", "point_of_interest", "establishment"], "vicinity": "2325+9MP, Raghopur Sisala"}, {"business_status": "OPERATIONAL", "geometry": {"location": {"lat": 27.0089631, "lng": 80.0626265}, "viewport": {"northeast": {"lat": 27.0103225802915, "lng": 80.06402323029151}, "southwest": {"lat": 27.00762461970849, "lng": 80.06132526970849}}}, "icon": "https://maps.gstatic.com/mapfiles/place_api/icons/v1/png_71/school-71.png", "icon_background_color": "#7B9EB0", "icon_mask_base_uri": "https://maps.gstatic.com/mapfiles/place_api/icons/v2/school_pinlet", "name": "uvaa josh deffence acedmy", "place_id": "ChIJb6wPMC19njkRKmOkISi8bZM", "plus_code": {"compound_code": "2357+H3 Newada, Uttar Pradesh, India", "global_code": "7MV22357+H3"}, "reference": "ChIJb6wPMC19njkRKmOkISi8bZM", "scope": "GOOGLE", "types": ["school", "point_of_interest", "establishment"], "vicinity": "Unnamed Road, \u0928\u0947\u0935\u093e\u0921\u093c\u093e"}, {"business_status": "OPERATIONAL", "geometry": {"location": {"lat": 27.0113509, "lng": 80.0677193}, "viewport": {"northeast": {"lat": 27.0127547802915, "lng": 80.06930398029151}, "southwest": {"lat": 27.0100568197085, "lng": 80.06660601970849}}}, "icon": "https://maps.gstatic.com/mapfiles/place_api/icons/v1/png_71/school-71.png", "icon_background_color": "#7B9EB0", "icon_mask_base_uri": "https://maps.gstatic.com/mapfiles/place_api/icons/v2/school_pinlet", "name": "\u091c\u0940\u0928\u093f\u092f\u0938 \u092a\u092c\u094d\u0932\u093f\u0915 \u0938\u094d\u0915\u0942\u0932", "place_id": "ChIJ09IrKTdjnjkRjKEv-cdKdkM", "plus_code": {"compound_code": "2369+G3 Garhi Rasoolpur, Uttar Pradesh, India", "global_code": "7MV22369+G3"}, "reference": "ChIJ09IrKTdjnjkRjKEv-cdKdkM", "scope": "GOOGLE", "types": ["secondary_school", "school", "point_of_interest", "establishment"], "vicinity": "\u0917\u0922\u093c\u0940 \u092c\u0932\u0947\u0939\u0930\u093e \u0938\u094d\u0935. \u0920\u093e\u0915\u0941\u0930, \u0930\u093e\u092e\u092a\u093e\u0932 \u0938\u093f\u0902\u0939 \u092e\u093e\u0930\u094d\u0917, Garhi Rasoolpur"}, {"business_status": "OPERATIONAL", "geometry": {"location": {"lat": 27.0071, "lng": 80.0572217}, "viewport": {"northeast": {"lat": 27.0084331802915, "lng": 80.0585490802915}, "southwest": {"lat": 27.00573521970849, "lng": 80.05585111970848}}}, "icon": "https://maps.gstatic.com/mapfiles/place_api/icons/v1/png_71/school-71.png", "icon_background_color": "#7B9EB0", "icon_mask_base_uri": "https://maps.gstatic.com/mapfiles/place_api/icons/v2/school_pinlet", "name": "H.S.A.S. Imperial College Raghopur", "place_id": "ChIJ0eoAebx9njkR9Wi2xTY4UE8", "plus_code": {"compound_code": "2344+RV Raghopur Sisala, Uttar Pradesh, India", "global_code": "7MV22344+RV"}, "reference": "ChIJ0eoAebx9njkR9Wi2xTY4UE8", "scope": "GOOGLE", "types": ["secondary_school", "school", "point_of_interest", "establishment"], "vicinity": "Unnamed Road, Raghopur Sisala"}, {"geometry": {"location": {"lat": 26.997149, "lng": 80.0662615}, "viewport": {"northeast": {"lat": 26.99849476875059, "lng": 80.06756535808917}, "southwest": {"lat": 26.99579680816758, "lng": 80.06486739750616}}}, "icon": "https://maps.gstatic.com/mapfiles/place_api/icons/v1/png_71/school-71.png", "icon_background_color": "#7B9EB0", "icon_mask_base_uri": "https://maps.gstatic.com/mapfiles/place_api/icons/v2/school_pinlet", "name": "Govt. Primary Schhool Raghopur", "place_id": "ChIJR9zSlTp9njkRGMG_pde5ArE", "reference": "ChIJR9zSlTp9njkRGMG_pde5ArE", "scope": "GOOGLE", "types": ["premise", "school", "establishment"], "vicinity": "Ausanpur"}], "status": "OK"}