{"html_attributions": [], "results": [{"business_status": "OPERATIONAL", "geometry": {"location": {"lat": 27.5052171, "lng": 80.0670047}, "viewport": {"northeast": {"lat": 27.50682623029151, "lng": 80.06819678029152}, "southwest": {"lat": 27.5041282697085, "lng": 80.0654988197085}}}, "icon": "https://maps.gstatic.com/mapfiles/place_api/icons/v1/png_71/school-71.png", "icon_background_color": "#7B9EB0", "icon_mask_base_uri": "https://maps.gstatic.com/mapfiles/place_api/icons/v2/school_pinlet", "name": "Rahul Kumar", "place_id": "ChIJxVN55UZVnjkRz2xlnG0h-Zs", "reference": "ChIJxVN55UZVnjkRz2xlnG0h-Zs", "scope": "GOOGLE", "types": ["school", "point_of_interest", "establishment"], "vicinity": "G348+3RJ"}, {"business_status": "OPERATIONAL", "geometry": {"location": {"lat": 27.5020931, "lng": 80.0580272}, "viewport": {"northeast": {"lat": 27.5034630802915, "lng": 80.05937668029149}, "southwest": {"lat": 27.5007651197085, "lng": 80.05667871970849}}}, "icon": "https://maps.gstatic.com/mapfiles/place_api/icons/v1/png_71/school-71.png", "icon_background_color": "#7B9EB0", "icon_mask_base_uri": "https://maps.gstatic.com/mapfiles/place_api/icons/v2/school_pinlet", "name": "Govt girls higher secondary school AATDANPUR Hardoi", "place_id": "ChIJOR2b0_5VnjkRxCVGruUL9-4", "reference": "ChIJOR2b0_5VnjkRxCVGruUL9-4", "scope": "GOOGLE", "types": ["secondary_school", "school", "point_of_interest", "establishment"], "vicinity": "G325+R6J, Tolwa Antdanpur"}, {"business_status": "OPERATIONAL", "geometry": {"location": {"lat": 27.5036258, "lng": 80.08000320000001}, "viewport": {"northeast": {"lat": 27.5049108802915, "lng": 80.0813357802915}, "southwest": {"lat": 27.5022129197085, "lng": 80.07863781970849}}}, "icon": "https://maps.gstatic.com/mapfiles/place_api/icons/v1/png_71/school-71.png", "icon_background_color": "#7B9EB0", "icon_mask_base_uri": "https://maps.gstatic.com/mapfiles/place_api/icons/v2/school_pinlet", "name": "\u092a\u094d\u0930\u093e\u0925\u092e\u093f\u0915 \u0935\u093f\u0926\u094d\u092f\u093e\u0932\u092f \u092e\u091d\u094b\u0932\u093e", "opening_hours": {"open_now": false}, "photos": [{"height": 3096, "html_attributions": ["<a href=\"https://maps.google.com/maps/contrib/111657031156395794688\">Gurjar Pravesh</a>"], "photo_reference": "Aap_uEAFQJPmL0oYqB83UyOYOWphvJfv1lceQXKXKaiFrbDW-XfYXqDzmUPAPEgb4ivaf2bNQUEPKpQUR6r8sebFw7Qhms_BDwr1gGD4cEgGi1wEMdVg1yKl-6evzkq7SpeW83N2NGCF4SbQ1R-PAzo5Ci0lM8bpACXKSMmQB0Ej5tgppxM7", "width": 4128}], "place_id": "ChIJ1UXkQZRVnjkRmfcxYK4VIZc", "rating": 4.2, "reference": "ChIJ1UXkQZRVnjkRmfcxYK4VIZc", "scope": "GOOGLE", "types": ["school", "point_of_interest", "establishment"], "user_ratings_total": 6, "vicinity": "G33J+F22, Tolwa Antdanpur"}], "status": "OK"}