{"html_attributions": [], "results": [{"business_status": "OPERATIONAL", "geometry": {"location": {"lat": 27.0014411, "lng": 80.0908867}, "viewport": {"northeast": {"lat": 27.0027901302915, "lng": 80.09223648029149}, "southwest": {"lat": 27.0000921697085, "lng": 80.08953851970848}}}, "icon": "https://maps.gstatic.com/mapfiles/place_api/icons/v1/png_71/school-71.png", "icon_background_color": "#7B9EB0", "icon_mask_base_uri": "https://maps.gstatic.com/mapfiles/place_api/icons/v2/school_pinlet", "name": "Jay Malik Fattepur", "photos": [{"height": 4160, "html_attributions": ["<a href=\"https://maps.google.com/maps/contrib/107512561956890926616\">Pyare Lal</a>"], "photo_reference": "Aap_uEAJ7-gHKjZZQ7kFJx7JmgdQ1Cvj1lNTkLJkgCeUWxcA3WfI8fbMY8gB6kpJ-JorbuybQv07Ams5GyoUhYYmkWG25AyKrcOuvORsQXkZIgn0L3eD2qwaIZM_noELhyTo3I6yt0gSMbAjtvjnzN1EDbgai7Rw_UScft4vpcrxaDacHybf", "width": 3120}], "place_id": "ChIJSx--_zB9njkR4cszwQauBfc", "plus_code": {"compound_code": "232R+H9 Thathia Zahidpur, Uttar Pradesh, India", "global_code": "7MV2232R+H9"}, "rating": 4.5, "reference": "ChIJSx--_zB9njkR4cszwQauBfc", "scope": "GOOGLE", "types": ["school", "point_of_interest", "establishment"], "user_ratings_total": 2, "vicinity": "Unnamed Road, Thathia Zahidpur"}, {"business_status": "OPERATIONAL", "geometry": {"location": {"lat": 26.9910937, "lng": 80.0922693}, "viewport": {"northeast": {"lat": 26.9925086302915, "lng": 80.0935545802915}, "southwest": {"lat": 26.9898106697085, "lng": 80.09085661970849}}}, "icon": "https://maps.gstatic.com/mapfiles/place_api/icons/v1/png_71/school-71.png", "icon_background_color": "#7B9EB0", "icon_mask_base_uri": "https://maps.gstatic.com/mapfiles/place_api/icons/v2/school_pinlet", "name": "Pooranmau JUNIOR HIGH SCHOOL", "place_id": "ChIJBwP36_59njkRNbGSlJsd-cg", "reference": "ChIJBwP36_59njkRNbGSlJsd-cg", "scope": "GOOGLE", "types": ["school", "point_of_interest", "establishment"], "vicinity": "X3RR+CWJ, Puranmau"}, {"business_status": "OPERATIONAL", "geometry": {"location": {"lat": 26.9907726, "lng": 80.09241159999999}, "viewport": {"northeast": {"lat": 26.99210058029151, "lng": 80.0938157302915}, "southwest": {"lat": 26.9894026197085, "lng": 80.09111776970849}}}, "icon": "https://maps.gstatic.com/mapfiles/place_api/icons/v1/png_71/school-71.png", "icon_background_color": "#7B9EB0", "icon_mask_base_uri": "https://maps.gstatic.com/mapfiles/place_api/icons/v2/school_pinlet", "name": "primary school j", "place_id": "ChIJ-Y5zlxl9njkRlSm-vPQ-Ri8", "rating": 5, "reference": "ChIJ-Y5zlxl9njkRlSm-vPQ-Ri8", "scope": "GOOGLE", "types": ["school", "point_of_interest", "establishment"], "user_ratings_total": 1, "vicinity": "X3RR+8X3, Dasraichmau"}], "status": "OK"}