{"html_attributions": [], "results": [{"business_status": "OPERATIONAL", "geometry": {"location": {"lat": 27.0652831, "lng": 80.10456719999999}, "viewport": {"northeast": {"lat": 27.0666004302915, "lng": 80.1059010302915}, "southwest": {"lat": 27.0639024697085, "lng": 80.1032030697085}}}, "icon": "https://maps.gstatic.com/mapfiles/place_api/icons/v1/png_71/school-71.png", "icon_background_color": "#7B9EB0", "icon_mask_base_uri": "https://maps.gstatic.com/mapfiles/place_api/icons/v2/school_pinlet", "name": "Collage", "place_id": "ChIJZ_0HTLmJnjkRMxvei6vrdMU", "plus_code": {"compound_code": "3483+4R Hasanpur Jeoli, Uttar Pradesh, India", "global_code": "7MV23483+4R"}, "reference": "ChIJZ_0HTLmJnjkRMxvei6vrdMU", "scope": "GOOGLE", "types": ["school", "point_of_interest", "establishment"], "vicinity": "Unnamed Road, Hasanpur Jeoli"}, {"business_status": "OPERATIONAL", "geometry": {"location": {"lat": 27.0569915, "lng": 80.1112885}, "viewport": {"northeast": {"lat": 27.06038975, "lng": 80.11785834999999}, "southwest": {"lat": 27.05585875, "lng": 80.10909855}}}, "icon": "https://maps.gstatic.com/mapfiles/place_api/icons/v1/png_71/school-71.png", "icon_background_color": "#7B9EB0", "icon_mask_base_uri": "https://maps.gstatic.com/mapfiles/place_api/icons/v2/school_pinlet", "name": "PVP Junior High School inter college", "opening_hours": {"open_now": true}, "place_id": "ChIJd7ID9zKInjkR5fxacg0JzrQ", "rating": 4.5, "reference": "ChIJd7ID9zKInjkR5fxacg0JzrQ", "scope": "GOOGLE", "types": ["school", "point_of_interest", "establishment"], "user_ratings_total": 2, "vicinity": "3446+QGV, Islampur Jagai"}, {"business_status": "OPERATIONAL", "geometry": {"location": {"lat": 27.0630569, "lng": 80.1177335}, "viewport": {"northeast": {"lat": 27.0646648802915, "lng": 80.1193429802915}, "southwest": {"lat": 27.0619669197085, "lng": 80.11664501970849}}}, "icon": "https://maps.gstatic.com/mapfiles/place_api/icons/v1/png_71/school-71.png", "icon_background_color": "#7B9EB0", "icon_mask_base_uri": "https://maps.gstatic.com/mapfiles/place_api/icons/v2/school_pinlet", "name": "P. S. Munaura Pur", "opening_hours": {"open_now": false}, "place_id": "ChIJQUYl2LiJnjkRGxApNqnW1FE", "rating": 5, "reference": "ChIJQUYl2LiJnjkRGxApNqnW1FE", "scope": "GOOGLE", "types": ["school", "point_of_interest", "establishment"], "user_ratings_total": 2, "vicinity": "3479+63H, Hasanpur Gopal"}, {"business_status": "OPERATIONAL", "geometry": {"location": {"lat": 27.0605204, "lng": 80.095221}, "viewport": {"northeast": {"lat": 27.0618921802915, "lng": 80.09659353029151}, "southwest": {"lat": 27.05919421970849, "lng": 80.0938955697085}}}, "icon": "https://maps.gstatic.com/mapfiles/place_api/icons/v1/png_71/school-71.png", "icon_background_color": "#7B9EB0", "icon_mask_base_uri": "https://maps.gstatic.com/mapfiles/place_api/icons/v2/school_pinlet", "name": "UPS Islampur Jagai", "place_id": "ChIJ17mz8nVjnjkRVLaCwg8bTVM", "plus_code": {"compound_code": "336W+63 Hasanpur Jeoli, Uttar Pradesh, India", "global_code": "7MV2336W+63"}, "rating": 1, "reference": "ChIJ17mz8nVjnjkRVLaCwg8bTVM", "scope": "GOOGLE", "types": ["school", "point_of_interest", "establishment"], "user_ratings_total": 1, "vicinity": "Unnamed Road"}], "status": "OK"}