{"html_attributions": [], "results": [{"business_status": "OPERATIONAL", "geometry": {"location": {"lat": 27.1244355, "lng": 80.1107182}, "viewport": {"northeast": {"lat": 27.1259012302915, "lng": 80.1114835802915}, "southwest": {"lat": 27.12320326970849, "lng": 80.1087856197085}}}, "icon": "https://maps.gstatic.com/mapfiles/place_api/icons/v1/png_71/school-71.png", "icon_background_color": "#7B9EB0", "icon_mask_base_uri": "https://maps.gstatic.com/mapfiles/place_api/icons/v2/school_pinlet", "name": "Prathmik Vidyalaya Shekhanpur", "opening_hours": {"open_now": false}, "place_id": "ChIJIyQhF1CLnjkRJqvkSf1CTXE", "plus_code": {"compound_code": "44F6+Q7 Madhoganj, Uttar Pradesh, India", "global_code": "7MV244F6+Q7"}, "reference": "ChIJIyQhF1CLnjkRJqvkSf1CTXE", "scope": "GOOGLE", "types": ["school", "point_of_interest", "establishment"], "vicinity": "Village Shekhanpur, post, sadarpur, Madhoganj"}, {"business_status": "OPERATIONAL", "geometry": {"location": {"lat": 27.1257911, "lng": 80.1164769}, "viewport": {"northeast": {"lat": 27.1268025302915, "lng": 80.1184056802915}, "southwest": {"lat": 27.1241045697085, "lng": 80.1157077197085}}}, "icon": "https://maps.gstatic.com/mapfiles/place_api/icons/v1/png_71/school-71.png", "icon_background_color": "#7B9EB0", "icon_mask_base_uri": "https://maps.gstatic.com/mapfiles/place_api/icons/v2/school_pinlet", "name": "MonuRaj", "photos": [{"height": 1440, "html_attributions": ["<a href=\"https://maps.google.com/maps/contrib/115831781449918489438\">Monu Singh</a>"], "photo_reference": "Aap_uEDG6wPRTqdTN42_wCnFScHMoEBFGY1LkwPE8AGq0Q8Ml2xgawOqbWAwgnP3UDk4Vpo886taTrKsOAJOo2Mdp8euAB67RgknWraakguRmNtzQcGELmx_gKnsh77cTH4aSgfaj4WHAG6_MWXBAwnhnmWyvF3mMUyNtUmZQG6W45kX73k", "width": 1080}], "place_id": "ChIJZ1aqRXyLnjkR6ciaPFS22r4", "reference": "ChIJZ1aqRXyLnjkR6ciaPFS22r4", "scope": "GOOGLE", "types": ["school", "point_of_interest", "establishment"], "vicinity": "44G8+8H9, Sehkanpur"}, {"business_status": "OPERATIONAL", "geometry": {"location": {"lat": 27.1265204, "lng": 80.1202923}, "viewport": {"northeast": {"lat": 27.1279247802915, "lng": 80.12157648029151}, "southwest": {"lat": 27.12522681970849, "lng": 80.11887851970849}}}, "icon": "https://maps.gstatic.com/mapfiles/place_api/icons/v1/png_71/school-71.png", "icon_background_color": "#7B9EB0", "icon_mask_base_uri": "https://maps.gstatic.com/mapfiles/place_api/icons/v2/school_pinlet", "name": "AmiR", "place_id": "ChIJYQY4CGiLnjkRBBLAtKNcvPQ", "reference": "ChIJYQY4CGiLnjkRBBLAtKNcvPQ", "scope": "GOOGLE", "types": ["school", "point_of_interest", "establishment"], "vicinity": "44GC+J43, Shekhanpur"}], "status": "OK"}