{"html_attributions": [], "results": [{"business_status": "OPERATIONAL", "geometry": {"location": {"lat": 27.1649681, "lng": 80.1038765}, "viewport": {"northeast": {"lat": 27.1663320802915, "lng": 80.1051812802915}, "southwest": {"lat": 27.1636341197085, "lng": 80.1024833197085}}}, "icon": "https://maps.gstatic.com/mapfiles/place_api/icons/v1/png_71/school-71.png", "icon_background_color": "#7B9EB0", "icon_mask_base_uri": "https://maps.gstatic.com/mapfiles/place_api/icons/v2/school_pinlet", "name": "Madhyamik Vidyalaya Birauri", "opening_hours": {"open_now": false}, "place_id": "ChIJ0-vBWJuKnjkRZrlDFcY-I5k", "rating": 3, "reference": "ChIJ0-vBWJuKnjkRZrlDFcY-I5k", "scope": "GOOGLE", "types": ["school", "point_of_interest", "establishment"], "user_ratings_total": 1, "vicinity": "5473+XHJ, Gujrai"}, {"business_status": "OPERATIONAL", "geometry": {"location": {"lat": 27.15967, "lng": 80.10168829999999}, "viewport": {"northeast": {"lat": 27.1610199802915, "lng": 80.1030354302915}, "southwest": {"lat": 27.1583220197085, "lng": 80.10033746970849}}}, "icon": "https://maps.gstatic.com/mapfiles/place_api/icons/v1/png_71/school-71.png", "icon_background_color": "#7B9EB0", "icon_mask_base_uri": "https://maps.gstatic.com/mapfiles/place_api/icons/v2/school_pinlet", "name": "Sankar Lal Inter College", "place_id": "ChIJDYDXuYOKnjkRDFJAdRTs7ag", "rating": 1, "reference": "ChIJDYDXuYOKnjkRDFJAdRTs7ag", "scope": "GOOGLE", "types": ["school", "point_of_interest", "establishment"], "user_ratings_total": 1, "vicinity": "5452+VM8, Birauri"}, {"business_status": "OPERATIONAL", "geometry": {"location": {"lat": 27.16909, "lng": 80.09703669999999}, "viewport": {"northeast": {"lat": 27.1704310802915, "lng": 80.0983788802915}, "southwest": {"lat": 27.1677331197085, "lng": 80.0956809197085}}}, "icon": "https://maps.gstatic.com/mapfiles/place_api/icons/v1/png_71/school-71.png", "icon_background_color": "#7B9EB0", "icon_mask_base_uri": "https://maps.gstatic.com/mapfiles/place_api/icons/v2/school_pinlet", "name": "radha krishanan shstry mahavidyalaye", "place_id": "ChIJgcGjSydgnjkRQz5hbzqOoTM", "reference": "ChIJgcGjSydgnjkRQz5hbzqOoTM", "scope": "GOOGLE", "types": ["school", "point_of_interest", "establishment"], "vicinity": "539W+JRM, Bargawan"}, {"business_status": "OPERATIONAL", "geometry": {"location": {"lat": 27.1741758, "lng": 80.103388}, "viewport": {"northeast": {"lat": 27.17634930000001, "lng": 80.1046826302915}, "southwest": {"lat": 27.1734513, "lng": 80.1019846697085}}}, "icon": "https://maps.gstatic.com/mapfiles/place_api/icons/v1/png_71/school-71.png", "icon_background_color": "#7B9EB0", "icon_mask_base_uri": "https://maps.gstatic.com/mapfiles/place_api/icons/v2/school_pinlet", "name": "Osama kirana stor", "place_id": "ChIJS61jbAyLnjkR25mOKvbKHF4", "reference": "ChIJS61jbAyLnjkR25mOKvbKHF4", "scope": "GOOGLE", "types": ["primary_school", "school", "point_of_interest", "establishment"], "vicinity": "54F3+M9C, Gujrai"}], "status": "OK"}