{"html_attributions": [], "results": [{"business_status": "OPERATIONAL", "geometry": {"location": {"lat": 27.3178407, "lng": 80.1051585}, "viewport": {"northeast": {"lat": 27.3190228802915, "lng": 80.10685743029151}, "southwest": {"lat": 27.3163249197085, "lng": 80.1041594697085}}}, "icon": "https://maps.gstatic.com/mapfiles/place_api/icons/v1/png_71/school-71.png", "icon_background_color": "#7B9EB0", "icon_mask_base_uri": "https://maps.gstatic.com/mapfiles/place_api/icons/v2/school_pinlet", "name": "Akash. GupTa Hardoi KUTUAPUR", "place_id": "ChIJGdDSDjH3njkRlNDJMBSYnu4", "plus_code": {"compound_code": "8494+43 Bhadeicha, Uttar Pradesh, India", "global_code": "7MV28494+43"}, "reference": "ChIJGdDSDjH3njkRlNDJMBSYnu4", "scope": "GOOGLE", "types": ["school", "point_of_interest", "establishment"], "vicinity": "Bahraich ka Hardoi 685 Kirana store"}, {"business_status": "OPERATIONAL", "geometry": {"location": {"lat": 27.3268698, "lng": 80.09616849999999}, "viewport": {"northeast": {"lat": 27.3281555802915, "lng": 80.0974211802915}, "southwest": {"lat": 27.3254576197085, "lng": 80.0947232197085}}}, "icon": "https://maps.gstatic.com/mapfiles/place_api/icons/v1/png_71/school-71.png", "icon_background_color": "#7B9EB0", "icon_mask_base_uri": "https://maps.gstatic.com/mapfiles/place_api/icons/v2/school_pinlet", "name": "Bhadaicha bazar", "place_id": "ChIJ0R0Bps9ZnjkR8pbEwJO8Vps", "plus_code": {"compound_code": "83GW+PF Bhadeicha, Uttar Pradesh, India", "global_code": "7MV283GW+PF"}, "rating": 5, "reference": "ChIJ0R0Bps9ZnjkR8pbEwJO8Vps", "scope": "GOOGLE", "types": ["school", "point_of_interest", "establishment"], "user_ratings_total": 1, "vicinity": "Unnamed Road, Bhadeicha"}, {"business_status": "OPERATIONAL", "geometry": {"location": {"lat": 27.3109052, "lng": 80.10208879999999}, "viewport": {"northeast": {"lat": 27.3123231802915, "lng": 80.1032992802915}, "southwest": {"lat": 27.3096252197085, "lng": 80.10060131970847}}}, "icon": "https://maps.gstatic.com/mapfiles/place_api/icons/v1/png_71/school-71.png", "icon_background_color": "#7B9EB0", "icon_mask_base_uri": "https://maps.gstatic.com/mapfiles/place_api/icons/v2/school_pinlet", "name": "Vivekanand Shikshan Sansthan", "place_id": "ChIJ4W5x6x72njkRkUFg3ruIhPQ", "rating": 4, "reference": "ChIJ4W5x6x72njkRkUFg3ruIhPQ", "scope": "GOOGLE", "types": ["school", "point_of_interest", "establishment"], "user_ratings_total": 2, "vicinity": "8462+9R8, Bhadeicha"}], "status": "OK"}