{"html_attributions": [], "results": [{"business_status": "OPERATIONAL", "geometry": {"location": {"lat": 26.9737336, "lng": 80.13049149999999}, "viewport": {"northeast": {"lat": 26.9751398302915, "lng": 80.13177058029149}, "southwest": {"lat": 26.9724418697085, "lng": 80.12907261970848}}}, "icon": "https://maps.gstatic.com/mapfiles/place_api/icons/v1/png_71/school-71.png", "icon_background_color": "#7B9EB0", "icon_mask_base_uri": "https://maps.gstatic.com/mapfiles/place_api/icons/v2/school_pinlet", "name": "Govt. Primary School", "place_id": "ChIJj6DF4aWHnjkRa2vqpM4yS7Y", "rating": 4.5, "reference": "ChIJj6DF4aWHnjkRa2vqpM4yS7Y", "scope": "GOOGLE", "types": ["school", "point_of_interest", "establishment"], "user_ratings_total": 2, "vicinity": "X4FJ+F5X, Kushraj Pur"}, {"business_status": "OPERATIONAL", "geometry": {"location": {"lat": 26.9786395, "lng": 80.1368758}, "viewport": {"northeast": {"lat": 26.9793307802915, "lng": 80.1386954802915}, "southwest": {"lat": 26.9766328197085, "lng": 80.13599751970848}}}, "icon": "https://maps.gstatic.com/mapfiles/place_api/icons/v1/png_71/school-71.png", "icon_background_color": "#7B9EB0", "icon_mask_base_uri": "https://maps.gstatic.com/mapfiles/place_api/icons/v2/school_pinlet", "name": "Gvt. Primary & Junior Highschool", "place_id": "ChIJLw6PDK6HnjkRQIiobR7oGHc", "plus_code": {"compound_code": "X4HP+FQ Kushraj Pur, Uttar Pradesh, India", "global_code": "7MR2X4HP+FQ"}, "reference": "ChIJLw6PDK6HnjkRQIiobR7oGHc", "scope": "GOOGLE", "types": ["school", "point_of_interest", "establishment"], "vicinity": "Lonari Road, Kushraj Pur"}, {"business_status": "OPERATIONAL", "geometry": {"location": {"lat": 26.9785495, "lng": 80.1369725}, "viewport": {"northeast": {"lat": 26.9798383802915, "lng": 80.13823533029152}, "southwest": {"lat": 26.9771404197085, "lng": 80.1355373697085}}}, "icon": "https://maps.gstatic.com/mapfiles/place_api/icons/v1/png_71/school-71.png", "icon_background_color": "#7B9EB0", "icon_mask_base_uri": "https://maps.gstatic.com/mapfiles/place_api/icons/v2/school_pinlet", "name": "Primary and Junior School Lonari", "place_id": "ChIJeQ5IC66HnjkRC3oUljT1GVY", "rating": 5, "reference": "ChIJeQ5IC66HnjkRC3oUljT1GVY", "scope": "GOOGLE", "types": ["school", "point_of_interest", "establishment"], "user_ratings_total": 1, "vicinity": "X4HP+CQ9, Kushraj Pur"}, {"business_status": "OPERATIONAL", "geometry": {"location": {"lat": 26.9720747, "lng": 80.1245776}, "viewport": {"northeast": {"lat": 26.9732973302915, "lng": 80.1258014802915}, "southwest": {"lat": 26.9705993697085, "lng": 80.1231035197085}}}, "icon": "https://maps.gstatic.com/mapfiles/place_api/icons/v1/png_71/school-71.png", "icon_background_color": "#7B9EB0", "icon_mask_base_uri": "https://maps.gstatic.com/mapfiles/place_api/icons/v2/school_pinlet", "name": "Govt High School", "place_id": "ChIJpek3aqGHnjkRvDLCOHT9KiY", "plus_code": {"compound_code": "X4CF+RR Balla Pur, Uttar Pradesh, India", "global_code": "7MR2X4CF+RR"}, "rating": 4.5, "reference": "ChIJpek3aqGHnjkRvDLCOHT9KiY", "scope": "GOOGLE", "types": ["school", "point_of_interest", "establishment"], "user_ratings_total": 2, "vicinity": "Ballapur Road, Balla Pur"}, {"geometry": {"location": {"lat": 26.9737662, "lng": 80.13055860000001}, "viewport": {"northeast": {"lat": 26.97502323849678, "lng": 80.13189666092266}, "southwest": {"lat": 26.97232527791378, "lng": 80.12919870033966}}}, "icon": "https://maps.gstatic.com/mapfiles/place_api/icons/v1/png_71/school-71.png", "icon_background_color": "#7B9EB0", "icon_mask_base_uri": "https://maps.gstatic.com/mapfiles/place_api/icons/v2/school_pinlet", "name": "\u0915\u0941\u0936\u0930\u093e\u091c\u092a\u0941\u0930 \u092a\u094d\u0930\u093e\u0925\u092e\u093f\u0915 \u0935\u093f\u0926\u094d\u092f\u093e\u0932\u092f", "place_id": "ChIJcRnY4aWHnjkRsd1OoRaMUVA", "reference": "ChIJcRnY4aWHnjkRsd1OoRaMUVA", "scope": "GOOGLE", "types": ["primary_school", "premise", "school", "establishment"], "vicinity": "Balla Pur"}, {"geometry": {"location": {"lat": 26.9785411, "lng": 80.1369704}, "viewport": {"northeast": {"lat": 26.9798828910911, "lng": 80.13832328852885}, "southwest": {"lat": 26.9771849305081, "lng": 80.13562532794585}}}, "icon": "https://maps.gstatic.com/mapfiles/place_api/icons/v1/png_71/school-71.png", "icon_background_color": "#7B9EB0", "icon_mask_base_uri": "https://maps.gstatic.com/mapfiles/place_api/icons/v2/school_pinlet", "name": "\u092a\u094d\u0930\u093e\u0925\u092e\u093f\u0915/\u0909\u091a\u094d\u091a\u092a\u094d\u0930\u093e\u0925\u092e\u093f\u0915 \u0935\u093f\u0926\u094d\u092f\u093e\u0932\u092f , \u0932\u094b\u0928\u093e\u0930\u0940", "place_id": "ChIJD6RaC66HnjkRjCqH25cfaAs", "reference": "ChIJD6RaC66HnjkRjCqH25cfaAs", "scope": "GOOGLE", "types": ["primary_school", "premise", "school", "establishment"], "vicinity": "Lonari"}], "status": "OK"}