{"html_attributions": [], "results": [{"business_status": "OPERATIONAL", "geometry": {"location": {"lat": 27.1135842, "lng": 80.1320992}, "viewport": {"northeast": {"lat": 27.1149852302915, "lng": 80.1334754302915}, "southwest": {"lat": 27.1122872697085, "lng": 80.13077746970849}}}, "icon": "https://maps.gstatic.com/mapfiles/place_api/icons/v1/png_71/school-71.png", "icon_background_color": "#7B9EB0", "icon_mask_base_uri": "https://maps.gstatic.com/mapfiles/place_api/icons/v2/school_pinlet", "name": "St. Teresa Convent School", "opening_hours": {"open_now": false}, "photos": [{"height": 502, "html_attributions": ["<a href=\"https://maps.google.com/maps/contrib/102826602685050363835\">St. Teresa Convent School</a>"], "photo_reference": "Aap_uEAnY17APWu5Y_cFaWpt_aV7VKDp7bS_aIRCwI4W7N_fqHJSTCJVx10G41auXqqJr99PwWKH6fjmo46HPAWNhR-YXkFUdzqtiNhkQCfRj3xxWuFH6pKFH4FiXr0Nfxbs3BJPY5oCcjzE58fHigRr860z0q7dPhCKF_RfKJZEZ-6ygVyS", "width": 1032}], "place_id": "ChIJ3fY9vSWKnjkRk4X1SAbHM3o", "plus_code": {"compound_code": "447J+CR Rudamau, Uttar Pradesh, India", "global_code": "7MV2447J+CR"}, "rating": 4.5, "reference": "ChIJ3fY9vSWKnjkRk4X1SAbHM3o", "scope": "GOOGLE", "types": ["school", "point_of_interest", "establishment"], "user_ratings_total": 4, "vicinity": "Kanpur Road, Sharda Nehar, Rudamau"}, {"business_status": "OPERATIONAL", "geometry": {"location": {"lat": 27.095985, "lng": 80.121478}, "viewport": {"northeast": {"lat": 27.0972596802915, "lng": 80.1227690802915}, "southwest": {"lat": 27.0945617197085, "lng": 80.12007111970848}}}, "icon": "https://maps.gstatic.com/mapfiles/place_api/icons/v1/png_71/school-71.png", "icon_background_color": "#7B9EB0", "icon_mask_base_uri": "https://maps.gstatic.com/mapfiles/place_api/icons/v2/school_pinlet", "name": "Manish Sharma", "place_id": "ChIJVRiTDEmJnjkRKBTwIlhR9S0", "plus_code": {"compound_code": "34WC+9H Selapur, Uttar Pradesh, India", "global_code": "7MV234WC+9H"}, "reference": "ChIJVRiTDEmJnjkRKBTwIlhR9S0", "scope": "GOOGLE", "types": ["primary_school", "school", "point_of_interest", "establishment"], "vicinity": "Unnamed Road, Selapur"}, {"business_status": "OPERATIONAL", "geometry": {"location": {"lat": 27.0954517, "lng": 80.1216941}, "viewport": {"northeast": {"lat": 27.0968027302915, "lng": 80.1230460802915}, "southwest": {"lat": 27.0941047697085, "lng": 80.1203481197085}}}, "icon": "https://maps.gstatic.com/mapfiles/place_api/icons/v1/png_71/school-71.png", "icon_background_color": "#7B9EB0", "icon_mask_base_uri": "https://maps.gstatic.com/mapfiles/place_api/icons/v2/school_pinlet", "name": "Primary school", "place_id": "ChIJv6g8qpyJnjkR5vXV957UVTo", "plus_code": {"compound_code": "34WC+5M Selapur, Uttar Pradesh, India", "global_code": "7MV234WC+5M"}, "reference": "ChIJv6g8qpyJnjkR5vXV957UVTo", "scope": "GOOGLE", "types": ["primary_school", "school", "point_of_interest", "establishment"], "vicinity": "Unnamed Road"}, {"business_status": "OPERATIONAL", "geometry": {"location": {"lat": 27.1046446, "lng": 80.1370534}, "viewport": {"northeast": {"lat": 27.1061490802915, "lng": 80.13830623029149}, "southwest": {"lat": 27.1034511197085, "lng": 80.13560826970848}}}, "icon": "https://maps.gstatic.com/mapfiles/place_api/icons/v1/png_71/school-71.png", "icon_background_color": "#7B9EB0", "icon_mask_base_uri": "https://maps.gstatic.com/mapfiles/place_api/icons/v2/school_pinlet", "name": "R R R P Verma I C Terwa Madhoganj Hardoi Up", "photos": [{"height": 520, "html_attributions": ["<a href=\"https://maps.google.com/maps/contrib/117720431504807726816\">R R R P Verma I C Terwa Madhoganj Hardoi Up</a>"], "photo_reference": "Aap_uEAadEUmE1GHdYBKSdZZFlZxgpAojpi-5SvTuAMYuzSe3Y9PI-pyuxBPGALU-1bW1i_ePy35qe9G9miOcBF8U5tc3W1JDLZnc_IOWwPuh5ru6aFf-Btl1S9k3LTRf8TF0jel8PE68LKEAdYnAyHvCxwCdxNG-o4GIl2_N-S4h4Xdwtwo", "width": 926}], "place_id": "ChIJeeGNy2iJnjkRL3g7auSL2pQ", "plus_code": {"compound_code": "443P+VR Terwa, Uttar Pradesh, India", "global_code": "7MV2443P+VR"}, "rating": 5, "reference": "ChIJeeGNy2iJnjkRL3g7auSL2pQ", "scope": "GOOGLE", "types": ["school", "point_of_interest", "establishment"], "user_ratings_total": 1, "vicinity": "Terwa"}, {"business_status": "OPERATIONAL", "geometry": {"location": {"lat": 27.1100567, "lng": 80.1198283}, "viewport": {"northeast": {"lat": 27.1113722302915, "lng": 80.1212181302915}, "southwest": {"lat": 27.1086742697085, "lng": 80.11852016970849}}}, "icon": "https://maps.gstatic.com/mapfiles/place_api/icons/v1/png_71/school-71.png", "icon_background_color": "#7B9EB0", "icon_mask_base_uri": "https://maps.gstatic.com/mapfiles/place_api/icons/v2/school_pinlet", "name": "Prathmic school dulraypurwa", "place_id": "ChIJBWKsca2LnjkRFFIf7Dq67oE", "reference": "ChIJBWKsca2LnjkRFFIf7Dq67oE", "scope": "GOOGLE", "types": ["school", "point_of_interest", "establishment"], "vicinity": "4469+2WG, Dulraypurwa, Madhoganj"}, {"business_status": "OPERATIONAL", "geometry": {"location": {"lat": 27.1130318, "lng": 80.12567109999999}, "viewport": {"northeast": {"lat": 27.1142528302915, "lng": 80.1269834802915}, "southwest": {"lat": 27.1115548697085, "lng": 80.1242855197085}}}, "icon": "https://maps.gstatic.com/mapfiles/place_api/icons/v1/png_71/school-71.png", "icon_background_color": "#7B9EB0", "icon_mask_base_uri": "https://maps.gstatic.com/mapfiles/place_api/icons/v2/school_pinlet", "name": "DDU GKY", "opening_hours": {"open_now": true}, "place_id": "ChIJn01cuXuLnjkRqNhFSQQ7EDc", "rating": 5, "reference": "ChIJn01cuXuLnjkRqNhFSQQ7EDc", "scope": "GOOGLE", "types": ["school", "point_of_interest", "establishment"], "user_ratings_total": 1, "vicinity": "447G+677, Parhra Lakhanpur"}, {"business_status": "OPERATIONAL", "geometry": {"location": {"lat": 27.1131386, "lng": 80.1261633}, "viewport": {"northeast": {"lat": 27.1144140302915, "lng": 80.1277186802915}, "southwest": {"lat": 27.11171606970849, "lng": 80.12502071970849}}}, "icon": "https://maps.gstatic.com/mapfiles/place_api/icons/v1/png_71/school-71.png", "icon_background_color": "#7B9EB0", "icon_mask_base_uri": "https://maps.gstatic.com/mapfiles/place_api/icons/v2/school_pinlet", "name": "S S Mahavidyalay Rudamau", "place_id": "ChIJyaenqiaKnjkRhjMwTF7Krfo", "rating": 3.3, "reference": "ChIJyaenqiaKnjkRhjMwTF7Krfo", "scope": "GOOGLE", "types": ["school", "point_of_interest", "establishment"], "user_ratings_total": 3, "vicinity": "447G+7F3, Parhra Lakhanpur"}, {"business_status": "OPERATIONAL", "geometry": {"location": {"lat": 27.112295, "lng": 80.132359}, "viewport": {"northeast": {"lat": 27.1141813302915, "lng": 80.1339893302915}, "southwest": {"lat": 27.1114833697085, "lng": 80.13129136970848}}}, "icon": "https://maps.gstatic.com/mapfiles/place_api/icons/v1/png_71/school-71.png", "icon_background_color": "#7B9EB0", "icon_mask_base_uri": "https://maps.gstatic.com/mapfiles/place_api/icons/v2/school_pinlet", "name": "Madhoganj public school", "place_id": "ChIJ5ePWoiiKnjkRHiYbzLq1qKk", "rating": 3, "reference": "ChIJ5ePWoiiKnjkRHiYbzLq1qKk", "scope": "GOOGLE", "types": ["school", "point_of_interest", "establishment"], "user_ratings_total": 1, "vicinity": "446J+WW9, Rudamau"}, {"business_status": "OPERATIONAL", "geometry": {"location": {"lat": 27.1137967, "lng": 80.1313661}, "viewport": {"northeast": {"lat": 27.1152352802915, "lng": 80.13276458029151}, "southwest": {"lat": 27.1125373197085, "lng": 80.1300666197085}}}, "icon": "https://maps.gstatic.com/mapfiles/place_api/icons/v1/png_71/school-71.png", "icon_background_color": "#7B9EB0", "icon_mask_base_uri": "https://maps.gstatic.com/mapfiles/place_api/icons/v2/school_pinlet", "name": "St. Teresa Convent School", "place_id": "ChIJx_Yyw7eLnjkRYXSm4RJNJS8", "plus_code": {"compound_code": "447J+GG Rudamau, Uttar Pradesh, India", "global_code": "7MV2447J+GG"}, "rating": 5, "reference": "ChIJx_Yyw7eLnjkRYXSm4RJNJS8", "scope": "GOOGLE", "types": ["school", "point_of_interest", "establishment"], "user_ratings_total": 1, "vicinity": "Nabiganj - Jasmai Road, Rudamau"}, {"business_status": "OPERATIONAL", "geometry": {"location": {"lat": 27.1123143, "lng": 80.1352738}, "viewport": {"northeast": {"lat": 27.1137377302915, "lng": 80.1366527302915}, "southwest": {"lat": 27.1110397697085, "lng": 80.1339547697085}}}, "icon": "https://maps.gstatic.com/mapfiles/place_api/icons/v1/png_71/school-71.png", "icon_background_color": "#7B9EB0", "icon_mask_base_uri": "https://maps.gstatic.com/mapfiles/place_api/icons/v2/school_pinlet", "name": "Uva Josh Competiton Classes", "place_id": "ChIJiw3eFymKnjkRQyYaFgDEXZc", "plus_code": {"compound_code": "446P+W4 Sharda Nagar, Uttar Pradesh, India", "global_code": "7MV2446P+W4"}, "reference": "ChIJiw3eFymKnjkRQyYaFgDEXZc", "scope": "GOOGLE", "types": ["school", "point_of_interest", "establishment"], "vicinity": "Nabiganj - Jasmai Road, Sharda Nagar"}], "status": "OK"}