{"html_attributions": [], "results": [{"business_status": "OPERATIONAL", "geometry": {"location": {"lat": 27.1931059, "lng": 80.12101919999999}, "viewport": {"northeast": {"lat": 27.1944618802915, "lng": 80.12235088029152}, "southwest": {"lat": 27.1917639197085, "lng": 80.1196529197085}}}, "icon": "https://maps.gstatic.com/mapfiles/place_api/icons/v1/png_71/school-71.png", "icon_background_color": "#7B9EB0", "icon_mask_base_uri": "https://maps.gstatic.com/mapfiles/place_api/icons/v2/school_pinlet", "name": "Junior High School", "opening_hours": {"open_now": false}, "place_id": "ChIJMxCnf02LnjkRkoNPjx1u504", "reference": "ChIJMxCnf02LnjkRkoNPjx1u504", "scope": "GOOGLE", "types": ["school", "point_of_interest", "establishment"], "vicinity": "54VC+6CR, Noorpur Hathaura"}, {"business_status": "OPERATIONAL", "geometry": {"location": {"lat": 27.1926896, "lng": 80.1208542}, "viewport": {"northeast": {"lat": 27.1940135802915, "lng": 80.1222032802915}, "southwest": {"lat": 27.1913156197085, "lng": 80.1195053197085}}}, "icon": "https://maps.gstatic.com/mapfiles/place_api/icons/v1/png_71/school-71.png", "icon_background_color": "#7B9EB0", "icon_mask_base_uri": "https://maps.gstatic.com/mapfiles/place_api/icons/v2/school_pinlet", "name": "English Medium School Nurpur hathoda", "photos": [{"height": 1920, "html_attributions": ["<a href=\"https://maps.google.com/maps/contrib/110798076969169602361\">Rohit Kumar</a>"], "photo_reference": "Aap_uEDtBDuofxJbD9jWH4Ak4A336fXCKycgmPje2FiE0q0eTOB7N_FqpnzOD_uQflNODjsG2NkL6iFM2hsTqAMtu9yn8THfbVBEgbQYes-qENHLY88xHL8CYtfM0cj5zdRbgagH7fO7h0LoLwfyXutfOLZfowhtq4s97yoUK45gscDLaZ-7", "width": 1080}], "place_id": "ChIJXWgaZLWLnjkR40V71f6Zka0", "plus_code": {"compound_code": "54VC+38 Noorpur Hathaura, Uttar Pradesh, India", "global_code": "7MV254VC+38"}, "reference": "ChIJXWgaZLWLnjkR40V71f6Zka0", "scope": "GOOGLE", "types": ["primary_school", "school", "point_of_interest", "establishment"], "vicinity": "Noorpur Hathaura"}, {"business_status": "OPERATIONAL", "geometry": {"location": {"lat": 27.1926392, "lng": 80.12086289999999}, "viewport": {"northeast": {"lat": 27.1940136802915, "lng": 80.12221178029151}, "southwest": {"lat": 27.1913157197085, "lng": 80.11951381970849}}}, "icon": "https://maps.gstatic.com/mapfiles/place_api/icons/v1/png_71/school-71.png", "icon_background_color": "#7B9EB0", "icon_mask_base_uri": "https://maps.gstatic.com/mapfiles/place_api/icons/v2/school_pinlet", "name": "English Medium School", "opening_hours": {"open_now": true}, "place_id": "ChIJWfG3n2SLnjkRs2zzJHAaHPU", "reference": "ChIJWfG3n2SLnjkRs2zzJHAaHPU", "scope": "GOOGLE", "types": ["school", "point_of_interest", "establishment"], "vicinity": "54VC+385, Noorpur Hathaura"}], "status": "OK"}