{"html_attributions": [], "results": [{"business_status": "OPERATIONAL", "geometry": {"location": {"lat": 27.2849855, "lng": 80.1271081}, "viewport": {"northeast": {"lat": 27.2863621802915, "lng": 80.12849088029151}, "southwest": {"lat": 27.2836642197085, "lng": 80.1257929197085}}}, "icon": "https://maps.gstatic.com/mapfiles/place_api/icons/v1/png_71/school-71.png", "icon_background_color": "#7B9EB0", "icon_mask_base_uri": "https://maps.gstatic.com/mapfiles/place_api/icons/v2/school_pinlet", "name": "ENGLISH MEDIUM PRIMARY SCHOOL SURSA", "photos": [{"height": 3120, "html_attributions": ["<a href=\"https://maps.google.com/maps/contrib/102586034282169830579\">AMIT KUMAR</a>"], "photo_reference": "Aap_uEBYI1g4JFuBkKG8ZjTz9Y8c_uRa8Tihb9neBK9Esws_DJCOapZJLbotAU82Bs2nQvyE8Cv_tfuZsC988u8Q8B7kYBi1-Ma7uROX_ZcqKO-RGTwKRloo5xvYY3TOrI71q0doT0I7K54EPXZUUs62WldWUupz958vj5WKNNSEqY3iDiL9", "width": 4160}], "place_id": "ChIJyRTondv1njkRVxG_P5URp6Q", "rating": 4, "reference": "ChIJyRTondv1njkRVxG_P5URp6Q", "scope": "GOOGLE", "types": ["school", "point_of_interest", "establishment"], "user_ratings_total": 1, "vicinity": "74MG+XRX, Sursaa"}, {"business_status": "OPERATIONAL", "geometry": {"location": {"lat": 27.28665, "lng": 80.1286683}, "viewport": {"northeast": {"lat": 27.2879902302915, "lng": 80.1300596802915}, "southwest": {"lat": 27.2852922697085, "lng": 80.12736171970849}}}, "icon": "https://maps.gstatic.com/mapfiles/place_api/icons/v1/png_71/school-71.png", "icon_background_color": "#7B9EB0", "icon_mask_base_uri": "https://maps.gstatic.com/mapfiles/place_api/icons/v2/school_pinlet", "name": "Abhishek Kumar", "place_id": "ChIJ5Yr9mfz1njkRmGWUo-2u3ms", "reference": "ChIJ5Yr9mfz1njkRmGWUo-2u3ms", "scope": "GOOGLE", "types": ["school", "point_of_interest", "establishment"], "vicinity": "74PH+MF3, \u0938\u093f\u0930\u0938\u093e"}, {"business_status": "OPERATIONAL", "geometry": {"location": {"lat": 27.2883617, "lng": 80.1288167}, "viewport": {"northeast": {"lat": 27.2897240302915, "lng": 80.13013238029151}, "southwest": {"lat": 27.28702606970849, "lng": 80.1274344197085}}}, "icon": "https://maps.gstatic.com/mapfiles/place_api/icons/v1/png_71/school-71.png", "icon_background_color": "#7B9EB0", "icon_mask_base_uri": "https://maps.gstatic.com/mapfiles/place_api/icons/v2/school_pinlet", "name": "Anil tent house", "place_id": "ChIJ_T4_OTL1njkRFVedNYWWh3A", "plus_code": {"compound_code": "74QH+8G Oeranevliya, Uttar Pradesh, India", "global_code": "7MV274QH+8G"}, "rating": 1, "reference": "ChIJ_T4_OTL1njkRFVedNYWWh3A", "scope": "GOOGLE", "types": ["school", "point_of_interest", "establishment"], "user_ratings_total": 1, "vicinity": "Unnamed Road"}, {"business_status": "OPERATIONAL", "geometry": {"location": {"lat": 27.2883763, "lng": 80.12876229999999}, "viewport": {"northeast": {"lat": 27.2897184302915, "lng": 80.13012838029151}, "southwest": {"lat": 27.2870204697085, "lng": 80.12743041970849}}}, "icon": "https://maps.gstatic.com/mapfiles/place_api/icons/v1/png_71/school-71.png", "icon_background_color": "#7B9EB0", "icon_mask_base_uri": "https://maps.gstatic.com/mapfiles/place_api/icons/v2/school_pinlet", "name": "Shiv Kumar electricals", "place_id": "ChIJl6chS3v1njkRwjKIWBxOuLE", "plus_code": {"compound_code": "74QH+9G Oeranevliya, Uttar Pradesh, India", "global_code": "7MV274QH+9G"}, "reference": "ChIJl6chS3v1njkRwjKIWBxOuLE", "scope": "GOOGLE", "types": ["school", "point_of_interest", "establishment"], "vicinity": "Unnamed Road"}, {"business_status": "OPERATIONAL", "geometry": {"location": {"lat": 27.2884134, "lng": 80.1286118}, "viewport": {"northeast": {"lat": 27.2897658802915, "lng": 80.1299662802915}, "southwest": {"lat": 27.2870679197085, "lng": 80.12726831970848}}}, "icon": "https://maps.gstatic.com/mapfiles/place_api/icons/v1/png_71/school-71.png", "icon_background_color": "#7B9EB0", "icon_mask_base_uri": "https://maps.gstatic.com/mapfiles/place_api/icons/v2/school_pinlet", "name": "Murari ji hair cating", "place_id": "ChIJP1awxFb1njkRKOVOW9oAh5A", "plus_code": {"compound_code": "74QH+9C Oeranevliya, Uttar Pradesh, India", "global_code": "7MV274QH+9C"}, "reference": "ChIJP1awxFb1njkRKOVOW9oAh5A", "scope": "GOOGLE", "types": ["school", "point_of_interest", "establishment"], "vicinity": "Unnamed Road, Oeranevliya"}, {"business_status": "OPERATIONAL", "geometry": {"location": {"lat": 27.2796053, "lng": 80.1344842}, "viewport": {"northeast": {"lat": 27.2810341802915, "lng": 80.1359156802915}, "southwest": {"lat": 27.2783362197085, "lng": 80.1332177197085}}}, "icon": "https://maps.gstatic.com/mapfiles/place_api/icons/v1/png_71/school-71.png", "icon_background_color": "#7B9EB0", "icon_mask_base_uri": "https://maps.gstatic.com/mapfiles/place_api/icons/v2/school_pinlet", "name": "Upper Primary School", "place_id": "ChIJvfKQMAv1njkRKr5nHm_adN8", "reference": "ChIJvfKQMAv1njkRKr5nHm_adN8", "scope": "GOOGLE", "types": ["school", "point_of_interest", "establishment"], "vicinity": "74HM+RQX, koutheliya, Sursaa"}, {"business_status": "OPERATIONAL", "geometry": {"location": {"lat": 27.2796053, "lng": 80.1344842}, "viewport": {"northeast": {"lat": 27.2810341802915, "lng": 80.1359156802915}, "southwest": {"lat": 27.2783362197085, "lng": 80.1332177197085}}}, "icon": "https://maps.gstatic.com/mapfiles/place_api/icons/v1/png_71/school-71.png", "icon_background_color": "#7B9EB0", "icon_mask_base_uri": "https://maps.gstatic.com/mapfiles/place_api/icons/v2/school_pinlet", "name": "gyani", "photos": [{"height": 1600, "html_attributions": ["<a href=\"https://maps.google.com/maps/contrib/111514776409114577225\">gyani</a>"], "photo_reference": "Aap_uEApGjcWg0mmF1X5rqruPZJ5NqeIxp8dFhJ70utMKxGMCCRcORK93pURlcLNV-2kPXrGSgaiuBzEzWAc714M9YpC-yEmx9hID9ptnl3xMN_7Anm-SI6r0zeCQ_bxYSu02pFYycR5dGCxXnUSVge4IBQO1Ymi1qqs5NqdNU9X2_0iVMEt", "width": 1200}], "place_id": "ChIJMRo3HUD1njkRcDErPDvzsZI", "plus_code": {"compound_code": "74HM+RQ Sursaa, Uttar Pradesh, India", "global_code": "7MV274HM+RQ"}, "reference": "ChIJMRo3HUD1njkRcDErPDvzsZI", "scope": "GOOGLE", "types": ["school", "point_of_interest", "establishment"], "vicinity": "Sursaa"}, {"business_status": "OPERATIONAL", "geometry": {"location": {"lat": 27.2841068, "lng": 80.1177281}, "viewport": {"northeast": {"lat": 27.2856514802915, "lng": 80.11898955}, "southwest": {"lat": 27.2829535197085, "lng": 80.11394374999999}}}, "icon": "https://maps.gstatic.com/mapfiles/place_api/icons/v1/png_71/school-71.png", "icon_background_color": "#7B9EB0", "icon_mask_base_uri": "https://maps.gstatic.com/mapfiles/place_api/icons/v2/school_pinlet", "name": "Prathmik Vidyalaya Bhadurpurva Durga Hardoi", "place_id": "ChIJ13uVdxr1njkRVa780fwySCA", "reference": "ChIJ13uVdxr1njkRVa780fwySCA", "scope": "GOOGLE", "types": ["school", "point_of_interest", "establishment"], "vicinity": "74M9+J3X, Oeranevliya"}, {"business_status": "OPERATIONAL", "geometry": {"location": {"lat": 27.27333609999999, "lng": 80.1333497}, "viewport": {"northeast": {"lat": 27.2746801802915, "lng": 80.13465948029149}, "southwest": {"lat": 27.27198221970849, "lng": 80.13196151970848}}}, "icon": "https://maps.gstatic.com/mapfiles/place_api/icons/v1/png_71/school-71.png", "icon_background_color": "#7B9EB0", "icon_mask_base_uri": "https://maps.gstatic.com/mapfiles/place_api/icons/v2/school_pinlet", "name": "\u0906\u0902\u0917\u0928\u0935\u093e\u0921\u0940 \u0915\u0947\u0902\u0926\u094d\u0930 \u0909\u092e\u0930\u093e \u092a\u0941\u0930", "photos": [{"height": 3456, "html_attributions": ["<a href=\"https://maps.google.com/maps/contrib/100656442331779774226\">Vimlesh Pal</a>"], "photo_reference": "Aap_uEB95FAODdO9gETR1UeTalJFQa7zWXB1Z1dBlKa9_2FXrSuVmKmuP69KPEiGIX0_MkcJbzVXJWpDKfTvWydmNQOO8ftXf_OlKLwdMCvN5XmuGFhSsiIpy-q79aZJSq8MUkhdcdN3yUTmm4kuFDPoLh943NgSO4iPHNaWiXkEomZbOt1h", "width": 3456}], "place_id": "ChIJa3wnfkD1njkR4J3up1Or398", "plus_code": {"compound_code": "74FM+88 Sursaa, Uttar Pradesh, India", "global_code": "7MV274FM+88"}, "rating": 1, "reference": "ChIJa3wnfkD1njkR4J3up1Or398", "scope": "GOOGLE", "types": ["school", "point_of_interest", "establishment"], "user_ratings_total": 1, "vicinity": "Unnamed Road, Sursaa"}, {"business_status": "OPERATIONAL", "geometry": {"location": {"lat": 27.2755363, "lng": 80.1171461}, "viewport": {"northeast": {"lat": 27.2767719302915, "lng": 80.1184403302915}, "southwest": {"lat": 27.2740739697085, "lng": 80.11574236970849}}}, "icon": "https://maps.gstatic.com/mapfiles/place_api/icons/v1/png_71/school-71.png", "icon_background_color": "#7B9EB0", "icon_mask_base_uri": "https://maps.gstatic.com/mapfiles/place_api/icons/v2/school_pinlet", "name": "PRIMARY SCHOOL BHAKURAI", "photos": [{"height": 960, "html_attributions": ["<a href=\"https://maps.google.com/maps/contrib/104184660309346922640\">Jitendra Verma</a>"], "photo_reference": "Aap_uEA817JqKu_WpHi_PIV2lEqFxSsta6b9HJK5l1zZ1QmGryvvaJm903IM6vid-nIxrwIrnmp1PD3QmX1Qkf8VwcxPyvG6LeJUa3oaGsk9kV2JmZerXPAryYviDDoVY_2aeX3-8VPWXx3btj9sctOh-zqmBvQLLZZrvaTM3dr5Q5OiZiMY", "width": 720}], "place_id": "ChIJXfU9iOH1njkRL0xov3y6Lao", "rating": 4.3, "reference": "ChIJXfU9iOH1njkRL0xov3y6Lao", "scope": "GOOGLE", "types": ["school", "point_of_interest", "establishment"], "user_ratings_total": 6, "vicinity": "74G8+6V6, Bhakurai, Sursaa"}], "status": "OK"}