{"html_attributions": [], "next_page_token": "Aap_uEDxwHQ-rxwyTDS2UhA_0GNxpKg1FrB4vgGk79Eid5IVr3LikfVqantfwFV-vcif0BwV3a3L7QHvt3cX6dlsRVDPfiseYT4tnsBfcjak5COKMSdPquM-zO4At4H3yii0-cfzg_C4Tuml4MDRfV8soAqp7wbl2YIrfx5ROY85U24zR8xHNjoOtjtXLRqnEyKnkl6RrVTutY-PYGs4D3wyDGXAyotqjFktItFJrKP0GxiOmFz0JHWn2de_4xafjs6JfTOKBbKUTFq_CH-2s0UY_FQ-7XhTv47f091wP23XvdiIdKAVvXkb_F-ngDKaKuphO-m1iQjU7WTh5kX-yi5TVsVPvjCMDaZQjHA2ZPec8ajAj8okX4d3748d3MV_WeL8mhlCApfEJO0ZDf6ia06AoiH8dvkRVBpjfO4aes3yP-0RPuZVYPk", "results": [{"business_status": "OPERATIONAL", "geometry": {"location": {"lat": 27.3926675, "lng": 80.12648039999999}, "viewport": {"northeast": {"lat": 27.3940737802915, "lng": 80.1278002802915}, "southwest": {"lat": 27.3913758197085, "lng": 80.12510231970849}}}, "icon": "https://maps.gstatic.com/mapfiles/place_api/icons/v1/png_71/school-71.png", "icon_background_color": "#7B9EB0", "icon_mask_base_uri": "https://maps.gstatic.com/mapfiles/place_api/icons/v2/school_pinlet", "name": "Madarsa Ashraful Madaris", "photos": [{"height": 511, "html_attributions": ["<a href=\"https://maps.google.com/maps/contrib/100176513809527059263\">Ahmad Zeeshan</a>"], "photo_reference": "Aap_uECwrnAcce0WUhkw-ORgfcwKzl5C2_RSQeSYLEwV1ACHFbsb0_jYli_NkeL_zp4QTGrgUsUTMEiGrTI8VsRZuOwn0jhHzLaASHhhjGXywnY499hwt3j0DbAmbSzuOps5r61209c9dnqqiPzJVtf1SRN-q1aec2dkbu88G0fxVzIrHo0R", "width": 1080}], "place_id": "ChIJ71QyAiT4njkRclAv4WMj9vU", "plus_code": {"compound_code": "94VG+3H Hardoi, Uttar Pradesh, India", "global_code": "7MV294VG+3H"}, "rating": 4.6, "reference": "ChIJ71QyAiT4njkRclAv4WMj9vU", "scope": "GOOGLE", "types": ["school", "point_of_interest", "establishment"], "user_ratings_total": 27, "vicinity": "Cinema Road, Hardoi"}, {"business_status": "OPERATIONAL", "geometry": {"location": {"lat": 27.3895424, "lng": 80.1362188}, "viewport": {"northeast": {"lat": 27.3908424802915, "lng": 80.13754838029149}, "southwest": {"lat": 27.3881445197085, "lng": 80.13485041970848}}}, "icon": "https://maps.gstatic.com/mapfiles/place_api/icons/v1/png_71/school-71.png", "icon_background_color": "#7B9EB0", "icon_mask_base_uri": "https://maps.gstatic.com/mapfiles/place_api/icons/v2/school_pinlet", "name": "Jay Kay Public School, HARDOI", "opening_hours": {"open_now": false}, "photos": [{"height": 4000, "html_attributions": ["<a href=\"https://maps.google.com/maps/contrib/110057482309284454308\">jaykayschool hardoi</a>"], "photo_reference": "Aap_uEDKpF3DKgjUE6QY7cAXMmjj064_XtZNxoAZqM-IY5e3RF-ePgnaucQ581NtWOMhxUi66S0_z8J2ZpqRQfB_loB9bi-YJ1VJT_jgtgU-tVK2JpDdHqvWhGYWS0p7alex5nInZ_n4GTdRDi19FLc8uSr_LGWJhVzGC_bJQ5v5zglYzI6s", "width": 6000}], "place_id": "ChIJ51PdkCn4njkReEWcdy8dLgg", "plus_code": {"compound_code": "94QP+RF Hardoi, Uttar Pradesh, India", "global_code": "7MV294QP+RF"}, "rating": 3.6, "reference": "ChIJ51PdkCn4njkReEWcdy8dLgg", "scope": "GOOGLE", "types": ["school", "point_of_interest", "establishment"], "user_ratings_total": 58, "vicinity": "C-278, Circular Road, Avas Vikas Colony, Hardoi"}, {"business_status": "OPERATIONAL", "geometry": {"location": {"lat": 27.3821424, "lng": 80.12700679999999}, "viewport": {"northeast": {"lat": 27.3834878802915, "lng": 80.12837263029151}, "southwest": {"lat": 27.38078991970849, "lng": 80.12567466970849}}}, "icon": "https://maps.gstatic.com/mapfiles/place_api/icons/v1/png_71/school-71.png", "icon_background_color": "#7B9EB0", "icon_mask_base_uri": "https://maps.gstatic.com/mapfiles/place_api/icons/v2/school_pinlet", "name": "S.P.M.Public School", "photos": [{"height": 1920, "html_attributions": ["<a href=\"https://maps.google.com/maps/contrib/113860921334191962434\">KUNWAR SATYAJEET SINGH</a>"], "photo_reference": "Aap_uEB53Wsvfq3qEbUFygp6I7NwBgU9RGWF06P5Kco29K3Q7Vyo01SN3nBsfZWDWmBQ21tnDzzWpKDNtC0VEb3-EpoQJ7hJu2gGxb6zuzpUq4Rdaahi2ZqsGZm_PfWsbbYPGP0rIiv0xG0WlXaAvb6SOk-fIfp83YykM9IMuLpJMygst2Id", "width": 1080}], "place_id": "ChIJGU-m_Hj3njkRaVFMu6_WBIM", "plus_code": {"compound_code": "94JG+VR Hardoi, Uttar Pradesh, India", "global_code": "7MV294JG+VR"}, "rating": 5, "reference": "ChIJGU-m_Hj3njkRaVFMu6_WBIM", "scope": "GOOGLE", "types": ["school", "point_of_interest", "establishment"], "user_ratings_total": 1, "vicinity": "Kanhai Purwa"}, {"business_status": "OPERATIONAL", "geometry": {"location": {"lat": 27.3830415, "lng": 80.1256896}, "viewport": {"northeast": {"lat": 27.3845099802915, "lng": 80.12697083029151}, "southwest": {"lat": 27.38181201970849, "lng": 80.1242728697085}}}, "icon": "https://maps.gstatic.com/mapfiles/place_api/icons/v1/png_71/school-71.png", "icon_background_color": "#7B9EB0", "icon_mask_base_uri": "https://maps.gstatic.com/mapfiles/place_api/icons/v2/school_pinlet", "name": "Shri Chhattar Pal Junior High School", "opening_hours": {"open_now": false}, "place_id": "ChIJTVpKZWf3njkR4ab6FAVtkBM", "plus_code": {"compound_code": "94MG+67 Hardoi, Uttar Pradesh, India", "global_code": "7MV294MG+67"}, "rating": 5, "reference": "ChIJTVpKZWf3njkR4ab6FAVtkBM", "scope": "GOOGLE", "types": ["school", "point_of_interest", "establishment"], "user_ratings_total": 1, "vicinity": "Circular Road, Hardoi"}, {"business_status": "OPERATIONAL", "geometry": {"location": {"lat": 27.3822351, "lng": 80.1239214}, "viewport": {"northeast": {"lat": 27.3835812802915, "lng": 80.12530628029151}, "southwest": {"lat": 27.38088331970849, "lng": 80.1226083197085}}}, "icon": "https://maps.gstatic.com/mapfiles/place_api/icons/v1/png_71/school-71.png", "icon_background_color": "#7B9EB0", "icon_mask_base_uri": "https://maps.gstatic.com/mapfiles/place_api/icons/v2/school_pinlet", "name": "Maharishi Vivekanand Saraswati Gyan Mandir", "place_id": "ChIJZbKFvjv3njkRtvo8ZTgCKAI", "reference": "ChIJZbKFvjv3njkRtvo8ZTgCKAI", "scope": "GOOGLE", "types": ["school", "point_of_interest", "establishment"], "vicinity": "94JF+VHV, Kanhai, Purwa"}, {"business_status": "OPERATIONAL", "geometry": {"location": {"lat": 27.3835619, "lng": 80.12300739999999}, "viewport": {"northeast": {"lat": 27.3849088302915, "lng": 80.1242922802915}, "southwest": {"lat": 27.3822108697085, "lng": 80.12159431970849}}}, "icon": "https://maps.gstatic.com/mapfiles/place_api/icons/v1/png_71/school-71.png", "icon_background_color": "#7B9EB0", "icon_mask_base_uri": "https://maps.gstatic.com/mapfiles/place_api/icons/v2/school_pinlet", "name": "St James School Bus Stop", "place_id": "ChIJM0nh7IT3njkRtSqEWsgV3oM", "plus_code": {"compound_code": "94MF+C6 Hardoi, Uttar Pradesh, India", "global_code": "7MV294MF+C6"}, "reference": "ChIJM0nh7IT3njkRtSqEWsgV3oM", "scope": "GOOGLE", "types": ["school", "point_of_interest", "establishment"], "vicinity": "Hardoi - Kanpur Road, Hardoi"}, {"business_status": "OPERATIONAL", "geometry": {"location": {"lat": 27.3829016, "lng": 80.1227351}, "viewport": {"northeast": {"lat": 27.3842500302915, "lng": 80.12416398029151}, "southwest": {"lat": 27.3815520697085, "lng": 80.12146601970849}}}, "icon": "https://maps.gstatic.com/mapfiles/place_api/icons/v1/png_71/school-71.png", "icon_background_color": "#7B9EB0", "icon_mask_base_uri": "https://maps.gstatic.com/mapfiles/place_api/icons/v2/school_pinlet", "name": "INTEGRAL INSTITUTE OF MATHEMATICS", "place_id": "ChIJjUYcBYv3njkR5E9Hwjuhro0", "plus_code": {"compound_code": "94MF+53 Hardoi, Uttar Pradesh, India", "global_code": "7MV294MF+53"}, "rating": 1, "reference": "ChIJjUYcBYv3njkR5E9Hwjuhro0", "scope": "GOOGLE", "types": ["school", "point_of_interest", "establishment"], "user_ratings_total": 1, "vicinity": "241001, Hardoi"}, {"business_status": "OPERATIONAL", "geometry": {"location": {"lat": 27.3860168, "lng": 80.1276184}, "viewport": {"northeast": {"lat": 27.3874011302915, "lng": 80.12898503029152}, "southwest": {"lat": 27.3847031697085, "lng": 80.1262870697085}}}, "icon": "https://maps.gstatic.com/mapfiles/place_api/icons/v1/png_71/school-71.png", "icon_background_color": "#7B9EB0", "icon_mask_base_uri": "https://maps.gstatic.com/mapfiles/place_api/icons/v2/school_pinlet", "name": "Rafi Ahmad Quidwai Inter College", "opening_hours": {"open_now": false}, "photos": [{"height": 4160, "html_attributions": ["<a href=\"https://maps.google.com/maps/contrib/101038565910560153181\">Nitish Kumar</a>"], "photo_reference": "Aap_uEDBKIkXc7Y7eUrRqxsIVk4kcwD6EymdmRMIwRwwOhuBPiVju39i0RBuY8bFuX-Bsx_CY1G6pTuo_VXRtB02uN9e8QUdFfjKyamfPi3PylPGzn01Yd0VV_Rn9AEaJ51Sb1l1qoYYYwTJdaHxVjhkR62L1EnFe5i-od5qGmUonglqi_zS", "width": 3120}], "place_id": "ChIJm_rF7on3njkRA3kzGkBk6SM", "rating": 3.7, "reference": "ChIJm_rF7on3njkRA3kzGkBk6SM", "scope": "GOOGLE", "types": ["school", "point_of_interest", "establishment"], "user_ratings_total": 26, "vicinity": "94PH+C25, Hardoi"}, {"business_status": "OPERATIONAL", "geometry": {"location": {"lat": 27.3840274, "lng": 80.12285949999999}, "viewport": {"northeast": {"lat": 27.3853783802915, "lng": 80.12423533029151}, "southwest": {"lat": 27.3826804197085, "lng": 80.1215373697085}}}, "icon": "https://maps.gstatic.com/mapfiles/place_api/icons/v1/png_71/school-71.png", "icon_background_color": "#7B9EB0", "icon_mask_base_uri": "https://maps.gstatic.com/mapfiles/place_api/icons/v2/school_pinlet", "name": "Future College City Office", "place_id": "ChIJY6aaSZP3njkRsa4Y-sPiajc", "plus_code": {"compound_code": "94MF+J4 Hardoi, Uttar Pradesh, India", "global_code": "7MV294MF+J4"}, "reference": "ChIJY6aaSZP3njkRsa4Y-sPiajc", "scope": "GOOGLE", "types": ["school", "point_of_interest", "establishment"], "vicinity": "Hardoi - Kanpur Road, Hardoi"}, {"business_status": "OPERATIONAL", "geometry": {"location": {"lat": 27.3861685, "lng": 80.1260835}, "viewport": {"northeast": {"lat": 27.38751338029149, "lng": 80.1274307802915}, "southwest": {"lat": 27.38481541970849, "lng": 80.1247328197085}}}, "icon": "https://maps.gstatic.com/mapfiles/place_api/icons/v1/png_71/school-71.png", "icon_background_color": "#7B9EB0", "icon_mask_base_uri": "https://maps.gstatic.com/mapfiles/place_api/icons/v2/school_pinlet", "name": "Annex Education Welfare Society", "place_id": "ChIJA2wMAor3njkRS0hJFxDYrDI", "plus_code": {"compound_code": "94PG+FC Hardoi, Uttar Pradesh, India", "global_code": "7MV294PG+FC"}, "reference": "ChIJA2wMAor3njkRS0hJFxDYrDI", "scope": "GOOGLE", "types": ["primary_school", "school", "point_of_interest", "establishment"], "vicinity": "Near Vodafone Tower, Choura Kharanja, Ansari Mohalla, Fatehganj Pashchimi"}, {"business_status": "OPERATIONAL", "geometry": {"location": {"lat": 27.3811709, "lng": 80.1219519}, "viewport": {"northeast": {"lat": 27.3825047802915, "lng": 80.1233319802915}, "southwest": {"lat": 27.3798068197085, "lng": 80.12063401970849}}}, "icon": "https://maps.gstatic.com/mapfiles/place_api/icons/v1/png_71/school-71.png", "icon_background_color": "#7B9EB0", "icon_mask_base_uri": "https://maps.gstatic.com/mapfiles/place_api/icons/v2/school_pinlet", "name": "Abhishek Tripathi", "place_id": "ChIJfzvCJSj3njkR7RZefXcn6mo", "plus_code": {"compound_code": "94JC+FQ Hardoi, Uttar Pradesh, India", "global_code": "7MV294JC+FQ"}, "reference": "ChIJfzvCJSj3njkR7RZefXcn6mo", "scope": "GOOGLE", "types": ["school", "point_of_interest", "establishment"], "vicinity": "Vibhuti Nagar Road, Hardoi"}, {"business_status": "OPERATIONAL", "geometry": {"location": {"lat": 27.3836777, "lng": 80.131796}, "viewport": {"northeast": {"lat": 27.3849965302915, "lng": 80.1330903802915}, "southwest": {"lat": 27.3822985697085, "lng": 80.13039241970849}}}, "icon": "https://maps.gstatic.com/mapfiles/place_api/icons/v1/png_71/school-71.png", "icon_background_color": "#7B9EB0", "icon_mask_base_uri": "https://maps.gstatic.com/mapfiles/place_api/icons/v2/school_pinlet", "name": "Vidhya Devi Uttar Madhyamik School", "photos": [{"height": 3000, "html_attributions": ["<a href=\"https://maps.google.com/maps/contrib/109523345078723992839\">Hari Sharan Sharma</a>"], "photo_reference": "Aap_uED4I_tskc-G-lamsIcCtu6Wa3DxckiWx-bDFD5J6dAuW54J-ghEQsHJRqHcZntNgkBKIndaawbitO300LyMRfKbXCNnisD1S2Z4FhchG6pppPbnee-a_O1G2RqxH2eCUtF9VUxQWME4tg9kgICReoo4f_IrpiUSTlXJV2xIwpJlA-dg", "width": 4000}], "place_id": "ChIJH8Dsvsv3njkR_DP-_7WmCA8", "plus_code": {"compound_code": "94MJ+FP Hardoi, Uttar Pradesh, India", "global_code": "7MV294MJ+FP"}, "rating": 5, "reference": "ChIJH8Dsvsv3njkR_DP-_7WmCA8", "scope": "GOOGLE", "types": ["primary_school", "school", "point_of_interest", "establishment"], "user_ratings_total": 1, "vicinity": "Unnamed Road, Hardoi"}, {"business_status": "OPERATIONAL", "geometry": {"location": {"lat": 27.3845722, "lng": 80.13135830000002}, "viewport": {"northeast": {"lat": 27.3858529302915, "lng": 80.1325845802915}, "southwest": {"lat": 27.3831549697085, "lng": 80.1298866197085}}}, "icon": "https://maps.gstatic.com/mapfiles/place_api/icons/v1/png_71/school-71.png", "icon_background_color": "#7B9EB0", "icon_mask_base_uri": "https://maps.gstatic.com/mapfiles/place_api/icons/v2/school_pinlet", "name": "Vidya Devi Junior High School", "place_id": "ChIJJysONsf3njkR7rPVm14tGrQ", "reference": "ChIJJysONsf3njkR7rPVm14tGrQ", "scope": "GOOGLE", "types": ["secondary_school", "school", "point_of_interest", "establishment"], "vicinity": "94MJ+RGH, Industrial Area, Hardoi"}, {"business_status": "OPERATIONAL", "geometry": {"location": {"lat": 27.3855074, "lng": 80.13051519999999}, "viewport": {"northeast": {"lat": 27.3868483802915, "lng": 80.13186953029151}, "southwest": {"lat": 27.38415041970849, "lng": 80.12917156970849}}}, "icon": "https://maps.gstatic.com/mapfiles/place_api/icons/v1/png_71/school-71.png", "icon_background_color": "#7B9EB0", "icon_mask_base_uri": "https://maps.gstatic.com/mapfiles/place_api/icons/v2/school_pinlet", "name": "Kisan Haspital", "place_id": "ChIJV7-o_Hr3njkR-neQpreIIMk", "reference": "ChIJV7-o_Hr3njkR-neQpreIIMk", "scope": "GOOGLE", "types": ["school", "point_of_interest", "establishment"], "vicinity": "94PJ+662, Hardoi"}, {"business_status": "OPERATIONAL", "geometry": {"location": {"lat": 27.3800748, "lng": 80.1221862}, "viewport": {"northeast": {"lat": 27.3813729302915, "lng": 80.1235116302915}, "southwest": {"lat": 27.3786749697085, "lng": 80.1208136697085}}}, "icon": "https://maps.gstatic.com/mapfiles/place_api/icons/v1/png_71/school-71.png", "icon_background_color": "#7B9EB0", "icon_mask_base_uri": "https://maps.gstatic.com/mapfiles/place_api/icons/v2/school_pinlet", "name": "T P S School", "place_id": "ChIJyU9xmYz3njkRkoCkDTao0dA", "rating": 3.5, "reference": "ChIJyU9xmYz3njkRkoCkDTao0dA", "scope": "GOOGLE", "types": ["school", "point_of_interest", "establishment"], "user_ratings_total": 2, "vicinity": "94JC+2VF, Hardoi"}, {"business_status": "OPERATIONAL", "geometry": {"location": {"lat": 27.3823144, "lng": 80.1214522}, "viewport": {"northeast": {"lat": 27.3836417302915, "lng": 80.1227962802915}, "southwest": {"lat": 27.3809437697085, "lng": 80.12009831970849}}}, "icon": "https://maps.gstatic.com/mapfiles/place_api/icons/v1/png_71/school-71.png", "icon_background_color": "#7B9EB0", "icon_mask_base_uri": "https://maps.gstatic.com/mapfiles/place_api/icons/v2/school_pinlet", "name": "NEW SPEED COMPETITION CLASSES", "place_id": "ChIJrzTD62L3njkRj4JYkFXvDG8", "plus_code": {"compound_code": "94JC+WH Hardoi, Uttar Pradesh, India", "global_code": "7MV294JC+WH"}, "rating": 5, "reference": "ChIJrzTD62L3njkRj4JYkFXvDG8", "scope": "GOOGLE", "types": ["school", "point_of_interest", "establishment"], "user_ratings_total": 1, "vicinity": "Near Allo mil Sandi road bilgram, Chungi, Hardoi"}, {"business_status": "OPERATIONAL", "geometry": {"location": {"lat": 27.3848366, "lng": 80.12187809999999}, "viewport": {"northeast": {"lat": 27.3861139802915, "lng": 80.1232548802915}, "southwest": {"lat": 27.3834160197085, "lng": 80.12055691970849}}}, "icon": "https://maps.gstatic.com/mapfiles/place_api/icons/v1/png_71/school-71.png", "icon_background_color": "#7B9EB0", "icon_mask_base_uri": "https://maps.gstatic.com/mapfiles/place_api/icons/v2/school_pinlet", "name": "NORMAL SCHOOL GROUND", "place_id": "ChIJF9MpwIr3njkRZZOBNoBgbBc", "rating": 5, "reference": "ChIJF9MpwIr3njkRZZOBNoBgbBc", "scope": "GOOGLE", "types": ["school", "point_of_interest", "establishment"], "user_ratings_total": 2, "vicinity": "94MC+WQJ, Hardoi"}, {"business_status": "OPERATIONAL", "geometry": {"location": {"lat": 27.3844666, "lng": 80.1215831}, "viewport": {"northeast": {"lat": 27.38581283029151, "lng": 80.1229910302915}, "southwest": {"lat": 27.3831148697085, "lng": 80.1202930697085}}}, "icon": "https://maps.gstatic.com/mapfiles/place_api/icons/v1/png_71/school-71.png", "icon_background_color": "#7B9EB0", "icon_mask_base_uri": "https://maps.gstatic.com/mapfiles/place_api/icons/v2/school_pinlet", "name": "NORMAL SCHOOL HARDOI", "place_id": "ChIJIQbjw4r3njkRVf-b_rsZHV8", "plus_code": {"compound_code": "94MC+QJ Hardoi, Uttar Pradesh, India", "global_code": "7MV294MC+QJ"}, "rating": 5, "reference": "ChIJIQbjw4r3njkRVf-b_rsZHV8", "scope": "GOOGLE", "types": ["school", "point_of_interest", "establishment"], "user_ratings_total": 1, "vicinity": "Hardoi - Kanpur Road, Bilgram"}, {"business_status": "OPERATIONAL", "geometry": {"location": {"lat": 27.3838974, "lng": 80.1212475}, "viewport": {"northeast": {"lat": 27.3852543802915, "lng": 80.12259873029151}, "southwest": {"lat": 27.3825564197085, "lng": 80.1199007697085}}}, "icon": "https://maps.gstatic.com/mapfiles/place_api/icons/v1/png_71/school-71.png", "icon_background_color": "#7B9EB0", "icon_mask_base_uri": "https://maps.gstatic.com/mapfiles/place_api/icons/v2/school_pinlet", "name": "Swatantra Kumar Mishra Maths coaching", "place_id": "ChIJN8HgHj73njkRFcKtSJRvMZQ", "rating": 5, "reference": "ChIJN8HgHj73njkRFcKtSJRvMZQ", "scope": "GOOGLE", "types": ["school", "point_of_interest", "establishment"], "user_ratings_total": 1, "vicinity": "94MC+HF5, Hardoi"}, {"business_status": "OPERATIONAL", "geometry": {"location": {"lat": 27.3770296, "lng": 80.12439189999999}, "viewport": {"northeast": {"lat": 27.3783516802915, "lng": 80.1257258802915}, "southwest": {"lat": 27.3756537197085, "lng": 80.12302791970849}}}, "icon": "https://maps.gstatic.com/mapfiles/place_api/icons/v1/png_71/school-71.png", "icon_background_color": "#7B9EB0", "icon_mask_base_uri": "https://maps.gstatic.com/mapfiles/place_api/icons/v2/school_pinlet", "name": "Saraswati Gyan Mandir", "place_id": "ChIJL5x5pfj3njkRYzGc9BBOOuQ", "reference": "ChIJL5x5pfj3njkRYzGc9BBOOuQ", "scope": "GOOGLE", "types": ["school", "point_of_interest", "establishment"], "vicinity": "94GF+RQ6, Hardoi"}], "status": "OK"}