{"html_attributions": [], "next_page_token": "Aap_uEDtuJRv73x4BaG36wgq4xEswMJ4j1ZZdFQh_bzAiwXJwKuFqNNbL_WtYnaMCM8c1DL_3XZq0Ith55-BZycTyLXH09njn62ff4S8SDBPLiXmXY7iN5N21K1yZN_kUVS57KCkwTDFbmkQRbD0mOCIiqAvt3d7tTJflD2hgzqH1d4TQpDdoLPqIgdpPH-cyoQQuhcrlTQi2-mYGpkv3JIjk0-FzT-E-xlS1daYo9GR_5x49z6Iunl-D5ecB8dpTb675PXtXnCE7vtcpkr4btxatcrSbDIy3kL1dlJLf_mIYHB5DLMoEgR4OvSkEurc5N4GhBJiMsDTwQGdJxrXHwVknY9WaKh2GRRMYWogZj-0yFP3Zzy5hH3SGNT62xhQXnzONGN39Ezygi0Osuelwdr3I1FD91lcCKBd_Jg7KtbWfNE4w3PaKJ4", "results": [{"business_status": "CLOSED_TEMPORARILY", "geometry": {"location": {"lat": 27.4012199, "lng": 80.12758149999999}, "viewport": {"northeast": {"lat": 27.4026206302915, "lng": 80.1288990802915}, "southwest": {"lat": 27.3999226697085, "lng": 80.12620111970848}}}, "icon": "https://maps.gstatic.com/mapfiles/place_api/icons/v1/png_71/school-71.png", "icon_background_color": "#7B9EB0", "icon_mask_base_uri": "https://maps.gstatic.com/mapfiles/place_api/icons/v2/school_pinlet", "name": "Bachpan Play School, Hardoi", "permanently_closed": true, "photos": [{"height": 449, "html_attributions": ["<a href=\"https://maps.google.com/maps/contrib/103742648586346039057\">Shashi Bhooshan Singh</a>"], "photo_reference": "Aap_uEDezVUDTVyN3C6_CeAh6CtzwvDvws3NQVmU14mbe9Tv_CVlxLzniEs4vWxgmjLRHIcu-ismbjfX-BlQwMeaaYPb1jifDedjiv7LTquhqVVVmVcONFCl3oWRbXLMt_UOUQPqvzPkiVbzWUVT0J5oleF77MtdLd7UUqb2GFdOjDSL_MpQ", "width": 798}], "place_id": "ChIJ_9AsGmj4njkRvDXdwITD-jw", "plus_code": {"compound_code": "C42H+F2 Hardoi, Uttar Pradesh, India", "global_code": "7MV2C42H+F2"}, "rating": 3.6, "reference": "ChIJ_9AsGmj4njkRvDXdwITD-jw", "scope": "GOOGLE", "types": ["school", "point_of_interest", "establishment"], "user_ratings_total": 8, "vicinity": "In Front of Company Garden Gate, Jail Road, Hardoi"}, {"business_status": "OPERATIONAL", "geometry": {"location": {"lat": 27.3926675, "lng": 80.12648039999999}, "viewport": {"northeast": {"lat": 27.3940737802915, "lng": 80.1278002802915}, "southwest": {"lat": 27.3913758197085, "lng": 80.12510231970849}}}, "icon": "https://maps.gstatic.com/mapfiles/place_api/icons/v1/png_71/school-71.png", "icon_background_color": "#7B9EB0", "icon_mask_base_uri": "https://maps.gstatic.com/mapfiles/place_api/icons/v2/school_pinlet", "name": "Madarsa Ashraful Madaris", "photos": [{"height": 511, "html_attributions": ["<a href=\"https://maps.google.com/maps/contrib/100176513809527059263\">Ahmad Zeeshan</a>"], "photo_reference": "Aap_uED7m90n-geXQZYGeEq5Cj5JWkRhSdkq1BeeTflha8PsoeOonEymPQCXhh93y8uSCbe0uLOyMG0gZ7BHiA9y0pDdQij9oSFp6tkKGxu7BeDrCVFZ9jqg1GvekxKKgvPGvet8Bvn7m-5tGvpdL89LaElaQHJldcvVlQRIS3Wblof18a-J", "width": 1080}], "place_id": "ChIJ71QyAiT4njkRclAv4WMj9vU", "plus_code": {"compound_code": "94VG+3H Hardoi, Uttar Pradesh, India", "global_code": "7MV294VG+3H"}, "rating": 4.6, "reference": "ChIJ71QyAiT4njkRclAv4WMj9vU", "scope": "GOOGLE", "types": ["school", "point_of_interest", "establishment"], "user_ratings_total": 27, "vicinity": "Cinema Road, Hardoi"}, {"business_status": "CLOSED_TEMPORARILY", "geometry": {"location": {"lat": 27.3943011, "lng": 80.1328084}, "viewport": {"northeast": {"lat": 27.3954874802915, "lng": 80.13376678029151}, "southwest": {"lat": 27.3927895197085, "lng": 80.13106881970849}}}, "icon": "https://maps.gstatic.com/mapfiles/place_api/icons/v1/png_71/school-71.png", "icon_background_color": "#7B9EB0", "icon_mask_base_uri": "https://maps.gstatic.com/mapfiles/place_api/icons/v2/school_pinlet", "name": "Lucknow Public School", "permanently_closed": true, "photos": [{"height": 1362, "html_attributions": ["<a href=\"https://maps.google.com/maps/contrib/115143791941036502261\">Lucknow Public School</a>"], "photo_reference": "Aap_uEDakaTsdaJf2bVhmkN6AoR13uqzRWuIIDLPIsSLwkXmj4e8ZFyjJhFFOBIciLSuNGn_yfhWc9pfHnGW6R5Ldg9GPek-n61zHUxt1AuYlMiUx_eZE7GxaZafnGki-ywtQQeHsDmpc15arUzkIgByBaRMSDLcoZtw4HZbSIacpqPukyD5", "width": 2048}], "place_id": "ChIJe__LQy_4njkRvAuPTMn8js8", "plus_code": {"compound_code": "94VM+P4 Hardoi, Uttar Pradesh, India", "global_code": "7MV294VM+P4"}, "rating": 4.1, "reference": "ChIJe__LQy_4njkRvAuPTMn8js8", "scope": "GOOGLE", "types": ["school", "point_of_interest", "establishment"], "user_ratings_total": 7, "vicinity": "Madho Ganj,Hardoi, Lucknow Road, Lucknow"}, {"business_status": "OPERATIONAL", "geometry": {"location": {"lat": 27.39436689999999, "lng": 80.1343832}, "viewport": {"northeast": {"lat": 27.3960728802915, "lng": 80.1357985802915}, "southwest": {"lat": 27.3933749197085, "lng": 80.1331006197085}}}, "icon": "https://maps.gstatic.com/mapfiles/place_api/icons/v1/png_71/school-71.png", "icon_background_color": "#7B9EB0", "icon_mask_base_uri": "https://maps.gstatic.com/mapfiles/place_api/icons/v2/school_pinlet", "name": "B.V.B Public School", "opening_hours": {"open_now": true}, "photos": [{"height": 593, "html_attributions": ["<a href=\"https://maps.google.com/maps/contrib/107868821801018713154\">Rishabh Shukla</a>"], "photo_reference": "Aap_uEAHgK3pngv_LObs0OTd0kO3BH4lPdIvshpcGkhXWtX47rBlt1wsCQsiJjaJvwbV1n87mhmqnX23hPpEaj6TRpVWL3RH4w2x6Z0w55sNySISHPIuEO7z_s3VEnuUZNKQhIj6rj8rcd4gArxoBnx9MIYpfcfDL2yWXs5ktxrmm4tfHAx0", "width": 1108}], "place_id": "ChIJmS0n4C74njkRBMbTTeMhZI8", "plus_code": {"compound_code": "94VM+PQ Hardoi, Uttar Pradesh, India", "global_code": "7MV294VM+PQ"}, "rating": 3.6, "reference": "ChIJmS0n4C74njkRBMbTTeMhZI8", "scope": "GOOGLE", "types": ["school", "point_of_interest", "establishment"], "user_ratings_total": 64, "vicinity": "Opp. Jilla Hospital, Nagheta Road, Hardoi"}, {"business_status": "OPERATIONAL", "geometry": {"location": {"lat": 27.4021151, "lng": 80.1269817}, "viewport": {"northeast": {"lat": 27.4034422802915, "lng": 80.1284532802915}, "southwest": {"lat": 27.40074431970849, "lng": 80.12575531970849}}}, "icon": "https://maps.gstatic.com/mapfiles/place_api/icons/v1/png_71/generic_business-71.png", "icon_background_color": "#7B9EB0", "icon_mask_base_uri": "https://maps.gstatic.com/mapfiles/place_api/icons/v2/generic_pinlet", "name": "Jesus", "opening_hours": {"open_now": false}, "place_id": "ChIJkXkRjzz4njkRa3zXkX2kPdI", "plus_code": {"compound_code": "C42G+RQ Hardoi, Uttar Pradesh, India", "global_code": "7MV2C42G+RQ"}, "rating": 4.8, "reference": "ChIJkXkRjzz4njkRa3zXkX2kPdI", "scope": "GOOGLE", "types": ["school", "point_of_interest", "establishment"], "user_ratings_total": 5, "vicinity": "Assembly of God School, Hardoi"}, {"business_status": "OPERATIONAL", "geometry": {"location": {"lat": 27.4026739, "lng": 80.1273679}, "viewport": {"northeast": {"lat": 27.4043019302915, "lng": 80.12875683029151}, "southwest": {"lat": 27.40160396970849, "lng": 80.12605886970849}}}, "icon": "https://maps.gstatic.com/mapfiles/place_api/icons/v1/png_71/school-71.png", "icon_background_color": "#7B9EB0", "icon_mask_base_uri": "https://maps.gstatic.com/mapfiles/place_api/icons/v2/school_pinlet", "name": "Janata Junior High School", "opening_hours": {"open_now": false}, "photos": [{"height": 2448, "html_attributions": ["<a href=\"https://maps.google.com/maps/contrib/106206245098852907954\">Manish Mishra</a>"], "photo_reference": "Aap_uEBkqO1Hmoms_Mq7yTaUujfKpBuoUinjMx75ImJyT90IMjZm-ScTopUCOdHDPZKaIYGumH6Ve0Nq43leZDZyD3I6OnDKePCDGxc81pJIrcBa33b5A8TaZpSb1FZKdWPBC0rWxynWgusAYUCXp9Ak71nJKEPQ71X2gOzw2WnIrgx2dKSp", "width": 3264}], "place_id": "ChIJ7ewnlTv4njkRvmuGh4_Om8s", "plus_code": {"compound_code": "C43G+3W Hardoi, Uttar Pradesh, India", "global_code": "7MV2C43G+3W"}, "rating": 4, "reference": "ChIJ7ewnlTv4njkRvmuGh4_Om8s", "scope": "GOOGLE", "types": ["secondary_school", "school", "point_of_interest", "establishment"], "user_ratings_total": 2, "vicinity": "1, Canal Road, Asha Nagar, Hardoi"}, {"business_status": "OPERATIONAL", "geometry": {"location": {"lat": 27.4027844, "lng": 80.12641409999999}, "viewport": {"northeast": {"lat": 27.4040922302915, "lng": 80.1277540302915}, "southwest": {"lat": 27.4013942697085, "lng": 80.12505606970849}}}, "icon": "https://maps.gstatic.com/mapfiles/place_api/icons/v1/png_71/school-71.png", "icon_background_color": "#7B9EB0", "icon_mask_base_uri": "https://maps.gstatic.com/mapfiles/place_api/icons/v2/school_pinlet", "name": "Pd Academy", "opening_hours": {"open_now": false}, "place_id": "ChIJ8ddAzsn5njkRUJpQ3hWupQc", "plus_code": {"compound_code": "C43G+4H Civil Lines, Avas Vikas Colony, Hardoi, Uttar Pradesh, India", "global_code": "7MV2C43G+4H"}, "reference": "ChIJ8ddAzsn5njkRUJpQ3hWupQc", "scope": "GOOGLE", "types": ["school", "point_of_interest", "establishment"], "vicinity": "in front of corrective bank, new, in front of corrective bank, Civil Lines"}, {"business_status": "OPERATIONAL", "geometry": {"location": {"lat": 27.4039442, "lng": 80.12667139999999}, "viewport": {"northeast": {"lat": 27.4053079802915, "lng": 80.12792538029152}, "southwest": {"lat": 27.4026100197085, "lng": 80.1252274197085}}}, "icon": "https://maps.gstatic.com/mapfiles/place_api/icons/v1/png_71/school-71.png", "icon_background_color": "#7B9EB0", "icon_mask_base_uri": "https://maps.gstatic.com/mapfiles/place_api/icons/v2/school_pinlet", "name": "EIIT Computer center hardoi( education Institute of Information Technology)", "opening_hours": {"open_now": true}, "photos": [{"height": 3120, "html_attributions": ["<a href=\"https://maps.google.com/maps/contrib/101017275729480623615\">G INDIA 81 LIVE</a>"], "photo_reference": "Aap_uEDWT5wpNc-DrETcwj4P8P1PVI340Y-fFZY1cMTMeFI83m0Gr6kIRHCO2MwEz1COohdcuUqWSToH7NHH3OxBc5iApRmOetvu-c2h_P8AXHg47PUmUK9F5VybA3Q4-nY1DV1qw591vZXRtHjX9o8kfQahHFgiJMYTx76GlJA4ByzBUPZP", "width": 4160}], "place_id": "ChIJYWEp1zD5njkRyZ7KQqjmSTw", "plus_code": {"compound_code": "C43G+HM Hardoi, Uttar Pradesh, India", "global_code": "7MV2C43G+HM"}, "rating": 5, "reference": "ChIJYWEp1zD5njkRyZ7KQqjmSTw", "scope": "GOOGLE", "types": ["school", "point_of_interest", "establishment"], "user_ratings_total": 4, "vicinity": "EIIT computer center, Hardoi"}, {"business_status": "OPERATIONAL", "geometry": {"location": {"lat": 27.4042271, "lng": 80.12676309999999}, "viewport": {"northeast": {"lat": 27.4055935802915, "lng": 80.1279996802915}, "southwest": {"lat": 27.4028956197085, "lng": 80.12530171970847}}}, "icon": "https://maps.gstatic.com/mapfiles/place_api/icons/v1/png_71/school-71.png", "icon_background_color": "#7B9EB0", "icon_mask_base_uri": "https://maps.gstatic.com/mapfiles/place_api/icons/v2/school_pinlet", "name": "United Public School", "opening_hours": {"open_now": false}, "place_id": "ChIJrenJVzn4njkRYQ8Be6XjnfE", "rating": 5, "reference": "ChIJrenJVzn4njkRYQ8Be6XjnfE", "scope": "GOOGLE", "types": ["school", "point_of_interest", "establishment"], "user_ratings_total": 2, "vicinity": "C43G+MPR, Asha Nagar, Hardoi"}, {"business_status": "OPERATIONAL", "geometry": {"location": {"lat": 27.4036377, "lng": 80.1290695}, "viewport": {"northeast": {"lat": 27.4047035302915, "lng": 80.13038358029151}, "southwest": {"lat": 27.4020055697085, "lng": 80.1276856197085}}}, "icon": "https://maps.gstatic.com/mapfiles/place_api/icons/v1/png_71/school-71.png", "icon_background_color": "#7B9EB0", "icon_mask_base_uri": "https://maps.gstatic.com/mapfiles/place_api/icons/v2/school_pinlet", "name": "DPS JUNIOR HARDOI", "opening_hours": {"open_now": false}, "place_id": "ChIJhVg1Ahv5njkRZ7oxKaKLCLQ", "plus_code": {"compound_code": "C43H+FJ Hardoi, Uttar Pradesh, India", "global_code": "7MV2C43H+FJ"}, "reference": "ChIJhVg1Ahv5njkRZ7oxKaKLCLQ", "scope": "GOOGLE", "types": ["school", "point_of_interest", "establishment"], "vicinity": "Chief Development Officer Residence, Canal Road, Asha Nagar, Hardoi"}, {"business_status": "OPERATIONAL", "geometry": {"location": {"lat": 27.4049933, "lng": 80.1264206}, "viewport": {"northeast": {"lat": 27.4063224802915, "lng": 80.12789673029151}, "southwest": {"lat": 27.4036245197085, "lng": 80.1251987697085}}}, "icon": "https://maps.gstatic.com/mapfiles/place_api/icons/v1/png_71/school-71.png", "icon_background_color": "#7B9EB0", "icon_mask_base_uri": "https://maps.gstatic.com/mapfiles/place_api/icons/v2/school_pinlet", "name": "Dayanand Anglo Vaidik(D.A.V.)Inter College,Hardoi", "opening_hours": {"open_now": true}, "photos": [{"height": 810, "html_attributions": ["<a href=\"https://maps.google.com/maps/contrib/114359152205785818557\">Dayanand Anglo Vaidik(D.A.V.)Inter College,Hardoi</a>"], "photo_reference": "Aap_uECD3kcK_dX4sDY5RmMSoYeo6Lw4IrOj7qTyJHtSosHvVSsT_u4NA_TYl04tLxZXzafdIhrqHjmpAxysdLqWTqlXegI-rkDRSRkRGYTZbsOippqPV_e1g2FSwDEY8KIz9V1cFGXAFXukBbYTknU6kCs_96a6CSUDT2B16kUVIAFo9Hoe", "width": 1440}], "place_id": "ChIJqRpVR0D5njkRUxeI8TfHx5k", "plus_code": {"compound_code": "C43G+XH Hardoi, Uttar Pradesh, India", "global_code": "7MV2C43G+XH"}, "rating": 3.4, "reference": "ChIJqRpVR0D5njkRUxeI8TfHx5k", "scope": "GOOGLE", "types": ["school", "point_of_interest", "establishment"], "user_ratings_total": 5, "vicinity": "near sp avas, Pihani Chungi, Azadnagar, Hardoi"}, {"business_status": "OPERATIONAL", "geometry": {"location": {"lat": 27.3988826, "lng": 80.12851859999999}, "viewport": {"northeast": {"lat": 27.4002933302915, "lng": 80.12976193029151}, "southwest": {"lat": 27.3975953697085, "lng": 80.1270639697085}}}, "icon": "https://maps.gstatic.com/mapfiles/place_api/icons/v1/png_71/school-71.png", "icon_background_color": "#7B9EB0", "icon_mask_base_uri": "https://maps.gstatic.com/mapfiles/place_api/icons/v2/school_pinlet", "name": "Anurag Verma", "place_id": "ChIJZUgbjTT5njkRZX2GHnckfrA", "plus_code": {"compound_code": "94XH+HC Hardoi, Uttar Pradesh, India", "global_code": "7MV294XH+HC"}, "reference": "ChIJZUgbjTT5njkRZX2GHnckfrA", "scope": "GOOGLE", "types": ["primary_school", "school", "point_of_interest", "establishment"], "vicinity": "Village ummarpurva, \u0936\u093f\u0935 \u092e\u0902\u0926\u093f\u0930 \u0917\u0932\u0940, \u0939\u0930\u0926\u094b\u0908"}, {"business_status": "OPERATIONAL", "geometry": {"location": {"lat": 27.3979276, "lng": 80.1284807}, "viewport": {"northeast": {"lat": 27.3995689802915, "lng": 80.1297533802915}, "southwest": {"lat": 27.3968710197085, "lng": 80.12705541970848}}}, "icon": "https://maps.gstatic.com/mapfiles/place_api/icons/v1/png_71/school-71.png", "icon_background_color": "#7B9EB0", "icon_mask_base_uri": "https://maps.gstatic.com/mapfiles/place_api/icons/v2/school_pinlet", "name": "Lalta", "place_id": "ChIJdTJ6k2P5njkRQfKDLoD4qyQ", "reference": "ChIJdTJ6k2P5njkRQfKDLoD4qyQ", "scope": "GOOGLE", "types": ["school", "point_of_interest", "establishment"], "vicinity": "94XH+59H, Koyal Bagh Colony, Hardoi"}, {"business_status": "OPERATIONAL", "geometry": {"location": {"lat": 27.4060053, "lng": 80.125204}, "viewport": {"northeast": {"lat": 27.4072785802915, "lng": 80.1265005302915}, "southwest": {"lat": 27.4045806197085, "lng": 80.12380256970849}}}, "icon": "https://maps.gstatic.com/mapfiles/place_api/icons/v1/png_71/school-71.png", "icon_background_color": "#7B9EB0", "icon_mask_base_uri": "https://maps.gstatic.com/mapfiles/place_api/icons/v2/school_pinlet", "name": "Kamlesha Bal Sikhsha Niketan (K.B.S.N.)", "photos": [{"height": 2976, "html_attributions": ["<a href=\"https://maps.google.com/maps/contrib/100905440278650223514\">ajay sharma</a>"], "photo_reference": "Aap_uECL69Qs6eUhDzpjwcPxxbe2x0oOdDarWAAjvOogL8cUCKREqXMNMH2gey0vpUOvNriV_ocyfDJooLUpgjf9Z9ZpcpJyM6GAASpVyVLWjd3fUGSjRFOuq2I5pW85c2-vsS1Sl11cnyAiZt-oelPp4bt-Ssc56eO5vr1WZ_Foqy1LDGZP", "width": 1680}], "place_id": "ChIJpVYAIfb5njkR2McqSP1Tb-A", "plus_code": {"compound_code": "C44G+C3 Hardoi, Uttar Pradesh, India", "global_code": "7MV2C44G+C3"}, "reference": "ChIJpVYAIfb5njkR2McqSP1Tb-A", "scope": "GOOGLE", "types": ["school", "point_of_interest", "establishment"], "vicinity": "badhiyan purwa, spn road, Pihani Chungi, Hardoi"}, {"business_status": "OPERATIONAL", "geometry": {"location": {"lat": 27.4007849, "lng": 80.12231729999999}, "viewport": {"northeast": {"lat": 27.4021417802915, "lng": 80.1236204802915}, "southwest": {"lat": 27.3994438197085, "lng": 80.1209225197085}}}, "icon": "https://maps.gstatic.com/mapfiles/place_api/icons/v1/png_71/school-71.png", "icon_background_color": "#7B9EB0", "icon_mask_base_uri": "https://maps.gstatic.com/mapfiles/place_api/icons/v2/school_pinlet", "name": "S. N. H. S SCHOOL JHAUHANA LONAR", "place_id": "ChIJ55IlOmr5njkRrZHzxO8fSwQ", "plus_code": {"compound_code": "C42C+8W Hardoi, Uttar Pradesh, India", "global_code": "7MV2C42C+8W"}, "reference": "ChIJ55IlOmr5njkRrZHzxO8fSwQ", "scope": "GOOGLE", "types": ["school", "point_of_interest", "establishment"], "vicinity": "Maa Purnagiri Sadan, State Highway 25, Subhash Nagar, Hardoi"}, {"business_status": "OPERATIONAL", "geometry": {"location": {"lat": 27.405982, "lng": 80.1307163}, "viewport": {"northeast": {"lat": 27.4073502802915, "lng": 80.1320178802915}, "southwest": {"lat": 27.4046523197085, "lng": 80.12931991970848}}}, "icon": "https://maps.gstatic.com/mapfiles/place_api/icons/v1/png_71/school-71.png", "icon_background_color": "#7B9EB0", "icon_mask_base_uri": "https://maps.gstatic.com/mapfiles/place_api/icons/v2/school_pinlet", "name": "Dr Ambedkar Vidyalaya", "photos": [{"height": 799, "html_attributions": ["<a href=\"https://maps.google.com/maps/contrib/101652255767467655399\">Vishal Kumar Singh</a>"], "photo_reference": "Aap_uEA-rlXlAIlHv8Q3kwWMGwcg8K_qCKlOpXYJF9jrMAx6_uaYd0w7IaraNAy8I-PYQWQkb3HruUQWWecktaTUV8lmtoxnm6qoYjaWYmUvKcuy0WOHuxL4jhryPwVsgJd-2gbJqNGEX410i8BReDrlte10qt_hkLU8hA8ubcmYzbj0x_tj", "width": 600}], "place_id": "ChIJIeeGdNn5njkRL2x3dvFa63Q", "rating": 1, "reference": "ChIJIeeGdNn5njkRL2x3dvFa63Q", "scope": "GOOGLE", "types": ["school", "point_of_interest", "establishment"], "user_ratings_total": 1, "vicinity": "C44J+97W, Asha Nagar, Hardoi"}, {"business_status": "OPERATIONAL", "geometry": {"location": {"lat": 27.3984257, "lng": 80.1313346}, "viewport": {"northeast": {"lat": 27.3999247302915, "lng": 80.1326911802915}, "southwest": {"lat": 27.3972267697085, "lng": 80.1299932197085}}}, "icon": "https://maps.gstatic.com/mapfiles/place_api/icons/v1/png_71/school-71.png", "icon_background_color": "#7B9EB0", "icon_mask_base_uri": "https://maps.gstatic.com/mapfiles/place_api/icons/v2/school_pinlet", "name": "AM Competition Classes", "photos": [{"height": 780, "html_attributions": ["<a href=\"https://maps.google.com/maps/contrib/104003181174925483362\">Awadhesh Mishra</a>"], "photo_reference": "Aap_uEB0yw8eGjHxq2EbAh8X29iIk1D-Ax4TRoJ8bq0W1KQYfY03mOtaHWdCYcdcetcTS4QHvNXzlqUvHpYLGk_Af57ckPavYDRsYkIm-nCd3hqQSo6_M9qijfQpJVpMeIJhP2LRFES1N-K_Ue9KNsasfmiKtebp_s-7tlqVHs3MM7rCrErs", "width": 1040}], "place_id": "ChIJ58tW2mr5njkRCQibEeoD2wc", "plus_code": {"compound_code": "94XJ+9G Hardoi, Uttar Pradesh, India", "global_code": "7MV294XJ+9G"}, "rating": 4.5, "reference": "ChIJ58tW2mr5njkRCQibEeoD2wc", "scope": "GOOGLE", "types": ["school", "point_of_interest", "establishment"], "user_ratings_total": 2, "vicinity": "above Shriram Finance Ltd, Near Ram Janki Temple, above Shriram Finance Ltd"}, {"business_status": "OPERATIONAL", "geometry": {"location": {"lat": 27.4066583, "lng": 80.12425929999999}, "viewport": {"northeast": {"lat": 27.4079849302915, "lng": 80.1255972302915}, "southwest": {"lat": 27.4052869697085, "lng": 80.1228992697085}}}, "icon": "https://maps.gstatic.com/mapfiles/place_api/icons/v1/png_71/school-71.png", "icon_background_color": "#7B9EB0", "icon_mask_base_uri": "https://maps.gstatic.com/mapfiles/place_api/icons/v2/school_pinlet", "name": "Taufeek Tailours", "place_id": "ChIJg5l5gyX5njkR00VhT9dAf58", "plus_code": {"compound_code": "C44F+MP Hardoi, Uttar Pradesh, India", "global_code": "7MV2C44F+MP"}, "reference": "ChIJg5l5gyX5njkR00VhT9dAf58", "scope": "GOOGLE", "types": ["school", "point_of_interest", "establishment"], "vicinity": "Raddhe Purwa Road, Pihani Chungi, Azadnagar, Hardoi"}, {"business_status": "OPERATIONAL", "geometry": {"location": {"lat": 27.4034507, "lng": 80.1212788}, "viewport": {"northeast": {"lat": 27.4048748802915, "lng": 80.12227063029151}, "southwest": {"lat": 27.4021769197085, "lng": 80.1195726697085}}}, "icon": "https://maps.gstatic.com/mapfiles/place_api/icons/v1/png_71/school-71.png", "icon_background_color": "#7B9EB0", "icon_mask_base_uri": "https://maps.gstatic.com/mapfiles/place_api/icons/v2/school_pinlet", "name": "JRV Institute", "opening_hours": {"open_now": false}, "photos": [{"height": 715, "html_attributions": ["<a href=\"https://maps.google.com/maps/contrib/100954980904463951203\">rishu upadhyay Account</a>"], "photo_reference": "Aap_uEAYeEEl91lrWd880zg3_Fanf9ipcVBw1hG1f9qeePoKNXcJJReD_zLJ0yTSdmT5sTf8IlTc884H_c-Y7UNFcssXSuMtKGW5m13EDjIGNt4vN3IcFnfWc3KGFLXe1r1lYwKTdlrWFYTgx3zDIjeLP7VkHYHqAJHNT7kr4GAmBoErMC3q", "width": 1080}], "place_id": "ChIJd5z5QKP5njkRSeWaEDUuLTo", "plus_code": {"compound_code": "C43C+9G Hardoi, Uttar Pradesh, India", "global_code": "7MV2C43C+9G"}, "rating": 5, "reference": "ChIJd5z5QKP5njkRSeWaEDUuLTo", "scope": "GOOGLE", "types": ["school", "point_of_interest", "establishment"], "user_ratings_total": 19, "vicinity": "Azadnagar Road, Azadnagar, Hardoi"}, {"business_status": "OPERATIONAL", "geometry": {"location": {"lat": 27.3986382, "lng": 80.1316287}, "viewport": {"northeast": {"lat": 27.4000309802915, "lng": 80.13283088029151}, "southwest": {"lat": 27.3973330197085, "lng": 80.1301329197085}}}, "icon": "https://maps.gstatic.com/mapfiles/place_api/icons/v1/png_71/school-71.png", "icon_background_color": "#7B9EB0", "icon_mask_base_uri": "https://maps.gstatic.com/mapfiles/place_api/icons/v2/school_pinlet", "name": "Abhishek bharti", "place_id": "ChIJwWtgMBz5njkR8LOiiq87qRU", "reference": "ChIJwWtgMBz5njkR8LOiiq87qRU", "scope": "GOOGLE", "types": ["school", "point_of_interest", "establishment"], "vicinity": "94XJ+FM2, kukuhi, Kachhauna Patseni"}], "status": "OK"}