{"html_attributions": [], "results": [{"business_status": "OPERATIONAL", "geometry": {"location": {"lat": 26.8974791, "lng": 80.1415978}, "viewport": {"northeast": {"lat": 26.8989377302915, "lng": 80.14292168029151}, "southwest": {"lat": 26.8962397697085, "lng": 80.1402237197085}}}, "icon": "https://maps.gstatic.com/mapfiles/place_api/icons/v1/png_71/school-71.png", "icon_background_color": "#7B9EB0", "icon_mask_base_uri": "https://maps.gstatic.com/mapfiles/place_api/icons/v2/school_pinlet", "name": "Chakpurwa mela alam sah unnao", "photos": [{"height": 1952, "html_attributions": ["<a href=\"https://maps.google.com/maps/contrib/115851002515147367105\">Sapna Shakya</a>"], "photo_reference": "Aap_uEANgBp5C239c-Akd0UISxkhYRBZEw1hZwsSVR7dJ11VSZbm7JkmEDkAveYZsTLATlmYZLQkUFN8Qbz79iTmOGPL6GU1V8oaiL1AYhDGsMrqfsUmmMqC7Z0yDld9QoxJRCf185juq_lneymUS1GDTWbf7KcWXARg0i22U7W1P2bzDJqi", "width": 4160}], "place_id": "ChIJI28D6q2BnjkRJm-Srhu-LTQ", "plus_code": {"compound_code": "V4WR+XJ Khoajgipur Hemma, Uttar Pradesh, India", "global_code": "7MR2V4WR+XJ"}, "reference": "ChIJI28D6q2BnjkRJm-Srhu-LTQ", "scope": "GOOGLE", "types": ["school", "point_of_interest", "establishment"], "vicinity": "Chakpurwa mela alam sah"}, {"business_status": "OPERATIONAL", "geometry": {"location": {"lat": 26.8983657, "lng": 80.1543782}, "viewport": {"northeast": {"lat": 26.89908819999999, "lng": 80.1554167802915}, "southwest": {"lat": 26.8961982, "lng": 80.1527188197085}}}, "icon": "https://maps.gstatic.com/mapfiles/place_api/icons/v1/png_71/school-71.png", "icon_background_color": "#7B9EB0", "icon_mask_base_uri": "https://maps.gstatic.com/mapfiles/place_api/icons/v2/school_pinlet", "name": "Adarsh Janta Public School", "opening_hours": {"open_now": false}, "photos": [{"height": 698, "html_attributions": ["<a href=\"https://maps.google.com/maps/contrib/101649018939299144299\">Hempal Rajpoot</a>"], "photo_reference": "Aap_uECvJHPNhvShixX8R6Ee-h_tsqz6WIJ2s7VMaZRrCyni7t-r0VnHEdyurWWniUOYV6dOSn5Fr4w0IV3dXRJ-3mvsGt3B5sFmHz_kj1zbSRCsKYqXAZHViyhGEhwUGgCqBiomnLAXTNKZXCv9tN4ezX66zNTP9P3zyuRwGNsjidpBVx_4", "width": 720}], "place_id": "ChIJ2W2I8xeBnjkRziIy8ym2zKQ", "plus_code": {"compound_code": "V5X3+8Q Bangarmau, Uttar Pradesh, India", "global_code": "7MR2V5X3+8Q"}, "rating": 3, "reference": "ChIJ2W2I8xeBnjkRziIy8ym2zKQ", "scope": "GOOGLE", "types": ["school", "point_of_interest", "establishment"], "user_ratings_total": 2, "vicinity": "jamuniha bangar, Bangarmau"}, {"business_status": "OPERATIONAL", "geometry": {"location": {"lat": 26.8938659, "lng": 80.1408447}, "viewport": {"northeast": {"lat": 26.8952285302915, "lng": 80.14224278029151}, "southwest": {"lat": 26.8925305697085, "lng": 80.1395448197085}}}, "icon": "https://maps.gstatic.com/mapfiles/place_api/icons/v1/png_71/school-71.png", "icon_background_color": "#7B9EB0", "icon_mask_base_uri": "https://maps.gstatic.com/mapfiles/place_api/icons/v2/school_pinlet", "name": "Uchch Parimary Vidhyalya", "photos": [{"height": 3120, "html_attributions": ["<a href=\"https://maps.google.com/maps/contrib/104231384268535601636\">SHASHEE KUMAR KUSHWAHA</a>"], "photo_reference": "Aap_uECxT5dKkwTlp3PfpD-ihJrowCq2PqaYqmH_CrdNLfrqrsnkrrMEg4BoXjLbILJoNOlEKfy2ChrXhuxY8OXBfQuc5GvBJGpaCV5AYwovr18r2RMFj9uw10_Y8ZmbZbqanKN_df3PfhHakxHgRXBQah1-H91m_t_1YZ29kUV6Mcjl2eJN", "width": 4160}], "place_id": "ChIJyWCGY2eBnjkRqK2SPFLWdX0", "plus_code": {"compound_code": "V4VR+G8 Bangarmau, Uttar Pradesh, India", "global_code": "7MR2V4VR+G8"}, "rating": 5, "reference": "ChIJyWCGY2eBnjkRqK2SPFLWdX0", "scope": "GOOGLE", "types": ["school", "point_of_interest", "establishment"], "user_ratings_total": 1, "vicinity": "Distt, Beharipurwa, Bangarmau"}, {"business_status": "OPERATIONAL", "geometry": {"location": {"lat": 26.8932505, "lng": 80.1406724}, "viewport": {"northeast": {"lat": 26.8946091802915, "lng": 80.14201708029151}, "southwest": {"lat": 26.8919112197085, "lng": 80.1393191197085}}}, "icon": "https://maps.gstatic.com/mapfiles/place_api/icons/v1/png_71/school-71.png", "icon_background_color": "#7B9EB0", "icon_mask_base_uri": "https://maps.gstatic.com/mapfiles/place_api/icons/v2/school_pinlet", "name": "Prathmik Vidhalaya", "photos": [{"height": 3120, "html_attributions": ["<a href=\"https://maps.google.com/maps/contrib/104231384268535601636\">SHASHEE KUMAR KUSHWAHA</a>"], "photo_reference": "Aap_uECFg4KFESTG9t7NdGHZ-rtZnMchJeHPyRt_LsVK98KTPGuI9fon4kl4K5o5dr7fdq9XnI_GsQYfO7mVstB3CnKeVSLdTw3WROjUvMRcGnbHciAvjzDIm9XIeVHu9KJ9-vhFQc8tH5wAQBCYp7dTfg2VeRO7i8lAUiTOQUBPyt-SyMqQ", "width": 4160}], "place_id": "ChIJZe41KXeBnjkROeSWJOjIBBc", "rating": 5, "reference": "ChIJZe41KXeBnjkROeSWJOjIBBc", "scope": "GOOGLE", "types": ["school", "point_of_interest", "establishment"], "user_ratings_total": 1, "vicinity": "V4VR+873, Beharipurwa, Bangarmau"}], "status": "OK"}