{"html_attributions": [], "results": [{"business_status": "OPERATIONAL", "geometry": {"location": {"lat": 26.8965951, "lng": 80.1670022}, "viewport": {"northeast": {"lat": 26.8979480802915, "lng": 80.1683501302915}, "southwest": {"lat": 26.89525011970849, "lng": 80.1656521697085}}}, "icon": "https://maps.gstatic.com/mapfiles/place_api/icons/v1/png_71/school-71.png", "icon_background_color": "#7B9EB0", "icon_mask_base_uri": "https://maps.gstatic.com/mapfiles/place_api/icons/v2/school_pinlet", "name": "Prathamik Vidyalaya Naddi purwa", "opening_hours": {"open_now": false}, "photos": [{"height": 1920, "html_attributions": ["<a href=\"https://maps.google.com/maps/contrib/113363494299211634727\">Sudhir Nishad</a>"], "photo_reference": "Aap_uEBiGAxNAiTDhNeFB67kPsHQTLF5mF7b5QwVzY15FlxxwMbTxjABs0M44mRaD4tsJnSAxY2EBJ3rWvtabDaZlnC0_YbOFNog9TpMxVS1X2gPk6XbCfFKU3s3PhA78CITYgO3bBrEmBWs6CrrGnUS_AKoSkUne_z0PAZMQsKeb-rdw2i6", "width": 1080}], "place_id": "ChIJKe4jEWuBnjkRUfoLQWxMomc", "rating": 2.7, "reference": "ChIJKe4jEWuBnjkRUfoLQWxMomc", "scope": "GOOGLE", "types": ["school", "point_of_interest", "establishment"], "user_ratings_total": 3, "vicinity": "V5W8+JRJ, Madarnagar"}, {"business_status": "OPERATIONAL", "geometry": {"location": {"lat": 26.898019, "lng": 80.17355649999999}, "viewport": {"northeast": {"lat": 26.89911603029151, "lng": 80.1750232302915}, "southwest": {"lat": 26.8964180697085, "lng": 80.1723252697085}}}, "icon": "https://maps.gstatic.com/mapfiles/place_api/icons/v1/png_71/school-71.png", "icon_background_color": "#7B9EB0", "icon_mask_base_uri": "https://maps.gstatic.com/mapfiles/place_api/icons/v2/school_pinlet", "name": "Gov. J.h.school", "place_id": "ChIJ_____2iBnjkRIh4QPdKD_qQ", "rating": 1, "reference": "ChIJ_____2iBnjkRIh4QPdKD_qQ", "scope": "GOOGLE", "types": ["school", "point_of_interest", "establishment"], "user_ratings_total": 1, "vicinity": "V5XF+6C3, Madarnagar"}, {"business_status": "OPERATIONAL", "geometry": {"location": {"lat": 26.8983657, "lng": 80.1543782}, "viewport": {"northeast": {"lat": 26.89908819999999, "lng": 80.1554167802915}, "southwest": {"lat": 26.8961982, "lng": 80.1527188197085}}}, "icon": "https://maps.gstatic.com/mapfiles/place_api/icons/v1/png_71/school-71.png", "icon_background_color": "#7B9EB0", "icon_mask_base_uri": "https://maps.gstatic.com/mapfiles/place_api/icons/v2/school_pinlet", "name": "Adarsh Janta Public School", "opening_hours": {"open_now": false}, "photos": [{"height": 698, "html_attributions": ["<a href=\"https://maps.google.com/maps/contrib/101649018939299144299\">Hempal Rajpoot</a>"], "photo_reference": "Aap_uEDQolVz35j6DkEme8n8Vady7xyKMbMu9rRX6vr4dQdv0JEAAtzmqKnoXYKxARJYJDdJ9jqXuh4buUZWu1IhMkrsBQqFCrdDqzXyJvRa3lXvyN2V79pKlSccXF0w2DLd3AqPpCuuPQ7UQYKAjZiW-b1pNcOYMjch66Tq6FHs65hNtAXW", "width": 720}], "place_id": "ChIJ2W2I8xeBnjkRziIy8ym2zKQ", "plus_code": {"compound_code": "V5X3+8Q Bangarmau, Uttar Pradesh, India", "global_code": "7MR2V5X3+8Q"}, "rating": 3, "reference": "ChIJ2W2I8xeBnjkRziIy8ym2zKQ", "scope": "GOOGLE", "types": ["school", "point_of_interest", "establishment"], "user_ratings_total": 2, "vicinity": "jamuniha bangar, Bangarmau"}], "status": "OK"}