{"html_attributions": [], "results": [{"business_status": "CLOSED_TEMPORARILY", "geometry": {"location": {"lat": 27.0232735, "lng": 80.1656933}, "viewport": {"northeast": {"lat": 27.0245758302915, "lng": 80.1671252802915}, "southwest": {"lat": 27.0218778697085, "lng": 80.1644273197085}}}, "icon": "https://maps.gstatic.com/mapfiles/place_api/icons/v1/png_71/generic_business-71.png", "icon_background_color": "#7B9EB0", "icon_mask_base_uri": "https://maps.gstatic.com/mapfiles/place_api/icons/v2/generic_pinlet", "name": "Sawan Kirpal Ruhani Mission (SKRM) - Darshan Ashram", "permanently_closed": true, "photos": [{"height": 709, "html_attributions": ["<a href=\"https://maps.google.com/maps/contrib/114311218512249111350\">Sawan Kirpal Ruhani Mission (SKRM) - Darshan Ashram</a>"], "photo_reference": "Aap_uED94AYvFU8UWM2KRiZUeBrkOr9ps-edP03Ua8jT44lrI4bQ78vPOMdU8-_tJJylcquXVz-NtgCNLB0vrKg-OSmK-w-izfJGJvvkWHcY4VqME6yKJwjW4PldxpiaVT3x4Fp1lhW7GkBfgKFS0ZpMJoo_EUqC-comaxrAsUq5UZ6CNaVb", "width": 709}], "place_id": "ChIJGZasBaKInjkRlTqGuytWiiQ", "plus_code": {"compound_code": "25F8+87 Mallawan, Uttar Pradesh, India", "global_code": "7MV225F8+87"}, "rating": 3.5, "reference": "ChIJGZasBaKInjkRlTqGuytWiiQ", "scope": "GOOGLE", "types": ["school", "health", "point_of_interest", "establishment"], "user_ratings_total": 2, "vicinity": "Barahuwan, Mallawan"}, {"business_status": "OPERATIONAL", "geometry": {"location": {"lat": 27.01698009999999, "lng": 80.1649712}, "viewport": {"northeast": {"lat": 27.0183050302915, "lng": 80.16628773029151}, "southwest": {"lat": 27.0156070697085, "lng": 80.1635897697085}}}, "icon": "https://maps.gstatic.com/mapfiles/place_api/icons/v1/png_71/school-71.png", "icon_background_color": "#7B9EB0", "icon_mask_base_uri": "https://maps.gstatic.com/mapfiles/place_api/icons/v2/school_pinlet", "name": "V.P. R.K.INTER COLLEGE", "opening_hours": {"open_now": false}, "photos": [{"height": 4608, "html_attributions": ["<a href=\"https://maps.google.com/maps/contrib/101387699308156572213\">Akash Deep Patel</a>"], "photo_reference": "Aap_uED1TTC1wTQspby8NgHzqpzVR8uMPR1EPhAsJHXSAdNCxp3f7nJxK5_6csQIl7a3bIiEzK3xKxNmud4y2CGqgHQHwpBHHyfklSlPfDHZjVRPkMNVYMyz6zjr201a9DF1Y2u38lgdK4hacjhqfNAGztafgr9mb7O1fN6m4rsTDdRIaoG7", "width": 3456}], "place_id": "ChIJl9ZlhkWJnjkRd4rZqcmn6W4", "plus_code": {"compound_code": "2587+QX Mallawan, Uttar Pradesh, India", "global_code": "7MV22587+QX"}, "rating": 4.5, "reference": "ChIJl9ZlhkWJnjkRd4rZqcmn6W4", "scope": "GOOGLE", "types": ["school", "point_of_interest", "establishment"], "user_ratings_total": 10, "vicinity": "Akbarpur, barahuwan road, Mallawan"}, {"business_status": "OPERATIONAL", "geometry": {"location": {"lat": 27.0147907, "lng": 80.1685402}, "viewport": {"northeast": {"lat": 27.0162294302915, "lng": 80.1699040802915}, "southwest": {"lat": 27.0135314697085, "lng": 80.1672061197085}}}, "icon": "https://maps.gstatic.com/mapfiles/place_api/icons/v1/png_71/school-71.png", "icon_background_color": "#7B9EB0", "icon_mask_base_uri": "https://maps.gstatic.com/mapfiles/place_api/icons/v2/school_pinlet", "name": "Primary School (\u092a\u094d\u0930\u093e\u0925\u092e\u093f\u0915 \u0935\u093f \u0926\u094d\u092f\u093e \u0932 \u092f)", "place_id": "ChIJe9Q2Wz2HnjkRhqjDp7bx828", "plus_code": {"compound_code": "2579+WC Bhagwant Nagar, Uttar Pradesh, India", "global_code": "7MV22579+WC"}, "rating": 5, "reference": "ChIJe9Q2Wz2HnjkRhqjDp7bx828", "scope": "GOOGLE", "types": ["school", "point_of_interest", "establishment"], "user_ratings_total": 1, "vicinity": "Akbarpur, Bhagwant Nagar"}, {"business_status": "OPERATIONAL", "geometry": {"location": {"lat": 27.0212261, "lng": 80.1763703}, "viewport": {"northeast": {"lat": 27.0224566302915, "lng": 80.17788758029151}, "southwest": {"lat": 27.0197586697085, "lng": 80.17518961970849}}}, "icon": "https://maps.gstatic.com/mapfiles/place_api/icons/v1/png_71/school-71.png", "icon_background_color": "#7B9EB0", "icon_mask_base_uri": "https://maps.gstatic.com/mapfiles/place_api/icons/v2/school_pinlet", "name": "Sanskar Public School", "photos": [{"height": 2322, "html_attributions": ["<a href=\"https://maps.google.com/maps/contrib/116855944178431487502\">Dipanshu Patel</a>"], "photo_reference": "Aap_uEBqeRFnHs9lm_ilEguAAZ7rBMKHy6Mdus3nx1KE8zb0poc9HR769McoTh4MO1K4inMaWLg92kbxyPE9V9TB1c7de60AiCuZ0LlZJukrrtRo_hF_PfAAfv0Dfwp3_m_19i8Nd-vGaGP8FNZuyt8lIi6_-DZmWxH1YzQgpXd79R7kL-vI", "width": 4128}], "place_id": "ChIJkRkD65OInjkRqICM249Ad00", "plus_code": {"compound_code": "25CG+FG Mallawan, Uttar Pradesh, India", "global_code": "7MV225CG+FG"}, "rating": 5, "reference": "ChIJkRkD65OInjkRqICM249Ad00", "scope": "GOOGLE", "types": ["school", "point_of_interest", "establishment"], "user_ratings_total": 4, "vicinity": "Goverdhanpur, Mallawan"}, {"business_status": "OPERATIONAL", "geometry": {"location": {"lat": 27.0235, "lng": 80.1551305}, "viewport": {"northeast": {"lat": 27.0248794802915, "lng": 80.15670813029149}, "southwest": {"lat": 27.0221815197085, "lng": 80.15401016970849}}}, "icon": "https://maps.gstatic.com/mapfiles/place_api/icons/v1/png_71/school-71.png", "icon_background_color": "#7B9EB0", "icon_mask_base_uri": "https://maps.gstatic.com/mapfiles/place_api/icons/v2/school_pinlet", "name": "Sardar Patel Mahavidyalaya", "opening_hours": {"open_now": false}, "photos": [{"height": 576, "html_attributions": ["<a href=\"https://maps.google.com/maps/contrib/114453190898942358005\">Avinash Singh</a>"], "photo_reference": "Aap_uEDcUSE-w68jScgoHO7544z6Csm9IF85XwvRXDzbbcYSlV4WTGWZQZYIQ_1wYT-xkoMDVoIm4XaBAvEjPMu9pPYn9n-69gzraQG79fOYKRKiOvZHFf9hU5e3t0uqgnnBHfdulXtTTIyj8-GzxCN-kYbPzFgw7DV3NZBVy8398GsQXhA8", "width": 1280}], "place_id": "ChIJh3FbP5uInjkRbLmLg7xv9HQ", "rating": 4.2, "reference": "ChIJh3FbP5uInjkRbLmLg7xv9HQ", "scope": "GOOGLE", "types": ["university", "school", "point_of_interest", "establishment"], "user_ratings_total": 5, "vicinity": "25F4+93R, Mallawan"}, {"business_status": "OPERATIONAL", "geometry": {"location": {"lat": 27.0276995, "lng": 80.1551262}, "viewport": {"northeast": {"lat": 27.0290160302915, "lng": 80.1563558302915}, "southwest": {"lat": 27.0263180697085, "lng": 80.15365786970848}}}, "icon": "https://maps.gstatic.com/mapfiles/place_api/icons/v1/png_71/school-71.png", "icon_background_color": "#7B9EB0", "icon_mask_base_uri": "https://maps.gstatic.com/mapfiles/place_api/icons/v2/school_pinlet", "name": "SHRI SAI INTER COLLEGE", "photos": [{"height": 1407, "html_attributions": ["<a href=\"https://maps.google.com/maps/contrib/103034892718730579784\">Rahul Gupta</a>"], "photo_reference": "Aap_uEBW5Y_mx1G0PD6SpCkArYJAT1fbSfzA5L6r5RSIp5hzCK1Aw6E8274gMNZPUl-pcLMergS7P_AjZ8o9RPtEWkl4Ma2BuEJ7sD6vTjF2tdbZ-G7dk9ru-l__HhGscZ6e-miA1owJw5WsZQoEiV5uqQVP5tD0phVZPAHJ2LqbPjA-Loh-", "width": 2251}], "place_id": "ChIJR9vEoJqInjkRGmHhzJyaoms", "rating": 5, "reference": "ChIJR9vEoJqInjkRGmHhzJyaoms", "scope": "GOOGLE", "types": ["school", "point_of_interest", "establishment"], "user_ratings_total": 2, "vicinity": "25H4+33C, Mallawan"}, {"business_status": "OPERATIONAL", "geometry": {"location": {"lat": 27.0254784, "lng": 80.15389069999999}, "viewport": {"northeast": {"lat": 27.0268272302915, "lng": 80.15524003029151}, "southwest": {"lat": 27.0241292697085, "lng": 80.1525420697085}}}, "icon": "https://maps.gstatic.com/mapfiles/place_api/icons/v1/png_71/school-71.png", "icon_background_color": "#7B9EB0", "icon_mask_base_uri": "https://maps.gstatic.com/mapfiles/place_api/icons/v2/school_pinlet", "name": "Anganwadi Bhagwantnagar", "photos": [{"height": 3096, "html_attributions": ["<a href=\"https://maps.google.com/maps/contrib/118239460493736078727\">AHMAR KHAN</a>"], "photo_reference": "Aap_uEDdOZAP6fqzchDd2A8U05pfcLKnLE1g70B-IkWZpvQHlN7H37j9zQdetw8SVE2Hpi1WBqPVVXHW8Y3wScq92z2WH-2rNg-FK6yh-zhNC_92E0prRrMnneTF4VOZj7k4cxUz2SPjkn3KRz6bElif_K9H8xwZqt_StK_nD2QIGHXxjPHV", "width": 4128}], "place_id": "ChIJtZxyLYWInjkRmcqSgvwYM-0", "reference": "ChIJtZxyLYWInjkRmcqSgvwYM-0", "scope": "GOOGLE", "types": ["school", "point_of_interest", "establishment"], "vicinity": "25G3+5HR, Mallawan"}, {"business_status": "OPERATIONAL", "geometry": {"location": {"lat": 27.0292346, "lng": 80.15549229999999}, "viewport": {"northeast": {"lat": 27.0310244302915, "lng": 80.1570228302915}, "southwest": {"lat": 27.0283264697085, "lng": 80.15432486970847}}}, "icon": "https://maps.gstatic.com/mapfiles/place_api/icons/v1/png_71/school-71.png", "icon_background_color": "#7B9EB0", "icon_mask_base_uri": "https://maps.gstatic.com/mapfiles/place_api/icons/v2/school_pinlet", "name": "Chanakya Academy", "opening_hours": {"open_now": false}, "place_id": "ChIJnf2-apCInjkRyDsfoOW31V0", "reference": "ChIJnf2-apCInjkRyDsfoOW31V0", "scope": "GOOGLE", "types": ["school", "point_of_interest", "establishment"], "vicinity": "25H4+M5X, Mallawan"}], "status": "OK"}