{"html_attributions": [], "results": [{"business_status": "OPERATIONAL", "geometry": {"location": {"lat": 27.6512115, "lng": 80.160327}, "viewport": {"northeast": {"lat": 27.6526342802915, "lng": 80.1615042302915}, "southwest": {"lat": 27.6499363197085, "lng": 80.15880626970849}}}, "icon": "https://maps.gstatic.com/mapfiles/place_api/icons/v1/png_71/school-71.png", "icon_background_color": "#7B9EB0", "icon_mask_base_uri": "https://maps.gstatic.com/mapfiles/place_api/icons/v2/school_pinlet", "name": "Jawahar Navodaya Vidyalaya", "photos": [{"height": 3120, "html_attributions": ["<a href=\"https://maps.google.com/maps/contrib/118374666481461815691\">Akash Verma</a>"], "photo_reference": "Aap_uEBx8Jjnma63Dtdbd3LP3NFfAPdt4l01KTwZ_MWbcMpdtDEM_LKyBBPGknObiCjFFjP3yZkF9rdA5_rmIl6Hp_x6REXKiLKGT12rdVxGTn6O_aOjWJuyzwbzBuTFDTsh58_QHhPR30X2JuFauMUXSvUd3laIL5C8pz-EEi-QN3iUvKXw", "width": 4160}], "place_id": "ChIJVbLkTzkBnzkR05RIDRMfHlY", "plus_code": {"compound_code": "M526+F4 Patras, Uttar Pradesh, India", "global_code": "7MV2M526+F4"}, "rating": 4.3, "reference": "ChIJVbLkTzkBnzkR05RIDRMfHlY", "scope": "GOOGLE", "types": ["school", "point_of_interest", "establishment"], "user_ratings_total": 59, "vicinity": "Itara , Pihani"}, {"business_status": "OPERATIONAL", "geometry": {"location": {"lat": 27.6404011, "lng": 80.1711892}, "viewport": {"northeast": {"lat": 27.6416674302915, "lng": 80.1724947802915}, "southwest": {"lat": 27.6389694697085, "lng": 80.1697968197085}}}, "icon": "https://maps.gstatic.com/mapfiles/place_api/icons/v1/png_71/school-71.png", "icon_background_color": "#7B9EB0", "icon_mask_base_uri": "https://maps.gstatic.com/mapfiles/place_api/icons/v2/school_pinlet", "name": "PRIMARY SCHOOL Itara", "opening_hours": {"open_now": false}, "photos": [{"height": 1168, "html_attributions": ["<a href=\"https://maps.google.com/maps/contrib/102827130187794481541\">Virtual 360 World</a>"], "photo_reference": "Aap_uEBbKsUpF8SWKk6e4mqNTEGhjWEHJtZQ4VNyORPW8ay-j_w3pKmKXyhJtQ6mMgmUbr6CGrnEerXOlk8fTVfx7kTMAuPB6LW9v2AcO0EkCzsQ69-KkeDbwAPRZKyEfcim-ATKk2aPrGF8Y8yuO6MpNPeVh6t8nWLk5QtMx1Zby_jrMt-R", "width": 1168}], "place_id": "ChIJSb5SYEUBnzkR-mbNYmOlWZg", "plus_code": {"compound_code": "J5RC+5F Itara, Uttar Pradesh, India", "global_code": "7MV2J5RC+5F"}, "rating": 5, "reference": "ChIJSb5SYEUBnzkR-mbNYmOlWZg", "scope": "GOOGLE", "types": ["primary_school", "school", "point_of_interest", "establishment"], "user_ratings_total": 2, "vicinity": "Unnamed Road, Itara"}, {"business_status": "OPERATIONAL", "geometry": {"location": {"lat": 27.6418361, "lng": 80.1723337}, "viewport": {"northeast": {"lat": 27.64318043029151, "lng": 80.17374403029152}, "southwest": {"lat": 27.6404824697085, "lng": 80.1710460697085}}}, "icon": "https://maps.gstatic.com/mapfiles/place_api/icons/v1/png_71/school-71.png", "icon_background_color": "#7B9EB0", "icon_mask_base_uri": "https://maps.gstatic.com/mapfiles/place_api/icons/v2/school_pinlet", "name": "Ankit Kumar Pal Kirana Store Itara", "photos": [{"height": 720, "html_attributions": ["<a href=\"https://maps.google.com/maps/contrib/104036510672164373444\">Ankit Kumar</a>"], "photo_reference": "Aap_uEBd_bXWVaBNcTQ4R5cxeLHA78HxPjj81o0AQ-WUcKXSrnH2haeL7T5CqnOJRUL-gD6gbNq1zeMUTB9TWTSvNsH13bl3GObJ9NjAT8rzAJy3ZYRKFSXhHipb6TeFg3e93b8m5o4GidnRz0wSUD2tYXieRWh6TWbiPdz_DnNDOC_PgrDW", "width": 720}], "place_id": "ChIJ_wb2EmkBnzkREZeophHYGXw", "reference": "ChIJ_wb2EmkBnzkREZeophHYGXw", "scope": "GOOGLE", "types": ["school", "point_of_interest", "establishment"], "vicinity": "J5RC+PWP, Itara"}], "status": "OK"}