{"html_attributions": [], "results": [{"business_status": "OPERATIONAL", "geometry": {"location": {"lat": 27.76201219999999, "lng": 80.15771509999999}, "viewport": {"northeast": {"lat": 27.7633125302915, "lng": 80.1591103302915}, "southwest": {"lat": 27.76061456970849, "lng": 80.15641236970849}}}, "icon": "https://maps.gstatic.com/mapfiles/place_api/icons/v1/png_71/school-71.png", "icon_background_color": "#7B9EB0", "icon_mask_base_uri": "https://maps.gstatic.com/mapfiles/place_api/icons/v2/school_pinlet", "name": "\u092e\u093e\u0901 \u0905\u0928\u094d\u0928\u092a\u0942\u0930\u094d\u0923\u093e mandir", "place_id": "ChIJK69wdscJnzkRfkQA-ymiYfU", "reference": "ChIJK69wdscJnzkRfkQA-ymiYfU", "scope": "GOOGLE", "types": ["school", "point_of_interest", "establishment"], "vicinity": "Q565+R34, Bandraha"}, {"business_status": "OPERATIONAL", "geometry": {"location": {"lat": 27.7626863, "lng": 80.176739}, "viewport": {"northeast": {"lat": 27.76402688029151, "lng": 80.17800198029148}, "southwest": {"lat": 27.7613289197085, "lng": 80.17530401970848}}}, "icon": "https://maps.gstatic.com/mapfiles/place_api/icons/v1/png_71/school-71.png", "icon_background_color": "#7B9EB0", "icon_mask_base_uri": "https://maps.gstatic.com/mapfiles/place_api/icons/v2/school_pinlet", "name": "Zeeshan Auto Service", "place_id": "ChIJj2sZuIgJnzkRu6I0sz473T4", "reference": "ChIJj2sZuIgJnzkRu6I0sz473T4", "scope": "GOOGLE", "types": ["school", "point_of_interest", "establishment"], "vicinity": "Q57G+3MH, Kunwarpur Baghela"}, {"business_status": "OPERATIONAL", "geometry": {"location": {"lat": 27.7687287, "lng": 80.1732217}, "viewport": {"northeast": {"lat": 27.7701567302915, "lng": 80.17454988029151}, "southwest": {"lat": 27.7674587697085, "lng": 80.1718519197085}}}, "icon": "https://maps.gstatic.com/mapfiles/place_api/icons/v1/png_71/school-71.png", "icon_background_color": "#7B9EB0", "icon_mask_base_uri": "https://maps.gstatic.com/mapfiles/place_api/icons/v2/school_pinlet", "name": "CGI College", "place_id": "ChIJfzanNqQInzkRHoeXwyI93FA", "plus_code": {"compound_code": "Q59F+F7 Jang Bahadur Ganj, Uttar Pradesh, India", "global_code": "7MV2Q59F+F7"}, "rating": 3.7, "reference": "ChIJfzanNqQInzkRHoeXwyI93FA", "scope": "GOOGLE", "types": ["school", "point_of_interest", "establishment"], "user_ratings_total": 3, "vicinity": "To Station, Jang Bahadur Ganj"}, {"business_status": "OPERATIONAL", "geometry": {"location": {"lat": 27.7685432, "lng": 80.17642219999999}, "viewport": {"northeast": {"lat": 27.7699201302915, "lng": 80.1777519302915}, "southwest": {"lat": 27.7672221697085, "lng": 80.1750539697085}}}, "icon": "https://maps.gstatic.com/mapfiles/place_api/icons/v1/png_71/school-71.png", "icon_background_color": "#7B9EB0", "icon_mask_base_uri": "https://maps.gstatic.com/mapfiles/place_api/icons/v2/school_pinlet", "name": "Anya photo studio", "place_id": "ChIJQXb4TjwJnzkR9zcuFqTqqUs", "plus_code": {"compound_code": "Q59G+CH Jang Bahadur Ganj, Uttar Pradesh, India", "global_code": "7MV2Q59G+CH"}, "reference": "ChIJQXb4TjwJnzkR9zcuFqTqqUs", "scope": "GOOGLE", "types": ["school", "point_of_interest", "establishment"], "vicinity": "Old Station Road, Jang Bahadur Ganj"}, {"business_status": "OPERATIONAL", "geometry": {"location": {"lat": 27.7661622, "lng": 80.1781512}, "viewport": {"northeast": {"lat": 27.7676136802915, "lng": 80.1795532302915}, "southwest": {"lat": 27.7649157197085, "lng": 80.1768552697085}}}, "icon": "https://maps.gstatic.com/mapfiles/place_api/icons/v1/png_71/school-71.png", "icon_background_color": "#7B9EB0", "icon_mask_base_uri": "https://maps.gstatic.com/mapfiles/place_api/icons/v2/school_pinlet", "name": "Bhartiy janseva shikshan sansthan", "photos": [{"height": 959, "html_attributions": ["<a href=\"https://maps.google.com/maps/contrib/110216713423016126924\">Rajesh Verma</a>"], "photo_reference": "Aap_uEDbSD9Z_EN34jPAaVERXKTmRRJHvPcyrcpctyuMoo6w8tzLKVSz1nJy7sEQUFaLqMfynl43vQzxR-_90JCf-OX8IA9M8yYluJclQwe0D8fqqhGksO3EQOyPqaY650wjsR56WnW8uvuHBaSgnqul9PhUpTcGzwbRGu3cEhWZit9VuJo5", "width": 1280}], "place_id": "ChIJrxPp96YJnzkRa31198WFWCE", "rating": 5, "reference": "ChIJrxPp96YJnzkRa31198WFWCE", "scope": "GOOGLE", "types": ["school", "point_of_interest", "establishment"], "user_ratings_total": 1, "vicinity": "Q58H+F76, Salliya"}, {"business_status": "OPERATIONAL", "geometry": {"location": {"lat": 27.77210579999999, "lng": 80.172375}, "viewport": {"northeast": {"lat": 27.7737215302915, "lng": 80.1738587302915}, "southwest": {"lat": 27.77102356970849, "lng": 80.1711607697085}}}, "icon": "https://maps.gstatic.com/mapfiles/place_api/icons/v1/png_71/school-71.png", "icon_background_color": "#7B9EB0", "icon_mask_base_uri": "https://maps.gstatic.com/mapfiles/place_api/icons/v2/school_pinlet", "name": "SWAMI VIVEKANAND STUDY CENTRE", "opening_hours": {"open_now": false}, "photos": [{"height": 750, "html_attributions": ["<a href=\"https://maps.google.com/maps/contrib/115641313938142085450\">AMIT KUMAR RATHAUR</a>"], "photo_reference": "Aap_uEDzSgvCy64Sac1u9d9MlzgRTXmsTmCY08qhSeonQtxXi_7gU2Cnd_YSLKthm8AoAF67M_Prqhp-VbjQUsycHYSUZCoFSIeAB5mQGUi_jNoHn2ylaWN7_QR9_9saN0hZC3LopeHZXHy28mDvNdklrexj3yayGyy0BjEKjg-ZBxEtw2ry", "width": 551}], "place_id": "ChIJ_eBKh7MJnzkRAr_YV8iwyjU", "rating": 5, "reference": "ChIJ_eBKh7MJnzkRAr_YV8iwyjU", "scope": "GOOGLE", "types": ["school", "point_of_interest", "establishment"], "user_ratings_total": 1, "vicinity": "Q5CC+RWX, Jang Bahadur Ganj"}, {"business_status": "OPERATIONAL", "geometry": {"location": {"lat": 27.7718797, "lng": 80.1729677}, "viewport": {"northeast": {"lat": 27.7731672302915, "lng": 80.1745409302915}, "southwest": {"lat": 27.7704692697085, "lng": 80.17184296970848}}}, "icon": "https://maps.gstatic.com/mapfiles/place_api/icons/v1/png_71/school-71.png", "icon_background_color": "#7B9EB0", "icon_mask_base_uri": "https://maps.gstatic.com/mapfiles/place_api/icons/v2/school_pinlet", "name": "SWAMI VIVEKANAND STUDY CENTRE", "photos": [{"height": 750, "html_attributions": ["<a href=\"https://maps.google.com/maps/contrib/115641313938142085450\">AMIT KUMAR RATHAUR</a>"], "photo_reference": "Aap_uEAIvWhN2Vq5wjvBdQShQNwQro18eyG1v97tYwWM_Cx9go2YgI2zw5hUe8ArdKhM-D1cm60q5LqADqEVbd_UjAPsEG9HKK4CCsEB-R87d6u8WpaqNm2IyAgrrv9o2rX77EgzWvz8jv1AbNd6bh3fzpgJW2MBreTM1xeCzn8bRJgRkBG5", "width": 551}], "place_id": "ChIJMYfXb4YJnzkRSQTfZ4UHvWM", "reference": "ChIJMYfXb4YJnzkRSQTfZ4UHvWM", "scope": "GOOGLE", "types": ["school", "point_of_interest", "establishment"], "vicinity": "Q5CF+Q54, Jang Bahadur Ganj"}, {"business_status": "OPERATIONAL", "geometry": {"location": {"lat": 27.7709278, "lng": 80.1749725}, "viewport": {"northeast": {"lat": 27.7721136802915, "lng": 80.1763353802915}, "southwest": {"lat": 27.7694157197085, "lng": 80.1736374197085}}}, "icon": "https://maps.gstatic.com/mapfiles/place_api/icons/v1/png_71/school-71.png", "icon_background_color": "#7B9EB0", "icon_mask_base_uri": "https://maps.gstatic.com/mapfiles/place_api/icons/v2/school_pinlet", "name": "Cane Grovers Inter Collage", "opening_hours": {"open_now": true}, "place_id": "ChIJ9_yrdKUInzkRCm_dENC2Vsw", "plus_code": {"compound_code": "Q5CF+9X Jang Bahadur Ganj, Uttar Pradesh, India", "global_code": "7MV2Q5CF+9X"}, "rating": 1, "reference": "ChIJ9_yrdKUInzkRCm_dENC2Vsw", "scope": "GOOGLE", "types": ["school", "point_of_interest", "establishment"], "user_ratings_total": 1, "vicinity": "Cane Grover's Inter Collage, Jang Bahadur Ganj"}, {"business_status": "OPERATIONAL", "geometry": {"location": {"lat": 27.7720752, "lng": 80.173452}, "viewport": {"northeast": {"lat": 27.7735261802915, "lng": 80.1748524802915}, "southwest": {"lat": 27.7708282197085, "lng": 80.1721545197085}}}, "icon": "https://maps.gstatic.com/mapfiles/place_api/icons/v1/png_71/school-71.png", "icon_background_color": "#7B9EB0", "icon_mask_base_uri": "https://maps.gstatic.com/mapfiles/place_api/icons/v2/school_pinlet", "name": "Raj Computers Education", "place_id": "ChIJiXWj36QInzkRZtFdZvi2L2w", "rating": 5, "reference": "ChIJiXWj36QInzkRZtFdZvi2L2w", "scope": "GOOGLE", "types": ["school", "point_of_interest", "establishment"], "user_ratings_total": 1, "vicinity": "Q5CF+R9P, Jang Bahadur Ganj"}, {"business_status": "OPERATIONAL", "geometry": {"location": {"lat": 27.77116669999999, "lng": 80.175495}, "viewport": {"northeast": {"lat": 27.7724811302915, "lng": 80.17690708029151}, "southwest": {"lat": 27.7697831697085, "lng": 80.1742091197085}}}, "icon": "https://maps.gstatic.com/mapfiles/place_api/icons/v1/png_71/school-71.png", "icon_background_color": "#7B9EB0", "icon_mask_base_uri": "https://maps.gstatic.com/mapfiles/place_api/icons/v2/school_pinlet", "name": "CGIC", "place_id": "ChIJE1b_cKUInzkRRMO8V3wtFuo", "reference": "ChIJE1b_cKUInzkRRMO8V3wtFuo", "scope": "GOOGLE", "types": ["school", "point_of_interest", "establishment"], "vicinity": "Q5CG+F59, Salliya"}, {"business_status": "OPERATIONAL", "geometry": {"location": {"lat": 27.7715289, "lng": 80.17501879999999}, "viewport": {"northeast": {"lat": 27.7729498802915, "lng": 80.17640513029151}, "southwest": {"lat": 27.7702519197085, "lng": 80.17370716970849}}}, "icon": "https://maps.gstatic.com/mapfiles/place_api/icons/v1/png_71/school-71.png", "icon_background_color": "#7B9EB0", "icon_mask_base_uri": "https://maps.gstatic.com/mapfiles/place_api/icons/v2/school_pinlet", "name": "CGICollege", "place_id": "ChIJVVVVVa4InzkRCV9CZrI6jeI", "rating": 5, "reference": "ChIJVVVVVa4InzkRCV9CZrI6jeI", "scope": "GOOGLE", "types": ["school", "point_of_interest", "establishment"], "user_ratings_total": 1, "vicinity": "Q5CG+J26, Jang Bahadur Ganj"}, {"business_status": "OPERATIONAL", "geometry": {"location": {"lat": 27.7689152, "lng": 80.1779796}, "viewport": {"northeast": {"lat": 27.7702967802915, "lng": 80.1792956802915}, "southwest": {"lat": 27.7675988197085, "lng": 80.17659771970848}}}, "icon": "https://maps.gstatic.com/mapfiles/place_api/icons/v1/png_71/school-71.png", "icon_background_color": "#7B9EB0", "icon_mask_base_uri": "https://maps.gstatic.com/mapfiles/place_api/icons/v2/school_pinlet", "name": "R. D. Public School", "opening_hours": {"open_now": false}, "photos": [{"height": 2448, "html_attributions": ["<a href=\"https://maps.google.com/maps/contrib/106787362821871965571\">RDpublic School</a>"], "photo_reference": "Aap_uECwq0nDd6sNJ9Q4e7xxENoSKcchl6Olt-3n4d0QBm19rcj_s8SlheW7lU7Y5SuKUJzdQUyuwL0_QThEcTQ3Q65lXol7hL8MxJCRouOGGB0cNmu5GehMM395JuRn0AE4B7W7VQxiBggrnjoOQebfIWD9UyRW1-IBQVihDjTLgUxAZ7in", "width": 3264}], "place_id": "ChIJBRs8Oa8InzkR5sTyDCPD2zI", "plus_code": {"compound_code": "Q59H+H5 Jang Bahadur Ganj, Uttar Pradesh, India", "global_code": "7MV2Q59H+H5"}, "rating": 4, "reference": "ChIJBRs8Oa8InzkR5sTyDCPD2zI", "scope": "GOOGLE", "types": ["school", "point_of_interest", "establishment"], "user_ratings_total": 6, "vicinity": "Jang Bahadur Ganj"}, {"business_status": "OPERATIONAL", "geometry": {"location": {"lat": 27.7719958, "lng": 80.1747304}, "viewport": {"northeast": {"lat": 27.7733222302915, "lng": 80.1760681802915}, "southwest": {"lat": 27.7706242697085, "lng": 80.17337021970849}}}, "icon": "https://maps.gstatic.com/mapfiles/place_api/icons/v1/png_71/school-71.png", "icon_background_color": "#7B9EB0", "icon_mask_base_uri": "https://maps.gstatic.com/mapfiles/place_api/icons/v2/school_pinlet", "name": "P. K. Convent", "opening_hours": {"open_now": false}, "photos": [{"height": 720, "html_attributions": ["<a href=\"https://maps.google.com/maps/contrib/112249523060886567307\">P. K. Convent</a>"], "photo_reference": "Aap_uEDSosIXDS57oorb427r5FEi1RLuEekuAOXh9WHSyr-XZd5ygbI5xUc3A1Ci2Cspz0WtJWx9fwxK2IaPnlTaUe7WqXNIMUrcWpoP4K_BfdNTmyVnltLj71ZpwP50c178hzUxOxqsfdeYBHLoznytVdUPV9w4Rf5-lTUjfkSZtNTVofir", "width": 1080}], "place_id": "ChIJp02PFaUInzkR459dh0MPltw", "plus_code": {"compound_code": "Q5CF+QV Salliya, Uttar Pradesh, India", "global_code": "7MV2Q5CF+QV"}, "rating": 4.6, "reference": "ChIJp02PFaUInzkR459dh0MPltw", "scope": "GOOGLE", "types": ["school", "point_of_interest", "establishment"], "user_ratings_total": 9, "vicinity": "National Highway 24, Salliya"}], "status": "OK"}