{"html_attributions": [], "next_page_token": "Aap_uEDiJteZxe1Ecl6bce-mum-fEg5UM_S9b0W7DxQWnnRFPCCfQfRCN4dGgc7wCzhVQKGY3QqmSPgUxwR5jb7NdtV0UsTl7jhV7l1BDebjYw_GVddjdA8ZFaLaaedKzF0A_rc49R3aVxevKJ9mSKEn0MMgGzRVdpsiRGDUrcQym_xRSCepNUDgDuv8uUG1ZH6hCZIAprDYyy-fEj8MXqMYxiww-MTfvRE5HNxgZxtbH0LhJxUW0GPgWzagPtWfvK_PD9alVkY4HwzLLFdNZMum7kBqXmN1QP9_-6FKwUzGnwp0Kz2Nz-zcs4-d61hhEEey1JB8VhizJudC6EuN3Ab4rv6HlzxkApa_mZAWn-qjb_DbF1JWSaoOawDiRELbJGQB6NnHaDaQ1k-XNjo9rSRYpL76t4PLJEYbu1X4Q38ROV-3N8LFOeo", "results": [{"business_status": "OPERATIONAL", "geometry": {"location": {"lat": 27.6241355, "lng": 80.19032890000001}, "viewport": {"northeast": {"lat": 27.6255888302915, "lng": 80.1915002802915}, "southwest": {"lat": 27.6228908697085, "lng": 80.1888023197085}}}, "icon": "https://maps.gstatic.com/mapfiles/place_api/icons/v1/png_71/school-71.png", "icon_background_color": "#7B9EB0", "icon_mask_base_uri": "https://maps.gstatic.com/mapfiles/place_api/icons/v2/school_pinlet", "name": "junior school ke samne", "place_id": "ChIJdUayAGoDnzkRTKxREEcdIjs", "reference": "ChIJdUayAGoDnzkRTKxREEcdIjs", "scope": "GOOGLE", "types": ["secondary_school", "school", "point_of_interest", "establishment"], "vicinity": "J5FR+M44, Pihani"}, {"business_status": "OPERATIONAL", "geometry": {"location": {"lat": 27.6261862, "lng": 80.18722799999999}, "viewport": {"northeast": {"lat": 27.6275738802915, "lng": 80.1884916302915}, "southwest": {"lat": 27.6248759197085, "lng": 80.18579366970849}}}, "icon": "https://maps.gstatic.com/mapfiles/place_api/icons/v1/png_71/school-71.png", "icon_background_color": "#7B9EB0", "icon_mask_base_uri": "https://maps.gstatic.com/mapfiles/place_api/icons/v2/school_pinlet", "name": "Madarsa Islamiya Qasimul uloom", "photos": [{"height": 1080, "html_attributions": ["<a href=\"https://maps.google.com/maps/contrib/117290815402395719940\">Tayyab beg</a>"], "photo_reference": "Aap_uEBHjV3zpGcOr0TrmyEx4L6lrbIF3Grn9WpPFVSU72Q6X3ojSlRayOg8Baoy0IMuC5gmXVu-3qVX4BB1WPbDRJRcxm2_MxH8jGajvOvLUWaPHB3UgKJ0BqCxVCCBIGihWJifE5mNRQixRLDzkd__MQfPvOlrH1Nq3oS57Zt30K7m02CY", "width": 1920}], "place_id": "ChIJ1xy-1tsBnzkRS85wx-OOMIQ", "plus_code": {"compound_code": "J5GP+FV Pihani, Uttar Pradesh, India", "global_code": "7MV2J5GP+FV"}, "rating": 4.7, "reference": "ChIJ1xy-1tsBnzkRS85wx-OOMIQ", "scope": "GOOGLE", "types": ["school", "point_of_interest", "establishment"], "user_ratings_total": 3, "vicinity": "Unnamed Road, Pihani"}, {"business_status": "OPERATIONAL", "geometry": {"location": {"lat": 27.6262608, "lng": 80.1872218}, "viewport": {"northeast": {"lat": 27.6276396302915, "lng": 80.18850498029151}, "southwest": {"lat": 27.6249416697085, "lng": 80.18580701970849}}}, "icon": "https://maps.gstatic.com/mapfiles/place_api/icons/v1/png_71/school-71.png", "icon_background_color": "#7B9EB0", "icon_mask_base_uri": "https://maps.gstatic.com/mapfiles/place_api/icons/v2/school_pinlet", "name": "Madarsa quasimul ulum, Pihani", "place_id": "ChIJvT9Mpm8BnzkRpxFggBPyJGA", "plus_code": {"compound_code": "J5GP+GV Pihani, Uttar Pradesh, India", "global_code": "7MV2J5GP+GV"}, "reference": "ChIJvT9Mpm8BnzkRpxFggBPyJGA", "scope": "GOOGLE", "types": ["school", "point_of_interest", "establishment"], "vicinity": "Unnamed Road, Pihani"}, {"business_status": "OPERATIONAL", "geometry": {"location": {"lat": 27.62575429999999, "lng": 80.1902822}, "viewport": {"northeast": {"lat": 27.6270041802915, "lng": 80.19189963029152}, "southwest": {"lat": 27.62430621970849, "lng": 80.18920166970851}}}, "icon": "https://maps.gstatic.com/mapfiles/place_api/icons/v1/png_71/school-71.png", "icon_background_color": "#7B9EB0", "icon_mask_base_uri": "https://maps.gstatic.com/mapfiles/place_api/icons/v2/school_pinlet", "name": "M.A. Islamiya School", "opening_hours": {"open_now": false}, "photos": [{"height": 405, "html_attributions": ["<a href=\"https://maps.google.com/maps/contrib/101401591613714764880\">mr. nawab</a>"], "photo_reference": "Aap_uEBA_7MTqU1YqhKAeSMWukI4VA1LyFFeNIjzqsm9zWtzbCrDRwzPw-HKl0cB9bUDeR6jDzxdnzEZWDjcWolrAK_rDJot6XAVF54ZLSj23Ojalfue2i5LmNOPPhxmRpsBCoSAHJU9X8pk4aYHTkfUtWC7IokyDLr64MIdHf5DxMjwPzTf", "width": 720}], "place_id": "ChIJpz_KvgADnzkR19cE-UDsgHE", "rating": 5, "reference": "ChIJpz_KvgADnzkR19cE-UDsgHE", "scope": "GOOGLE", "types": ["school", "point_of_interest", "establishment"], "user_ratings_total": 4, "vicinity": "J5GR+843, Pihani"}, {"business_status": "OPERATIONAL", "geometry": {"location": {"lat": 27.61861889999999, "lng": 80.1923592}, "viewport": {"northeast": {"lat": 27.6197592302915, "lng": 80.1934926802915}, "southwest": {"lat": 27.61706126970849, "lng": 80.19079471970849}}}, "icon": "https://maps.gstatic.com/mapfiles/place_api/icons/v1/png_71/school-71.png", "icon_background_color": "#7B9EB0", "icon_mask_base_uri": "https://maps.gstatic.com/mapfiles/place_api/icons/v2/school_pinlet", "name": "Sarveah Janseva Inter College", "place_id": "ChIJ-TpJ5SsCnzkR2THt9A54UFE", "reference": "ChIJ-TpJ5SsCnzkR2THt9A54UFE", "scope": "GOOGLE", "types": ["school", "point_of_interest", "establishment"], "vicinity": "J59R+CWX, Pihani"}, {"business_status": "OPERATIONAL", "geometry": {"location": {"lat": 27.6150492, "lng": 80.18859610000001}, "viewport": {"northeast": {"lat": 27.6163846802915, "lng": 80.18972438029152}, "southwest": {"lat": 27.6136867197085, "lng": 80.18702641970852}}}, "icon": "https://maps.gstatic.com/mapfiles/place_api/icons/v1/png_71/school-71.png", "icon_background_color": "#7B9EB0", "icon_mask_base_uri": "https://maps.gstatic.com/mapfiles/place_api/icons/v2/school_pinlet", "name": "Maa Shanti Traders", "photos": [{"height": 3120, "html_attributions": ["<a href=\"https://maps.google.com/maps/contrib/101005146299179211505\">Dharmendra Verma</a>"], "photo_reference": "Aap_uECnX5CGbir5jQYki22iKoEZU-FOsPbs-X-VYE20hHUvVchrxrXeuE-cSrfmFjCygsPxCa4tl_i9Xf6ehJ9KXRjmIulJikRmHxFr80CX6CaibqBec2S8cEV5sGShkGUSpQBhE7xWlJoXraVAmi7XROhWD5f49fiL33xVu-qyKM2znS0e", "width": 4160}], "place_id": "ChIJqcQkJToDnzkR4w7zro3F0jg", "reference": "ChIJqcQkJToDnzkR4w7zro3F0jg", "scope": "GOOGLE", "types": ["school", "point_of_interest", "establishment"], "vicinity": "J58Q+2C9, Pihani"}, {"business_status": "OPERATIONAL", "geometry": {"location": {"lat": 27.6217337, "lng": 80.1952532}, "viewport": {"northeast": {"lat": 27.6229177302915, "lng": 80.1967219802915}, "southwest": {"lat": 27.6202197697085, "lng": 80.1940240197085}}}, "icon": "https://maps.gstatic.com/mapfiles/place_api/icons/v1/png_71/school-71.png", "icon_background_color": "#7B9EB0", "icon_mask_base_uri": "https://maps.gstatic.com/mapfiles/place_api/icons/v2/school_pinlet", "name": "Maya School Of Education And Learning", "opening_hours": {"open_now": false}, "photos": [{"height": 1960, "html_attributions": ["<a href=\"https://maps.google.com/maps/contrib/100995916157423676398\">Dharm Sanstha</a>"], "photo_reference": "Aap_uEA4YqoWtbWlSMK0KUiu_EUOYv7JVKPCIEHSol4r4Rfg9Zm9232d0cpfvyeJL8SRzdTeo2p3-mpGLBYTb6OkYJhOlSg_APcNnLpCDDTPvI8VyemoYvO_WBFSt4BweFKyPIr9duqDN5iEYDkr7i_E4YLpx36XniaKlfZiD7uxqh70KR7C", "width": 4032}], "place_id": "ChIJ1_DaOQADnzkR6LmlPpVgZPQ", "plus_code": {"compound_code": "J5CW+M4 Pihani, Uttar Pradesh, India", "global_code": "7MV2J5CW+M4"}, "rating": 5, "reference": "ChIJ1_DaOQADnzkR6LmlPpVgZPQ", "scope": "GOOGLE", "types": ["school", "point_of_interest", "establishment"], "user_ratings_total": 1, "vicinity": "bus stand, near gurudwara, Pihani"}, {"business_status": "OPERATIONAL", "geometry": {"location": {"lat": 27.62043929999999, "lng": 80.1956282}, "viewport": {"northeast": {"lat": 27.62182878029151, "lng": 80.19687858029151}, "southwest": {"lat": 27.6191308197085, "lng": 80.1941806197085}}}, "icon": "https://maps.gstatic.com/mapfiles/place_api/icons/v1/png_71/school-71.png", "icon_background_color": "#7B9EB0", "icon_mask_base_uri": "https://maps.gstatic.com/mapfiles/place_api/icons/v2/school_pinlet", "name": "\u0930\u093e\u091c\u0915\u0940\u092f \u0915\u0928\u094d\u092f\u093e \u0907\u0902\u091f\u0930 \u0915\u0949\u0932\u0947\u091c", "place_id": "ChIJ-0Mx5fgDnzkRNC0nxcjT1s0", "plus_code": {"compound_code": "J5CW+57 Pihani, Uttar Pradesh, India", "global_code": "7MV2J5CW+57"}, "reference": "ChIJ-0Mx5fgDnzkRNC0nxcjT1s0", "scope": "GOOGLE", "types": ["school", "point_of_interest", "establishment"], "vicinity": "Hardoi - Pihani Road, Pihani"}, {"business_status": "OPERATIONAL", "geometry": {"location": {"lat": 27.6207222, "lng": 80.1962478}, "viewport": {"northeast": {"lat": 27.6220772302915, "lng": 80.1975828302915}, "southwest": {"lat": 27.61937926970849, "lng": 80.19488486970849}}}, "icon": "https://maps.gstatic.com/mapfiles/place_api/icons/v1/png_71/school-71.png", "icon_background_color": "#7B9EB0", "icon_mask_base_uri": "https://maps.gstatic.com/mapfiles/place_api/icons/v2/school_pinlet", "name": "Government Girls Inter Collage GGIC", "place_id": "ChIJby-kri0CnzkRgWN1TcsAbxo", "rating": 3.7, "reference": "ChIJby-kri0CnzkRgWN1TcsAbxo", "scope": "GOOGLE", "types": ["secondary_school", "school", "point_of_interest", "establishment"], "user_ratings_total": 3, "vicinity": "J5CW+7FQ, Pihani"}, {"business_status": "OPERATIONAL", "geometry": {"location": {"lat": 27.6159324, "lng": 80.193466}, "viewport": {"northeast": {"lat": 27.6173667802915, "lng": 80.1948643802915}, "southwest": {"lat": 27.6146688197085, "lng": 80.19216641970849}}}, "icon": "https://maps.gstatic.com/mapfiles/place_api/icons/v1/png_71/school-71.png", "icon_background_color": "#7B9EB0", "icon_mask_base_uri": "https://maps.gstatic.com/mapfiles/place_api/icons/v2/school_pinlet", "name": "gyan kunj public school", "opening_hours": {"open_now": false}, "place_id": "ChIJ90Keay0CnzkRngPa2n3643Q", "rating": 5, "reference": "ChIJ90Keay0CnzkRngPa2n3643Q", "scope": "GOOGLE", "types": ["school", "point_of_interest", "establishment"], "user_ratings_total": 3, "vicinity": "J58V+99G, Pihani"}, {"business_status": "OPERATIONAL", "geometry": {"location": {"lat": 27.62339279999999, "lng": 80.19658620000001}, "viewport": {"northeast": {"lat": 27.6248623302915, "lng": 80.19775193029152}, "southwest": {"lat": 27.62216436970849, "lng": 80.19505396970851}}}, "icon": "https://maps.gstatic.com/mapfiles/place_api/icons/v1/png_71/school-71.png", "icon_background_color": "#7B9EB0", "icon_mask_base_uri": "https://maps.gstatic.com/mapfiles/place_api/icons/v2/school_pinlet", "name": "\u0911\u092b\u093f\u0938 \u0916\u0923\u094d\u0921 \u0936\u093f\u0915\u094d\u0937\u093e \u0905\u0927\u093f\u0915\u093e\u0930\u0940 \u092a\u093f\u0939\u093e\u0928\u0940", "place_id": "ChIJSUmwqA0DnzkR1GrTA6_CetI", "plus_code": {"compound_code": "J5FW+9J Pihani, Uttar Pradesh, India", "global_code": "7MV2J5FW+9J"}, "reference": "ChIJSUmwqA0DnzkR1GrTA6_CetI", "scope": "GOOGLE", "types": ["school", "point_of_interest", "establishment"], "vicinity": "Bus Stand, Pihani"}, {"business_status": "OPERATIONAL", "geometry": {"location": {"lat": 27.6227188, "lng": 80.1969252}, "viewport": {"northeast": {"lat": 27.6240319302915, "lng": 80.1983701802915}, "southwest": {"lat": 27.6213339697085, "lng": 80.19567221970848}}}, "icon": "https://maps.gstatic.com/mapfiles/place_api/icons/v1/png_71/school-71.png", "icon_background_color": "#7B9EB0", "icon_mask_base_uri": "https://maps.gstatic.com/mapfiles/place_api/icons/v2/school_pinlet", "name": "Gyan Yog Public School", "place_id": "ChIJozMXPi0CnzkRI1OoUKVfQQY", "rating": 4.6, "reference": "ChIJozMXPi0CnzkRI1OoUKVfQQY", "scope": "GOOGLE", "types": ["school", "point_of_interest", "establishment"], "user_ratings_total": 5, "vicinity": "J5FW+3QM, Pihani"}, {"business_status": "OPERATIONAL", "geometry": {"location": {"lat": 27.6235006, "lng": 80.1970746}, "viewport": {"northeast": {"lat": 27.6248066302915, "lng": 80.1986007802915}, "southwest": {"lat": 27.6221086697085, "lng": 80.19590281970848}}}, "icon": "https://maps.gstatic.com/mapfiles/place_api/icons/v1/png_71/school-71.png", "icon_background_color": "#7B9EB0", "icon_mask_base_uri": "https://maps.gstatic.com/mapfiles/place_api/icons/v2/school_pinlet", "name": "\u0915\u0938\u094d\u0924\u0942\u0930\u092c\u093e \u0917\u093e\u0901\u0927\u0940 \u0935\u093f\u0926\u094d\u092f\u093e\u0932\u092f", "place_id": "ChIJb61565gDnzkRSyR-TEK7McE", "plus_code": {"compound_code": "J5FW+CR Pihani, Uttar Pradesh, India", "global_code": "7MV2J5FW+CR"}, "reference": "ChIJb61565gDnzkRSyR-TEK7McE", "scope": "GOOGLE", "types": ["school", "point_of_interest", "establishment"], "vicinity": "Bus Stand, Pihani"}, {"business_status": "OPERATIONAL", "geometry": {"location": {"lat": 27.6297915, "lng": 80.19238399999999}, "viewport": {"northeast": {"lat": 27.63119458029151, "lng": 80.19375133029149}, "southwest": {"lat": 27.6284966197085, "lng": 80.19105336970848}}}, "icon": "https://maps.gstatic.com/mapfiles/place_api/icons/v1/png_71/school-71.png", "icon_background_color": "#7B9EB0", "icon_mask_base_uri": "https://maps.gstatic.com/mapfiles/place_api/icons/v2/school_pinlet", "name": "Samudaik Kendra", "place_id": "ChIJuespptYDnzkRf9tEPSd5UbY", "reference": "ChIJuespptYDnzkRf9tEPSd5UbY", "scope": "GOOGLE", "types": ["school", "point_of_interest", "establishment"], "vicinity": "J5HR+WX6, Mahmoodbag"}, {"business_status": "OPERATIONAL", "geometry": {"location": {"lat": 27.6227003, "lng": 80.19771159999999}, "viewport": {"northeast": {"lat": 27.6240757302915, "lng": 80.1990066802915}, "southwest": {"lat": 27.6213777697085, "lng": 80.19630871970848}}}, "icon": "https://maps.gstatic.com/mapfiles/place_api/icons/v1/png_71/school-71.png", "icon_background_color": "#7B9EB0", "icon_mask_base_uri": "https://maps.gstatic.com/mapfiles/place_api/icons/v2/school_pinlet", "name": "Hi Tech Computer Center", "place_id": "ChIJwd_WR5QDnzkRjGp3Kxc8ME8", "rating": 5, "reference": "ChIJwd_WR5QDnzkRjGp3Kxc8ME8", "scope": "GOOGLE", "types": ["school", "point_of_interest", "establishment"], "user_ratings_total": 1, "vicinity": "J5FX+33P, Pihani"}, {"business_status": "OPERATIONAL", "geometry": {"location": {"lat": 27.6276225, "lng": 80.1962166}, "viewport": {"northeast": {"lat": 27.6289995802915, "lng": 80.19758858029151}, "southwest": {"lat": 27.6263016197085, "lng": 80.19489061970849}}}, "icon": "https://maps.gstatic.com/mapfiles/place_api/icons/v1/png_71/school-71.png", "icon_background_color": "#7B9EB0", "icon_mask_base_uri": "https://maps.gstatic.com/mapfiles/place_api/icons/v2/school_pinlet", "name": "Hamidul Madaris \u062d\u0627\u0645\u062f\u0644 \u0645\u062f\u0622\u0631\u0633", "place_id": "ChIJyw8dUtIDnzkRLwr9vCAS5mE", "rating": 4, "reference": "ChIJyw8dUtIDnzkRLwr9vCAS5mE", "scope": "GOOGLE", "types": ["school", "point_of_interest", "establishment"], "user_ratings_total": 1, "vicinity": "J5HW+2FW, Pihani"}, {"business_status": "OPERATIONAL", "geometry": {"location": {"lat": 27.6116874, "lng": 80.1864554}, "viewport": {"northeast": {"lat": 27.6129091302915, "lng": 80.18786088029151}, "southwest": {"lat": 27.6102111697085, "lng": 80.18516291970849}}}, "icon": "https://maps.gstatic.com/mapfiles/place_api/icons/v1/png_71/school-71.png", "icon_background_color": "#7B9EB0", "icon_mask_base_uri": "https://maps.gstatic.com/mapfiles/place_api/icons/v2/school_pinlet", "name": "H.C.M", "place_id": "ChIJAcCf32YBnzkRP57aNcbfaNg", "reference": "ChIJAcCf32YBnzkRP57aNcbfaNg", "scope": "GOOGLE", "types": ["primary_school", "school", "point_of_interest", "establishment"], "vicinity": "J56P+MHG, Jamunahara, \u092a\u093f\u0939\u093e\u0928\u0940"}, {"business_status": "OPERATIONAL", "geometry": {"location": {"lat": 27.6273117, "lng": 80.1971283}, "viewport": {"northeast": {"lat": 27.62867463029151, "lng": 80.19851218029152}, "southwest": {"lat": 27.6259766697085, "lng": 80.19581421970851}}}, "icon": "https://maps.gstatic.com/mapfiles/place_api/icons/v1/png_71/school-71.png", "icon_background_color": "#7B9EB0", "icon_mask_base_uri": "https://maps.gstatic.com/mapfiles/place_api/icons/v2/school_pinlet", "name": "Naseem Zaidi kar Bazar", "place_id": "ChIJY4ycq5MDnzkRNCNwDaXbZxc", "plus_code": {"compound_code": "J5GW+WV Pihani, Uttar Pradesh, India", "global_code": "7MV2J5GW+WV"}, "reference": "ChIJY4ycq5MDnzkRNCNwDaXbZxc", "scope": "GOOGLE", "types": ["school", "point_of_interest", "establishment"], "vicinity": "Badi Bazar Road, Pihani"}, {"business_status": "OPERATIONAL", "geometry": {"location": {"lat": 27.62659, "lng": 80.1985136}, "viewport": {"northeast": {"lat": 27.6278843802915, "lng": 80.19983243029151}, "southwest": {"lat": 27.62518641970849, "lng": 80.19713446970849}}}, "icon": "https://maps.gstatic.com/mapfiles/place_api/icons/v1/png_71/school-71.png", "icon_background_color": "#7B9EB0", "icon_mask_base_uri": "https://maps.gstatic.com/mapfiles/place_api/icons/v2/school_pinlet", "name": "Aspire International School", "opening_hours": {"open_now": false}, "photos": [{"height": 2340, "html_attributions": ["<a href=\"https://maps.google.com/maps/contrib/107001154894482581079\">Aspire International School</a>"], "photo_reference": "Aap_uEDVwAgZ_C0-HTYsWhYmi1qUtGqMHyLmHasdg3IYD_QRxQ0IcxbmO-L26JUw59doMWNCCW9Bv8Ld6mRCjTX75eE2NpbptmejExzl79kL-ElGTalXgHliQjZIYadivjuMritihlEogALseyCHlAZvydcJcraCIFCzuEUGzrlTi1TY2ncN", "width": 4160}], "place_id": "ChIJHcJ4Rn0DnzkRa9ufuZIc754", "plus_code": {"compound_code": "J5GX+JC Pihani, Uttar Pradesh, India", "global_code": "7MV2J5GX+JC"}, "rating": 5, "reference": "ChIJHcJ4Rn0DnzkRa9ufuZIc754", "scope": "GOOGLE", "types": ["school", "point_of_interest", "establishment"], "user_ratings_total": 2, "vicinity": "Badi Bazar Road, badi, Pihani"}, {"business_status": "OPERATIONAL", "geometry": {"location": {"lat": 27.61671, "lng": 80.198807}, "viewport": {"northeast": {"lat": 27.61795628029151, "lng": 80.2000950802915}, "southwest": {"lat": 27.6152583197085, "lng": 80.1973971197085}}}, "icon": "https://maps.gstatic.com/mapfiles/place_api/icons/v1/png_71/school-71.png", "icon_background_color": "#7B9EB0", "icon_mask_base_uri": "https://maps.gstatic.com/mapfiles/place_api/icons/v2/school_pinlet", "name": "Ramakant Adarsh Junior Highschool Pihani", "place_id": "ChIJ6QAZ3zECnzkRCA053nwaEOQ", "reference": "ChIJ6QAZ3zECnzkRCA053nwaEOQ", "scope": "GOOGLE", "types": ["school", "point_of_interest", "establishment"], "vicinity": "J58X+MGM, Pihani"}], "status": "OK"}