{"html_attributions": [], "results": [{"business_status": "OPERATIONAL", "geometry": {"location": {"lat": 26.9576926, "lng": 80.2182328}, "viewport": {"northeast": {"lat": 26.9590415802915, "lng": 80.2195817802915}, "southwest": {"lat": 26.95634361970849, "lng": 80.2168838197085}}}, "icon": "https://maps.gstatic.com/mapfiles/place_api/icons/v1/png_71/school-71.png", "icon_background_color": "#7B9EB0", "icon_mask_base_uri": "https://maps.gstatic.com/mapfiles/place_api/icons/v2/school_pinlet", "name": "Shubham", "opening_hours": {"open_now": true}, "place_id": "ChIJUcCzmmuFnjkRmL17yFM18ek", "reference": "ChIJUcCzmmuFnjkRmL17yFM18ek", "scope": "GOOGLE", "types": ["school", "point_of_interest", "establishment"], "vicinity": "X659+37H, Mahamdabad"}, {"business_status": "OPERATIONAL", "geometry": {"location": {"lat": 26.9720268, "lng": 80.20162619999999}, "viewport": {"northeast": {"lat": 26.9733912302915, "lng": 80.2029811802915}, "southwest": {"lat": 26.97069326970849, "lng": 80.2002832197085}}}, "icon": "https://maps.gstatic.com/mapfiles/place_api/icons/v1/png_71/school-71.png", "icon_background_color": "#7B9EB0", "icon_mask_base_uri": "https://maps.gstatic.com/mapfiles/place_api/icons/v2/school_pinlet", "name": "Mishra Ji Aata Chaki", "photos": [{"height": 2560, "html_attributions": ["<a href=\"https://maps.google.com/maps/contrib/110256520087809442508\">Suneel Mishra</a>"], "photo_reference": "Aap_uEBUNfjutETVPn7OWWovyiVYvaglMkNe0aUAD_QH60boDpMshw4vh43LfmAYanuRcQHRt2PDBjMEfun1pieVqtAOxU0_FrH98nuLOcDINoz52sg3SFCYMvryp5uUSBe5fn_YUVEH4RtkVAnoFNjf7vQM6veOI5NahnA1sx-r_0tMBhV-", "width": 1920}], "place_id": "ChIJ6eXmTgWFnjkRJ4P3li5phyk", "reference": "ChIJ6eXmTgWFnjkRJ4P3li5phyk", "scope": "GOOGLE", "types": ["school", "point_of_interest", "establishment"], "vicinity": "X6C2+RM6, Atwara Chak Kola"}, {"business_status": "OPERATIONAL", "geometry": {"location": {"lat": 26.9535854, "lng": 80.19727019999999}, "viewport": {"northeast": {"lat": 26.9548901802915, "lng": 80.1986741302915}, "southwest": {"lat": 26.9521922197085, "lng": 80.19597616970849}}}, "icon": "https://maps.gstatic.com/mapfiles/place_api/icons/v1/png_71/school-71.png", "icon_background_color": "#7B9EB0", "icon_mask_base_uri": "https://maps.gstatic.com/mapfiles/place_api/icons/v2/school_pinlet", "name": "satay prakash mishra", "place_id": "ChIJLaekLtqFnjkR_NG0aeo_OQc", "reference": "ChIJLaekLtqFnjkR_NG0aeo_OQc", "scope": "GOOGLE", "types": ["school", "point_of_interest", "establishment"], "vicinity": "X53W+CWJ, Kapoor Pur"}, {"business_status": "OPERATIONAL", "geometry": {"location": {"lat": 26.9535854, "lng": 80.1972701}, "viewport": {"northeast": {"lat": 26.9548901802915, "lng": 80.1986740802915}, "southwest": {"lat": 26.9521922197085, "lng": 80.19597611970849}}}, "icon": "https://maps.gstatic.com/mapfiles/place_api/icons/v1/png_71/school-71.png", "icon_background_color": "#7B9EB0", "icon_mask_base_uri": "https://maps.gstatic.com/mapfiles/place_api/icons/v2/school_pinlet", "name": "Kamira Baba Mandir R K", "photos": [{"height": 1920, "html_attributions": ["<a href=\"https://maps.google.com/maps/contrib/116694126706765713363\">Rahul Singh</a>"], "photo_reference": "Aap_uED15EBXxrRp_VjzKcPRA4v837N23tCzfRFvXvKTMmN4bumGQfIp-kG3v3kn_t1NohzM43KPsrzAewizm0KmD7k7pH8MxihPxgAC73K1eho71JUjq6YbAp7nRQpWFQcC-9Mml62ViiQ9-SxhEO18Noupt1BaI7mNGp7pIkxyjkPJfSrk", "width": 1080}], "place_id": "ChIJHY7nV02FnjkRcyN0sh2Z-n4", "reference": "ChIJHY7nV02FnjkRcyN0sh2Z-n4", "scope": "GOOGLE", "types": ["school", "point_of_interest", "establishment"], "vicinity": "X53W+CWJ, Kapoor Pur"}], "status": "OK"}