{"html_attributions": [], "results": [{"business_status": "OPERATIONAL", "geometry": {"location": {"lat": 27.0613712, "lng": 80.20773}, "viewport": {"northeast": {"lat": 27.0627355302915, "lng": 80.2090914802915}, "southwest": {"lat": 27.06003756970849, "lng": 80.2063935197085}}}, "icon": "https://maps.gstatic.com/mapfiles/place_api/icons/v1/png_71/school-71.png", "icon_background_color": "#7B9EB0", "icon_mask_base_uri": "https://maps.gstatic.com/mapfiles/place_api/icons/v2/school_pinlet", "name": "S v v i c kherwa purbawan hardoi", "place_id": "ChIJHRlujSePnjkR-gYUjYDcbfc", "plus_code": {"compound_code": "3665+G3 Mallawan, Uttar Pradesh, India", "global_code": "7MV23665+G3"}, "reference": "ChIJHRlujSePnjkR-gYUjYDcbfc", "scope": "GOOGLE", "types": ["school", "point_of_interest", "establishment"], "vicinity": "Kherwa purbawan, Mallawan"}, {"business_status": "OPERATIONAL", "geometry": {"location": {"lat": 27.0612317, "lng": 80.20892169999999}, "viewport": {"northeast": {"lat": 27.0624139302915, "lng": 80.2103154802915}, "southwest": {"lat": 27.0597159697085, "lng": 80.20761751970849}}}, "icon": "https://maps.gstatic.com/mapfiles/place_api/icons/v1/png_71/school-71.png", "icon_background_color": "#7B9EB0", "icon_mask_base_uri": "https://maps.gstatic.com/mapfiles/place_api/icons/v2/school_pinlet", "name": "Vimal Kumar", "place_id": "ChIJa8cp3f2PnjkRZ7ud6gqdXic", "plus_code": {"compound_code": "3665+FH Mallawan, Uttar Pradesh, India", "global_code": "7MV23665+FH"}, "reference": "ChIJa8cp3f2PnjkRZ7ud6gqdXic", "scope": "GOOGLE", "types": ["school", "point_of_interest", "establishment"], "vicinity": "Ansh Public School. Karta Murtaza Kullipur, Mallawan"}, {"business_status": "OPERATIONAL", "geometry": {"location": {"lat": 27.0630016, "lng": 80.2087784}, "viewport": {"northeast": {"lat": 27.0643219802915, "lng": 80.2101195802915}, "southwest": {"lat": 27.0616240197085, "lng": 80.20742161970848}}}, "icon": "https://maps.gstatic.com/mapfiles/place_api/icons/v1/png_71/school-71.png", "icon_background_color": "#7B9EB0", "icon_mask_base_uri": "https://maps.gstatic.com/mapfiles/place_api/icons/v2/school_pinlet", "name": "\u0933\u0942 < <", "place_id": "ChIJQampPAyPnjkR47vH6TEgxq0", "plus_code": {"compound_code": "3675+6G Purbawan, Uttar Pradesh, India", "global_code": "7MV23675+6G"}, "reference": "ChIJQampPAyPnjkR47vH6TEgxq0", "scope": "GOOGLE", "types": ["primary_school", "school", "point_of_interest", "establishment"], "vicinity": "Kanhaiya Lal Baba Road, Purbawan"}, {"business_status": "OPERATIONAL", "geometry": {"location": {"lat": 27.064762, "lng": 80.20594500000001}, "viewport": {"northeast": {"lat": 27.06607268029151, "lng": 80.20737858029153}, "southwest": {"lat": 27.0633747197085, "lng": 80.20468061970851}}}, "icon": "https://maps.gstatic.com/mapfiles/place_api/icons/v1/png_71/school-71.png", "icon_background_color": "#7B9EB0", "icon_mask_base_uri": "https://maps.gstatic.com/mapfiles/place_api/icons/v2/school_pinlet", "name": "Education", "photos": [{"height": 3264, "html_attributions": ["<a href=\"https://maps.google.com/maps/contrib/108839701360988525898\">Mohd Anish</a>"], "photo_reference": "Aap_uEDONv4AFSmMFsaWRsbnDFOe2aipzODSsflVVOeY9kphyUpuERk7pHCdIhm80Xm9b1bp8-Vk-i-Nd_wyd0X2FvvzH08iaSi_ESdUeL_-oUWGqRCemV253Ji2qNa7xszebVx7D6FBk_Ojm-2-H4c_co5z477CUXcxLUpHvEiKCmVJpEgp", "width": 2448}], "place_id": "ChIJQYJl6yCPnjkR0_FSmMJPuP4", "plus_code": {"compound_code": "3674+W9 Manjhgaon, Uttar Pradesh, India", "global_code": "7MV23674+W9"}, "rating": 3, "reference": "ChIJQYJl6yCPnjkR0_FSmMJPuP4", "scope": "GOOGLE", "types": ["school", "point_of_interest", "establishment"], "user_ratings_total": 2, "vicinity": "kherwa Purbawan, hardoi"}, {"business_status": "OPERATIONAL", "geometry": {"location": {"lat": 27.0512646, "lng": 80.2067443}, "viewport": {"northeast": {"lat": 27.0526893302915, "lng": 80.2079847802915}, "southwest": {"lat": 27.0499913697085, "lng": 80.20528681970849}}}, "icon": "https://maps.gstatic.com/mapfiles/place_api/icons/v1/png_71/school-71.png", "icon_background_color": "#7B9EB0", "icon_mask_base_uri": "https://maps.gstatic.com/mapfiles/place_api/icons/v2/school_pinlet", "name": "Adarsh HSS SCHOOL", "place_id": "ChIJPclgWv6PnjkRIRTyJriVvuA", "plus_code": {"compound_code": "3624+GM Kherwa, Uttar Pradesh, India", "global_code": "7MV23624+GM"}, "reference": "ChIJPclgWv6PnjkRIRTyJriVvuA", "scope": "GOOGLE", "types": ["school", "point_of_interest", "establishment"], "vicinity": "Unnamed Road"}, {"business_status": "OPERATIONAL", "geometry": {"location": {"lat": 27.0645247, "lng": 80.2192061}, "viewport": {"northeast": {"lat": 27.0658379302915, "lng": 80.22056858029151}, "southwest": {"lat": 27.0631399697085, "lng": 80.21787061970849}}}, "icon": "https://maps.gstatic.com/mapfiles/place_api/icons/v1/png_71/school-71.png", "icon_background_color": "#7B9EB0", "icon_mask_base_uri": "https://maps.gstatic.com/mapfiles/place_api/icons/v2/school_pinlet", "name": "Nisha", "place_id": "ChIJg6XosDGPnjkRNnAEL4AMO5c", "plus_code": {"compound_code": "3679+RM Purwawan, Uttar Pradesh, India", "global_code": "7MV23679+RM"}, "reference": "ChIJg6XosDGPnjkRNnAEL4AMO5c", "scope": "GOOGLE", "types": ["school", "point_of_interest", "establishment"], "vicinity": "Mallawan - Sandila Road, Purwawan"}], "status": "OK"}