{"html_attributions": [], "results": [{"business_status": "OPERATIONAL", "geometry": {"location": {"lat": 23.9945944, "lng": 86.3721705}, "viewport": {"northeast": {"lat": 23.9960743302915, "lng": 86.3733575802915}, "southwest": {"lat": 23.9933763697085, "lng": 86.37065961970849}}}, "icon": "https://maps.gstatic.com/mapfiles/place_api/icons/v1/png_71/school-71.png", "name": "New Primary school", "place_id": "ChIJN8L684Wu9jkReynzmOCmDhk", "plus_code": {"compound_code": "X9VC+RV Chinapahari, Jharkhand, India", "global_code": "7MM8X9VC+RV"}, "reference": "ChIJN8L684Wu9jkReynzmOCmDhk", "scope": "GOOGLE", "types": ["school", "point_of_interest", "establishment"], "vicinity": "Chinapahari"}, {"business_status": "OPERATIONAL", "geometry": {"location": {"lat": 23.9946064, "lng": 86.37225029999999}, "viewport": {"northeast": {"lat": 23.9961261302915, "lng": 86.3734544302915}, "southwest": {"lat": 23.9934281697085, "lng": 86.3707564697085}}}, "icon": "https://maps.gstatic.com/mapfiles/place_api/icons/v1/png_71/school-71.png", "name": "N.P.S China Pahari", "place_id": "ChIJo21F8YWu9jkRVihmKmJ-rj0", "plus_code": {"compound_code": "X9VC+RW Maniadi, Jharkhand, India", "global_code": "7MM8X9VC+RW"}, "reference": "ChIJo21F8YWu9jkRVihmKmJ-rj0", "scope": "GOOGLE", "types": ["school", "point_of_interest", "establishment"], "vicinity": "vill-chinapahari, po- jhinaki ps, Maniadi"}, {"business_status": "OPERATIONAL", "geometry": {"location": {"lat": 23.9968592, "lng": 86.3756315}, "viewport": {"northeast": {"lat": 23.9982283802915, "lng": 86.37708163029151}, "southwest": {"lat": 23.9955304197085, "lng": 86.37438366970851}}}, "icon": "https://maps.gstatic.com/mapfiles/place_api/icons/v1/png_71/school-71.png", "name": "Primary School Kadwara", "place_id": "ChIJF6NYU4au9jkRTakwx0bMFGo", "plus_code": {"compound_code": "X9WG+P7 Kadwara, Jharkhand, India", "global_code": "7MM8X9WG+P7"}, "reference": "ChIJF6NYU4au9jkRTakwx0bMFGo", "scope": "GOOGLE", "types": ["school", "point_of_interest", "establishment"], "vicinity": "vill-kadwara,po-jhinaki"}, {"business_status": "OPERATIONAL", "geometry": {"location": {"lat": 23.9887437, "lng": 86.3656025}, "viewport": {"northeast": {"lat": 23.9903964302915, "lng": 86.3667386802915}, "southwest": {"lat": 23.98769846970849, "lng": 86.3640407197085}}}, "icon": "https://maps.gstatic.com/mapfiles/place_api/icons/v1/png_71/school-71.png", "name": "N.P.S. gaditand.", "place_id": "ChIJRdPugpGu9jkR5iBQBE7r6yk", "plus_code": {"compound_code": "X9Q8+F6 Shitalpur, Jharkhand, India", "global_code": "7MM8X9Q8+F6"}, "reference": "ChIJRdPugpGu9jkR5iBQBE7r6yk", "scope": "GOOGLE", "types": ["school", "point_of_interest", "establishment"], "vicinity": "Shitalpur"}], "status": "OK"}