{"html_attributions": [], "next_page_token": "ATtYBwJyzaz_vSLVy5Hm_uKQafVlSRQQDUar1-4jlhJr8BckxFs5SlFIeZH8l03Fijo_4Mhpu7ae13-wWhaxDmrj71OwaTMXrDbFagXKAP7SHslf_HhrnWQ2m6FLRwwQsQ6S-TaMDxhtCdqHxc9Kpjz-V09haYhMebXyIGsb-5b7RzWKi2RI9PkaB-yqZBrBcN9d7p1JlfCuypIiIKIdYfUczpK5Vw7L4IikafRbgBf_9Z7mzZ5uGmBbvHo5fVEXtRNMgzCoHujZm5ZmJf4NUKBB-w2ibFyGEA2UGNkvsyo3KbOIxSTR0mnpMkZJ-B1sz3MI_rjzx-dWAHVACEv2ZgYPPqRvgJH0ixXYYrrNBM3IB2YgSbngbg4WUbFFNfrlckrnthml9jRBzEwNlWo69iaRCXRXv_bymOfsbkyreFU0e0hgnWSu9N8", "results": [{"business_status": "OPERATIONAL", "geometry": {"location": {"lat": 23.6767732, "lng": 86.4068504}, "viewport": {"northeast": {"lat": 23.6781962302915, "lng": 86.4082334802915}, "southwest": {"lat": 23.6754982697085, "lng": 86.40553551970848}}}, "icon": "https://maps.gstatic.com/mapfiles/place_api/icons/v1/png_71/school-71.png", "name": "EDUCATION POINT OF LEARNING SCHOOL GOURKHUTTI BHOWRA", "photos": [{"height": 768, "html_attributions": ["<a href=\"https://maps.google.com/maps/contrib/108862617111485917394\">RAJ BHARTI</a>"], "photo_reference": "ATtYBwLKj9PPu_MoihtTGiBBszvymeRNVGoUX3t1lY3zohjsaGi-sMCO2VsOPk6a8Zf4G0BqTLjj5IB7BmwPVU76ieBkCyMtMipN5WY_TyilgKKPKE5nv_9qPXGFI-2wzP0tEuJXn3DmyFwCF7HZ_vmZm8r5u2II3PVbrNCeGG-t5QO2onEK", "width": 1024}], "place_id": "ChIJkRfU8DKY9jkRHgIt2yDw24o", "plus_code": {"compound_code": "MCG4+PP Pathardih, Jharkhand, India", "global_code": "7MM8MCG4+PP"}, "rating": 3.9, "reference": "ChIJkRfU8DKY9jkRHgIt2yDw24o", "scope": "GOOGLE", "types": ["school", "point_of_interest", "establishment"], "user_ratings_total": 13, "vicinity": "Pathardih"}, {"business_status": "OPERATIONAL", "geometry": {"location": {"lat": 23.6870155, "lng": 86.41714170000002}, "viewport": {"northeast": {"lat": 23.6883759302915, "lng": 86.41808798029152}, "southwest": {"lat": 23.6856779697085, "lng": 86.41539001970851}}}, "icon": "https://maps.gstatic.com/mapfiles/place_api/icons/v1/png_71/school-71.png", "name": "De Nobili School Digwadih CFRI", "photos": [{"height": 3464, "html_attributions": ["<a href=\"https://maps.google.com/maps/contrib/101207386868039765597\">Sumit Mansingka</a>"], "photo_reference": "ATtYBwKSSucgOa7Wn5hKneh-Cnv4tkkjmWVnoB21R4DYN0_FD784MBozCUxcojWbV3pPxAQIYXaplFEtI9_2oDWiUTGyMq1gNW0cb3hE7x5cwH64DmwLvgq4ydRyUDqlopjnP8Q3cQuHC-uBC4QAsyLZHghIpJEMF_c_Nse0hPkt70WmHv_7", "width": 4618}], "place_id": "ChIJMQAAAADA9DkRaQD-WToDDGg", "plus_code": {"compound_code": "MCP8+RV Dhanbad, Jharkhand, India", "global_code": "7MM8MCP8+RV"}, "rating": 4.6, "reference": "ChIJMQAAAADA9DkRaQD-WToDDGg", "scope": "GOOGLE", "types": ["school", "point_of_interest", "establishment"], "user_ratings_total": 274, "vicinity": "Purulia - Dhanbad Road, Digwadih, Dhanbad"}, {"business_status": "OPERATIONAL", "geometry": {"location": {"lat": 23.6886973, "lng": 86.4157252}, "viewport": {"northeast": {"lat": 23.6898086302915, "lng": 86.4169460302915}, "southwest": {"lat": 23.6871106697085, "lng": 86.41424806970849}}}, "icon": "https://maps.gstatic.com/mapfiles/place_api/icons/v1/png_71/school-71.png", "name": "Mount Carmel School", "photos": [{"height": 540, "html_attributions": ["<a href=\"https://maps.google.com/maps/contrib/105866406122674845364\">Puja Chakraborty</a>"], "photo_reference": "ATtYBwKKtkzmpmwKLjgqALRtEfcMEYV2JBn4Gl9PwzLFRkT8sT6JxO4TNVfCejN2x-fFFieVr-52QzfANzvzYteQT2BEzgPDbU2UY8x9AiH4l5rkRAvwru2DpwNDHej330-Y3t7uPZlN6mh-rYuFF5pYG-Hq-PvwNKk96hhux-PPOsZcnmJB", "width": 720}], "place_id": "ChIJX_WMWiaY9jkR40DWL3lUOCM", "plus_code": {"compound_code": "MCQ8+F7 Pathardih, Jharkhand, India", "global_code": "7MM8MCQ8+F7"}, "rating": 4, "reference": "ChIJX_WMWiaY9jkR40DWL3lUOCM", "scope": "GOOGLE", "types": ["school", "point_of_interest", "establishment"], "user_ratings_total": 70, "vicinity": "CFRI Colony, Pathardih"}, {"business_status": "OPERATIONAL", "geometry": {"location": {"lat": 23.6895175, "lng": 86.4171907}, "viewport": {"northeast": {"lat": 23.6907217302915, "lng": 86.41857063029153}, "southwest": {"lat": 23.6880237697085, "lng": 86.41587266970852}}}, "icon": "https://maps.gstatic.com/mapfiles/place_api/icons/v1/png_71/school-71.png", "name": "DAV MODEL SCHOOL CFRI", "opening_hours": {"open_now": false}, "photos": [{"height": 640, "html_attributions": ["<a href=\"https://maps.google.com/maps/contrib/107895659419180159497\">Saurav Modak</a>"], "photo_reference": "ATtYBwIpZV0YmJAIttnAIlzQCaNquFE3SwY1-e4Vpn1f8S8KqE-2wQy8S2UgEHkyuAFdD9jKi9aVBbMNSVeNNoN3JIkTKX57fYot7KZBcmJ1xDrDC_ljB88odR3yoUMNGgklPdzwWYu18ta5TTk4bqmc236FhVftbtC3APc15TbdNtY6qTA-", "width": 640}], "place_id": "ChIJrViokyiY9jkRuUOGjA9nK8g", "plus_code": {"compound_code": "MCQ8+RV Pathardih, Jharkhand, India", "global_code": "7MM8MCQ8+RV"}, "rating": 3.9, "reference": "ChIJrViokyiY9jkRuUOGjA9nK8g", "scope": "GOOGLE", "types": ["school", "point_of_interest", "establishment"], "user_ratings_total": 118, "vicinity": "CFRI Colony, Pathardih"}, {"business_status": "OPERATIONAL", "geometry": {"location": {"lat": 23.677578, "lng": 86.4088561}, "viewport": {"northeast": {"lat": 23.6787022302915, "lng": 86.41008338029151}, "southwest": {"lat": 23.6760042697085, "lng": 86.4073854197085}}}, "icon": "https://maps.gstatic.com/mapfiles/place_api/icons/v1/png_71/school-71.png", "name": "Ujclasses", "photos": [{"height": 1080, "html_attributions": ["<a href=\"https://maps.google.com/maps/contrib/105707434508055614282\">Uj Classes</a>"], "photo_reference": "ATtYBwK1Et2T6vnRqImd3h4Vh6RYndLF73vjM4twMy0d7eZVUlNjViXm25j3xHB6rEVZPBSyUJ4EljXgrsz-rTXWmJD-IGW436LnYmB3Eun0WnCZcHka_kfkG61uAclbfv8jzGmnOKuOnPCt1Gv8SpRCYF1-BrUVgMNzlkRfzx4Vlv5aFDu8", "width": 1920}], "place_id": "ChIJ4fboIQKZ9jkRWoEKqujxvxc", "plus_code": {"compound_code": "MCH5+2G Jamadoba, Jharkhand, India", "global_code": "7MM8MCH5+2G"}, "reference": "ChIJ4fboIQKZ9jkRWoEKqujxvxc", "scope": "GOOGLE", "types": ["school", "point_of_interest", "establishment"], "vicinity": "Jamadoba - Bhowra Road, Jamadoba"}, {"business_status": "OPERATIONAL", "geometry": {"location": {"lat": 23.6772721, "lng": 86.41009079999999}, "viewport": {"northeast": {"lat": 23.6785484802915, "lng": 86.4116624802915}, "southwest": {"lat": 23.67585051970849, "lng": 86.40896451970848}}}, "icon": "https://maps.gstatic.com/mapfiles/place_api/icons/v1/png_71/school-71.png", "name": "Ujclasses", "opening_hours": {"open_now": false}, "photos": [{"height": 800, "html_attributions": ["<a href=\"https://maps.google.com/maps/contrib/116452090869059814157\">Ujclasses</a>"], "photo_reference": "ATtYBwLhRQvxg0hJIU8NkIiSsYq-cgLX54HJtBW6LvGP1s2ahtvFdyP-KuwbgGHboe4i1utahtdV5KA2TdtFZwR49NbFtdtejsoTNTYhATU5ikvUo3tnQf_bFnlC-woCaKkGTkJ1OS7rJYLg_zawJgOlp-puB30_tRTM7KXCjPHWF_aeDbCt", "width": 600}], "place_id": "ChIJ2WBnVYyZ9jkRVE6mvZ_z0dI", "plus_code": {"compound_code": "MCG6+W2 Pathardih, Jharkhand, India", "global_code": "7MM8MCG6+W2"}, "rating": 3, "reference": "ChIJ2WBnVYyZ9jkRVE6mvZ_z0dI", "scope": "GOOGLE", "types": ["school", "point_of_interest", "establishment"], "user_ratings_total": 1, "vicinity": "Bhowra, Pathardih"}, {"business_status": "OPERATIONAL", "geometry": {"location": {"lat": 23.6763922, "lng": 86.41005469999999}, "viewport": {"northeast": {"lat": 23.6777479802915, "lng": 86.4114075302915}, "southwest": {"lat": 23.6750500197085, "lng": 86.40870956970849}}}, "icon": "https://maps.gstatic.com/mapfiles/place_api/icons/v1/png_71/school-71.png", "name": "Sohel ansari", "place_id": "ChIJ51246P2Z9jkRzNQCM07fpZw", "plus_code": {"compound_code": "MCG6+H2 Pathardih, Jharkhand, India", "global_code": "7MM8MCG6+H2"}, "reference": "ChIJ51246P2Z9jkRzNQCM07fpZw", "scope": "GOOGLE", "types": ["school", "point_of_interest", "establishment"], "vicinity": "Jamadoba - Bhowra Road, Pathardih"}, {"business_status": "OPERATIONAL", "geometry": {"location": {"lat": 23.6768303, "lng": 86.40689440000001}, "viewport": {"northeast": {"lat": 23.6782218802915, "lng": 86.40826298029152}, "southwest": {"lat": 23.6755239197085, "lng": 86.40556501970852}}}, "icon": "https://maps.gstatic.com/mapfiles/place_api/icons/v1/png_71/school-71.png", "name": "M.kumar Computer Study Centre", "opening_hours": {"open_now": true}, "place_id": "ChIJuf7Q9jKY9jkRRkYbW-vlsLU", "plus_code": {"compound_code": "MCG4+PQ Pathardih, Jharkhand, India", "global_code": "7MM8MCG4+PQ"}, "reference": "ChIJuf7Q9jKY9jkRRkYbW-vlsLU", "scope": "GOOGLE", "types": ["school", "point_of_interest", "establishment"], "vicinity": "Pathardih"}, {"business_status": "OPERATIONAL", "geometry": {"location": {"lat": 23.6806599, "lng": 86.4040265}, "viewport": {"northeast": {"lat": 23.6820383302915, "lng": 86.4054328302915}, "southwest": {"lat": 23.67934036970849, "lng": 86.4027348697085}}}, "icon": "https://maps.gstatic.com/mapfiles/place_api/icons/v1/png_71/school-71.png", "name": "GYAN GANGA PUBLIC SCHOOL", "opening_hours": {"open_now": false}, "photos": [{"height": 960, "html_attributions": ["<a href=\"https://maps.google.com/maps/contrib/101791975452411526483\">GYAN GANGA PUBLIC SCHOOL</a>"], "photo_reference": "ATtYBwImcn0XTuUmTebjVaCX-2GdKNJRjcYAvJu-XvAg9XCe_ct-PsCmq95gLGuUz0-WTDgQIKfrDvPV1IZLLt_FBYcgmzDGoCs285npblFShdZ1eao_72NzJ_s0uP9twoy2QdnZxc41vBYs0uKwwNftPqtvumex0QXMqzO6uJIw4CTQsEtF", "width": 1280}], "place_id": "ChIJWXu7sjaY9jkRHd2oLjJkNuU", "plus_code": {"compound_code": "MCJ3+7J Pathardih, Jharkhand, India", "global_code": "7MM8MCJ3+7J"}, "rating": 4, "reference": "ChIJWXu7sjaY9jkRHd2oLjJkNuU", "scope": "GOOGLE", "types": ["school", "point_of_interest", "establishment"], "user_ratings_total": 3, "vicinity": "near Kali mandir, GOURKHUTI, near Kali mandir, Jamadoba - Bhowra Road, Pathardih"}, {"business_status": "OPERATIONAL", "geometry": {"location": {"lat": 23.68127939999999, "lng": 86.4163971}, "viewport": {"northeast": {"lat": 23.6829133802915, "lng": 86.41774153029151}, "southwest": {"lat": 23.68021541970849, "lng": 86.4150435697085}}}, "icon": "https://maps.gstatic.com/mapfiles/place_api/icons/v1/png_71/school-71.png", "name": "Dav Model School Cfri", "place_id": "ChIJsR_4nCmY9jkRN_YOaR6QH5o", "plus_code": {"compound_code": "MCJ8+GH Pathardih, Jharkhand, India", "global_code": "7MM8MCJ8+GH"}, "rating": 1, "reference": "ChIJsR_4nCmY9jkRN_YOaR6QH5o", "scope": "GOOGLE", "types": ["school", "point_of_interest", "establishment"], "user_ratings_total": 1, "vicinity": "Unnamed Road, Mahulbani, Pathardih"}, {"business_status": "OPERATIONAL", "geometry": {"location": {"lat": 23.6763608, "lng": 86.4156672}, "viewport": {"northeast": {"lat": 23.6777132802915, "lng": 86.4169844302915}, "southwest": {"lat": 23.67501531970849, "lng": 86.4142864697085}}}, "icon": "https://maps.gstatic.com/mapfiles/place_api/icons/v1/png_71/school-71.png", "name": "Nav Bharat Public School", "opening_hours": {"open_now": false}, "photos": [{"height": 3120, "html_attributions": ["<a href=\"https://maps.google.com/maps/contrib/101584238567642765782\">sumit kumar</a>"], "photo_reference": "ATtYBwIEA1xhxY1t2mHSLydzlAmrPHbORbcaHShn7FyrO-Kcg8VAz5b2PsAi2319Cg8Aht7_GIJATTVkzEf9Z3Xp7Bd5Zz-gvZ7Arb2E977rLxOa6haCtblix1vG4h6-wraR_LnQmPe9Dg1kNp2i6Hlih6RhMwt2kBZRTgD11CXXA3CTCDLV", "width": 4160}], "place_id": "ChIJ9dFGGiuY9jkRtPEC_Oinh34", "plus_code": {"compound_code": "MCG8+G7 Pathardih, Jharkhand, India", "global_code": "7MM8MCG8+G7"}, "rating": 4.6, "reference": "ChIJ9dFGGiuY9jkRtPEC_Oinh34", "scope": "GOOGLE", "types": ["school", "point_of_interest", "establishment"], "user_ratings_total": 12, "vicinity": "DOCP Colony, Pathardih"}, {"business_status": "OPERATIONAL", "geometry": {"location": {"lat": 23.679778, "lng": 86.4172755}, "viewport": {"northeast": {"lat": 23.68124823029151, "lng": 86.4187534802915}, "southwest": {"lat": 23.6785502697085, "lng": 86.4160555197085}}}, "icon": "https://maps.gstatic.com/mapfiles/place_api/icons/v1/png_71/school-71.png", "name": "Triloknath School", "photos": [{"height": 4128, "html_attributions": ["<a href=\"https://maps.google.com/maps/contrib/103939264166745302314\">Somnath Biswas</a>"], "photo_reference": "ATtYBwJ0hue9pLxKBgaV2o774bnRa-xUIFRMtvjGCKL62AQIhXaZBXJm1H1ksV-uLepSk8tQWaqhPrdVadM5Kkc-Ko7xNzxmHPqQnCtk9oz3J0OBVFfCfK-V7dw7Aqc3hlEy5g8myzaRCUSf_UcrThyMYGqS5jE87sA3XnkaIE3m2hacbSTB", "width": 3096}], "place_id": "ChIJ-yIFIyqY9jkRfcoeKAL1m4o", "plus_code": {"compound_code": "MCH8+WW Pathardih, Jharkhand, India", "global_code": "7MM8MCH8+WW"}, "rating": 2, "reference": "ChIJ-yIFIyqY9jkRfcoeKAL1m4o", "scope": "GOOGLE", "types": ["school", "point_of_interest", "establishment"], "user_ratings_total": 2, "vicinity": "DOCP Colony, Pathardih"}, {"business_status": "OPERATIONAL", "geometry": {"location": {"lat": 23.6836495, "lng": 86.41620929999999}, "viewport": {"northeast": {"lat": 23.6850137802915, "lng": 86.41761073029151}, "southwest": {"lat": 23.6823158197085, "lng": 86.4149127697085}}}, "icon": "https://maps.gstatic.com/mapfiles/place_api/icons/v1/png_71/school-71.png", "name": "D.D.F.M St Francis School", "photos": [{"height": 720, "html_attributions": ["<a href=\"https://maps.google.com/maps/contrib/102018417112340233501\">Vineet Francis</a>"], "photo_reference": "ATtYBwLuj_YMtQCzNpPva6Mn3FTb0OmInh1PHXZ4w0GIXCPpU56gAHUQdByZl1F6OEZOVE2FpmFD6LGTmzWarDDNICW8MsWZmfMNioErYZhfWBZAwzHNA8wznMuGDsJaqzBs7H2VcbqsOx6DGzs606ztT6lEQRlMqs8HKha2EfouFy7IofPP", "width": 960}], "place_id": "ChIJZceZ-CiY9jkRWjKQ2M35bWE", "plus_code": {"compound_code": "MCM8+FF Pathardih, Jharkhand, India", "global_code": "7MM8MCM8+FF"}, "rating": 5, "reference": "ChIJZceZ-CiY9jkRWjKQ2M35bWE", "scope": "GOOGLE", "types": ["school", "point_of_interest", "establishment"], "user_ratings_total": 3, "vicinity": "Purulia - Dhanbad Road, Pathardih"}, {"business_status": "OPERATIONAL", "geometry": {"location": {"lat": 23.6839786, "lng": 86.4163662}, "viewport": {"northeast": {"lat": 23.6853172302915, "lng": 86.4176545802915}, "southwest": {"lat": 23.6826192697085, "lng": 86.41495661970848}}}, "icon": "https://maps.gstatic.com/mapfiles/place_api/icons/v1/png_71/school-71.png", "name": "De Nobili Hindi School", "place_id": "ChIJ7y51VyiY9jkRiQ-Pnz47NRQ", "plus_code": {"compound_code": "MCM8+HG Pathardih, Jharkhand, India", "global_code": "7MM8MCM8+HG"}, "reference": "ChIJ7y51VyiY9jkRiQ-Pnz47NRQ", "scope": "GOOGLE", "types": ["school", "point_of_interest", "establishment"], "vicinity": "Unnamed Road, Pathardih"}, {"business_status": "OPERATIONAL", "geometry": {"location": {"lat": 23.6768143, "lng": 86.41729600000001}, "viewport": {"northeast": {"lat": 23.6781997302915, "lng": 86.4186767802915}, "southwest": {"lat": 23.6755017697085, "lng": 86.4159788197085}}}, "icon": "https://maps.gstatic.com/mapfiles/place_api/icons/v1/png_71/school-71.png", "name": "NBPS", "place_id": "ChIJQ18D0YOZ9jkRU94356NRJyc", "plus_code": {"compound_code": "MCG8+PW Pathardih, Jharkhand, India", "global_code": "7MM8MCG8+PW"}, "reference": "ChIJQ18D0YOZ9jkRU94356NRJyc", "scope": "GOOGLE", "types": ["school", "point_of_interest", "establishment"], "vicinity": "DOCP Colony, Pathardih"}, {"business_status": "OPERATIONAL", "geometry": {"location": {"lat": 23.6840944, "lng": 86.4167421}, "viewport": {"northeast": {"lat": 23.6856568302915, "lng": 86.41801873029151}, "southwest": {"lat": 23.68295886970849, "lng": 86.4153207697085}}}, "icon": "https://maps.gstatic.com/mapfiles/place_api/icons/v1/png_71/school-71.png", "name": "Hindi Denobli School C.F.R.I.", "place_id": "ChIJP_hqWyiY9jkRoYSITJTQ7p4", "plus_code": {"compound_code": "MCM8+JM Pathardih, Jharkhand, India", "global_code": "7MM8MCM8+JM"}, "rating": 5, "reference": "ChIJP_hqWyiY9jkRoYSITJTQ7p4", "scope": "GOOGLE", "types": ["school", "point_of_interest", "establishment"], "user_ratings_total": 1, "vicinity": "Pathardih"}, {"business_status": "OPERATIONAL", "geometry": {"location": {"lat": 23.6846747, "lng": 86.4169811}, "viewport": {"northeast": {"lat": 23.6860542302915, "lng": 86.41821758029151}, "southwest": {"lat": 23.6833562697085, "lng": 86.41551961970849}}}, "icon": "https://maps.gstatic.com/mapfiles/place_api/icons/v1/png_71/school-71.png", "name": "New Nightingale school", "opening_hours": {"open_now": false}, "place_id": "ChIJfW7BsimY9jkRW7yVOPTzWoA", "plus_code": {"compound_code": "MCM8+VQ Pathardih, Jharkhand, India", "global_code": "7MM8MCM8+VQ"}, "rating": 5, "reference": "ChIJfW7BsimY9jkRW7yVOPTzWoA", "scope": "GOOGLE", "types": ["school", "point_of_interest", "establishment"], "user_ratings_total": 1, "vicinity": "Pathardih"}, {"business_status": "OPERATIONAL", "geometry": {"location": {"lat": 23.68757459999999, "lng": 86.40304669999999}, "viewport": {"northeast": {"lat": 23.6891376302915, "lng": 86.4045079802915}, "southwest": {"lat": 23.68643966970849, "lng": 86.40181001970849}}}, "icon": "https://maps.gstatic.com/mapfiles/place_api/icons/v1/png_71/school-71.png", "name": "Indian Public School", "opening_hours": {"open_now": false}, "photos": [{"height": 1080, "html_attributions": ["<a href=\"https://maps.google.com/maps/contrib/108937447187367090467\">ROCK BOY ANAND</a>"], "photo_reference": "ATtYBwKHQzi-HZE1Y8qzr7pzz0FZ1er9LP456p0kXjfcb5AD3knYbpFVw6SG-Jx7flE1UEmESpL8Zdu3XZE-ZMYWadxly8L6xVgKcIeybRcZp2AAkLWBnJGfiHD-W1Gd1YlCYPrSUFdR0da59c9OkLckbjcis9cIkkhjW524Pj91tA8HKmSK", "width": 1920}], "place_id": "ChIJL7YYjTmY9jkRGmYtGsjjI_U", "plus_code": {"compound_code": "MCQ3+26 Pathardih, Jharkhand, India", "global_code": "7MM8MCQ3+26"}, "rating": 4.5, "reference": "ChIJL7YYjTmY9jkRGmYtGsjjI_U", "scope": "GOOGLE", "types": ["school", "point_of_interest", "establishment"], "user_ratings_total": 11, "vicinity": "19, Bhowra Road, Bhowra, Pathardih"}, {"business_status": "OPERATIONAL", "geometry": {"location": {"lat": 23.6815671, "lng": 86.39919739999999}, "viewport": {"northeast": {"lat": 23.6828008302915, "lng": 86.40053353029151}, "southwest": {"lat": 23.6801028697085, "lng": 86.39783556970849}}}, "icon": "https://maps.gstatic.com/mapfiles/place_api/icons/v1/png_71/school-71.png", "name": "Poddar Coaching", "place_id": "ChIJnUEWPTaY9jkRBinNg77RE0k", "plus_code": {"compound_code": "M9JX+JM Pathardih, Jharkhand, India", "global_code": "7MM8M9JX+JM"}, "reference": "ChIJnUEWPTaY9jkRBinNg77RE0k", "scope": "GOOGLE", "types": ["school", "point_of_interest", "establishment"], "vicinity": "Regional Store, Bhowra, Pathardih"}, {"business_status": "OPERATIONAL", "geometry": {"location": {"lat": 23.6879148, "lng": 86.40301819999999}, "viewport": {"northeast": {"lat": 23.6893430802915, "lng": 86.4044036302915}, "southwest": {"lat": 23.68664511970849, "lng": 86.40170566970849}}}, "icon": "https://maps.gstatic.com/mapfiles/place_api/icons/v1/png_71/school-71.png", "name": "Ami's House", "photos": [{"height": 483, "html_attributions": ["<a href=\"https://maps.google.com/maps/contrib/102832895716944971930\">AMIT KUMAR</a>"], "photo_reference": "ATtYBwJBbSD0SnYRDw_XIjyTL78K3hMUEwFMqF6vK_Mq9-KVmlNf6Trba7Nw613b0e4roSVk_lzl5YLiGcDiX1El9WIwzjZX9znGPgpQER7ZUEwiTgCSSrd3bGM0HDWwXlwsLeuEA_nmLGo7KCkZ9ObI4Rt6hzVmDMyxXSI-yUsMF1WqOuPe", "width": 483}], "place_id": "ChIJHzzdWu-Z9jkRkLZ48rrzyEw", "plus_code": {"compound_code": "MCQ3+56 Pathardih, Jharkhand, India", "global_code": "7MM8MCQ3+56"}, "rating": 3, "reference": "ChIJHzzdWu-Z9jkRkLZ48rrzyEw", "scope": "GOOGLE", "types": ["school", "point_of_interest", "establishment"], "user_ratings_total": 1, "vicinity": "Bhowra Road, Pathardih"}], "status": "OK"}