{"html_attributions": [], "next_page_token": "ATtYBwLtegHcewzLCQW1Jk6i9CnudiFArHEROFcgHkGxy394etKNiDdf5QiKi6xCJ-bpmoHZjN9vX9iY0bsbFxKXC2ewQyUW2TFZYRdFs7cXt-SHnzFqeSe5EJVhEzF8GNOeWOx9CrjmfIPCAM0SCqUApIphK_HrzGmg0Ld17eBCXKQ3hT-ZK6CJvNKBwbLqADmhNNV1Ce0IbJujcQ46HGwHXQIsIxouCOw-Mazf776EZQcQwpiRoIkzNe_nNmoaZuY_b-pKBsnxOzkgJLvFWibXvJ0geSZL9_tgFilsch3cQzCuE1IXS6qLF9Y9Vek6Tux3a4v53E9PaWAAQxEwUCYGK5trcIaH5A-ay_PKglG-sCnyku6NxujeMeQtQr_eO6Dwi6dmQ0J8jr8jK0z29NgKYMPE9oXMkhG0JsTgd9s9c9onGxwVfZYB3ck0av9qdmF_P-V1CtPHnsPlCNlPTJcm_Os5P5HK3V10MSHfYBubNXEJXPDjW_QMp9vAZuYBVtHHbXBEOpweAv9LFughbAGkZgTTAzA0nHtktY4syQg4JaF10naIiMTncvcWnpSS0r2jMNDvhNVXC8lYLBdrCs6X-Jq0ZbCwnBT_c8RQehCnsykbDCXZbV0qWT8EBm64F6tgkMxzqkVH", "results": [{"business_status": "OPERATIONAL", "geometry": {"location": {"lat": 23.7827211, "lng": 86.41389799999999}, "viewport": {"northeast": {"lat": 23.7840860802915, "lng": 86.4152104802915}, "southwest": {"lat": 23.7813881197085, "lng": 86.41251251970849}}}, "icon": "https://maps.gstatic.com/mapfiles/place_api/icons/v1/png_71/school-71.png", "name": "R K S Vidya Mandir Dhansar", "photos": [{"height": 1920, "html_attributions": ["<a href=\"https://maps.google.com/maps/contrib/107984631468001863984\">RTN TV</a>"], "photo_reference": "ATtYBwJqGqYdiUSSHGcW-PrOGGcYG1A17FdaB9OCYYHccebAQ7e02LOSWoCec-OochlbtRBlfDaAOV9qAIpy7YDQa3DxkDsvqpLfS1bdaPNP_6gz93hoW6ybnxKM-aUDy1mXmKjJlCzgyjQ5OUNvuLxfVxgfDMmP4yiTYO2XpTH3WqgCrorT", "width": 1080}], "place_id": "ChIJHa66Seij9jkRyqHlujiL4oI", "plus_code": {"compound_code": "QCM7+3H Dhanbad, Jharkhand, India", "global_code": "7MM8QCM7+3H"}, "rating": 5, "reference": "ChIJHa66Seij9jkRyqHlujiL4oI", "scope": "GOOGLE", "types": ["school", "point_of_interest", "establishment"], "user_ratings_total": 1, "vicinity": "Unnamed Road, Shastri Nagar, Dhanbad"}, {"business_status": "OPERATIONAL", "geometry": {"location": {"lat": 23.7838436, "lng": 86.4067257}, "viewport": {"northeast": {"lat": 23.7851602802915, "lng": 86.40810958029151}, "southwest": {"lat": 23.7824623197085, "lng": 86.4054116197085}}}, "icon": "https://maps.gstatic.com/mapfiles/place_api/icons/v1/png_71/school-71.png", "name": "Saraswati Shishu Shiksha Niketan", "opening_hours": {"open_now": false}, "place_id": "ChIJ87Zg9zqj9jkRKzFwp9PSTGg", "plus_code": {"compound_code": "QCM4+GM Dhaunsar, Jharkhand, India", "global_code": "7MM8QCM4+GM"}, "rating": 4.3, "reference": "ChIJ87Zg9zqj9jkRKzFwp9PSTGg", "scope": "GOOGLE", "types": ["school", "primary_school", "point_of_interest", "establishment"], "user_ratings_total": 3, "vicinity": "Kali mandir, Bright Kusunda, Near, Dhaunsar"}, {"business_status": "OPERATIONAL", "geometry": {"location": {"lat": 23.782625, "lng": 86.41495069999999}, "viewport": {"northeast": {"lat": 23.7839164802915, "lng": 86.41626823029151}, "southwest": {"lat": 23.7812185197085, "lng": 86.41357026970849}}}, "icon": "https://maps.gstatic.com/mapfiles/place_api/icons/v1/png_71/school-71.png", "name": "Saraswati Classes - Ashish Kumar Jha", "opening_hours": {"open_now": true}, "photos": [{"height": 1476, "html_attributions": ["<a href=\"https://maps.google.com/maps/contrib/118137099672816022079\">Ashish Kumar</a>"], "photo_reference": "ATtYBwKLwZpgDjLg6oVXUMatQmHWMgkUQX0hIuLULJ74jkbRTJ3xN8HKbZzy6JNzUtfY62orDhNJxQ6GICHzYkxKLX3mTRVgCxtEkoU5RdzVu8uBZyKNoQ_RNtaNbDHX9dztNgKTCvjDab9zsY9-LZkoGvhPsX_Lmun2LlknbPn7rCgjdAc2", "width": 902}], "place_id": "ChIJR3r3K6ij9jkRvz90zKeaYP4", "plus_code": {"compound_code": "QCM7+2X Dhaunsar, Jharkhand, India", "global_code": "7MM8QCM7+2X"}, "reference": "ChIJR3r3K6ij9jkRvz90zKeaYP4", "scope": "GOOGLE", "types": ["school", "point_of_interest", "establishment"], "vicinity": "Dhaunsar"}, {"business_status": "OPERATIONAL", "geometry": {"location": {"lat": 23.7859572, "lng": 86.40905889999999}, "viewport": {"northeast": {"lat": 23.7873371302915, "lng": 86.4104422802915}, "southwest": {"lat": 23.78463916970849, "lng": 86.4077443197085}}}, "icon": "https://maps.gstatic.com/mapfiles/place_api/icons/v1/png_71/school-71.png", "name": "Guru Kripa Public School", "place_id": "ChIJiTzGF4aj9jkR-ZnJAB_X5ic", "plus_code": {"compound_code": "QCP5+9J Dhanbad, Jharkhand, India", "global_code": "7MM8QCP5+9J"}, "rating": 5, "reference": "ChIJiTzGF4aj9jkR-ZnJAB_X5ic", "scope": "GOOGLE", "types": ["school", "point_of_interest", "establishment"], "user_ratings_total": 1, "vicinity": "Unnamed Road, Sanjay Nagar, Dhanbad"}, {"business_status": "OPERATIONAL", "geometry": {"location": {"lat": 23.7845487, "lng": 86.4158229}, "viewport": {"northeast": {"lat": 23.7858615302915, "lng": 86.41717868029149}, "southwest": {"lat": 23.7831635697085, "lng": 86.41448071970848}}}, "icon": "https://maps.gstatic.com/mapfiles/place_api/icons/v1/png_71/school-71.png", "name": "Cluster Of Star", "place_id": "ChIJ1Sc1ADOj9jkRjvJVz-VeL-U", "plus_code": {"compound_code": "QCM8+R8 Dhanbad, Jharkhand, India", "global_code": "7MM8QCM8+R8"}, "reference": "ChIJ1Sc1ADOj9jkRjvJVz-VeL-U", "scope": "GOOGLE", "types": ["school", "point_of_interest", "establishment"], "vicinity": "Shastri Nagar West, Dhanbad"}, {"business_status": "OPERATIONAL", "geometry": {"location": {"lat": 23.7831208, "lng": 86.4029451}, "viewport": {"northeast": {"lat": 23.7844745302915, "lng": 86.4042874802915}, "southwest": {"lat": 23.78177656970849, "lng": 86.4015895197085}}}, "icon": "https://maps.gstatic.com/mapfiles/place_api/icons/v1/png_71/school-71.png", "name": "Child Future Public School", "place_id": "ChIJ4xKGmjyj9jkRxLyAmTyCK9s", "plus_code": {"compound_code": "QCM3+65 Dhanbad, Jharkhand, India", "global_code": "7MM8QCM3+65"}, "rating": 5, "reference": "ChIJ4xKGmjyj9jkRxLyAmTyCK9s", "scope": "GOOGLE", "types": ["school", "point_of_interest", "establishment"], "user_ratings_total": 1, "vicinity": "9 no, New Delhi Colony, Shastri Nagar, Dhanbad"}, {"business_status": "OPERATIONAL", "geometry": {"location": {"lat": 23.784586, "lng": 86.4160826}, "viewport": {"northeast": {"lat": 23.7858833802915, "lng": 86.41742583029149}, "southwest": {"lat": 23.7831854197085, "lng": 86.41472786970849}}}, "icon": "https://maps.gstatic.com/mapfiles/place_api/icons/v1/png_71/school-71.png", "name": "Nehru Bal Mandir School", "place_id": "ChIJMboiAjOj9jkRVug3olFBC6w", "plus_code": {"compound_code": "QCM8+RC Dhanbad, Jharkhand, India", "global_code": "7MM8QCM8+RC"}, "rating": 3.8, "reference": "ChIJMboiAjOj9jkRVug3olFBC6w", "scope": "GOOGLE", "types": ["school", "point_of_interest", "establishment"], "user_ratings_total": 8, "vicinity": "LRD Road, Shastri Nagar, Dhanbad"}, {"business_status": "OPERATIONAL", "geometry": {"location": {"lat": 23.7794507, "lng": 86.41815760000001}, "viewport": {"northeast": {"lat": 23.7808793302915, "lng": 86.41941728029153}, "southwest": {"lat": 23.77818136970849, "lng": 86.41671931970852}}}, "icon": "https://maps.gstatic.com/mapfiles/place_api/icons/v1/png_71/school-71.png", "name": "Lakshmi Shishu Niketan", "place_id": "ChIJU_tZ0tK89jkRRQfo4p3TBdo", "plus_code": {"compound_code": "QCH9+Q7 Dhanbad, Jharkhand, India", "global_code": "7MM8QCH9+Q7"}, "reference": "ChIJU_tZ0tK89jkRRQfo4p3TBdo", "scope": "GOOGLE", "types": ["primary_school", "school", "point_of_interest", "establishment"], "vicinity": "Chandmari Road, Joraphatak, Dhanbad"}, {"business_status": "OPERATIONAL", "geometry": {"location": {"lat": 23.7873112, "lng": 86.4070153}, "viewport": {"northeast": {"lat": 23.7886628302915, "lng": 86.4083799302915}, "southwest": {"lat": 23.7859648697085, "lng": 86.4056819697085}}}, "icon": "https://maps.gstatic.com/mapfiles/place_api/icons/v1/png_71/school-71.png", "name": "Bhuiphore temple", "place_id": "ChIJZwrQDBej9jkRRj1_jIk4azw", "plus_code": {"compound_code": "QCP4+WR Dhanbad, Jharkhand, India", "global_code": "7MM8QCP4+WR"}, "reference": "ChIJZwrQDBej9jkRRj1_jIk4azw", "scope": "GOOGLE", "types": ["school", "point_of_interest", "establishment"], "vicinity": "Unnamed Road, Sanjay Nagar, Dhanbad"}, {"business_status": "OPERATIONAL", "geometry": {"location": {"lat": 23.7877636, "lng": 86.40861079999999}, "viewport": {"northeast": {"lat": 23.7891125802915, "lng": 86.4099597802915}, "southwest": {"lat": 23.7864146197085, "lng": 86.40726181970848}}}, "icon": "https://maps.gstatic.com/mapfiles/place_api/icons/v1/png_71/school-71.png", "name": "Truck driving school", "place_id": "ChIJ5yjSQo-j9jkRHka1jzcdAMo", "plus_code": {"compound_code": "QCQ5+4C Dhanbad, Jharkhand, India", "global_code": "7MM8QCQ5+4C"}, "rating": 3.7, "reference": "ChIJ5yjSQo-j9jkRHka1jzcdAMo", "scope": "GOOGLE", "types": ["school", "point_of_interest", "establishment"], "user_ratings_total": 3, "vicinity": "Dhanbad Road, Coal Board Colony, Jawahar Nagar, Dhanbad"}, {"business_status": "OPERATIONAL", "geometry": {"location": {"lat": 23.7875236, "lng": 86.4074187}, "viewport": {"northeast": {"lat": 23.7888725802915, "lng": 86.4087676802915}, "southwest": {"lat": 23.7861746197085, "lng": 86.4060697197085}}}, "icon": "https://maps.gstatic.com/mapfiles/place_api/icons/v1/png_71/school-71.png", "name": "Radhika market", "opening_hours": {"open_now": true}, "photos": [{"height": 1706, "html_attributions": ["<a href=\"https://maps.google.com/maps/contrib/112303156185509834399\">Chandrakant Mishra</a>"], "photo_reference": "ATtYBwJI_nAoF9mXaxaUvX67x2NOV5gJ63qkIRhBWGja1QJtOazNKPJeUVXa8beeBYiOmtRCgdM3eHfm1HCXVeonErKUG7Kq8jEA5WWjvEN7lPpEl9xUxsOcpCYaS31vGeT7aDrQypSVlzVmut0FQXoudTsPytujbNUNVWvbBSS7FJ_i87FY", "width": 1280}], "place_id": "ChIJSd8oJNmj9jkRmmq9pY4Zi-k", "plus_code": {"compound_code": "QCQ4+2X Dhanbad, Jharkhand, India", "global_code": "7MM8QCQ4+2X"}, "reference": "ChIJSd8oJNmj9jkRmmq9pY4Zi-k", "scope": "GOOGLE", "types": ["school", "point_of_interest", "establishment"], "vicinity": "Katras Road, Vikash Nagar, Dhanbad"}, {"business_status": "OPERATIONAL", "geometry": {"location": {"lat": 23.7869613, "lng": 86.41439609999999}, "viewport": {"northeast": {"lat": 23.7883106302915, "lng": 86.4157620802915}, "southwest": {"lat": 23.7856126697085, "lng": 86.4130641197085}}}, "icon": "https://maps.gstatic.com/mapfiles/place_api/icons/v1/png_71/school-71.png", "name": "Veena Bal Vikas Vidyalaya", "photos": [{"height": 780, "html_attributions": ["<a href=\"https://maps.google.com/maps/contrib/108602309929203516524\">Dheeraj Mishra ABD17</a>"], "photo_reference": "ATtYBwL5R5uQaOsPOzCkWlIxRZyH6J7LfwoWpV0W4v2eNdQ9ZcWKT4RgkUqVobSnG-szJY5BJ-ge9hYSLdwSyP_dWARcnwMyuRBwegdeTPVb4Ebk1xOTdNRi0eEKvZjuGhTCRnQfx98zCr29wLE18iq_h3I8Qh0UsRy2YDQRzi6cWCLXYbzl", "width": 1040}], "place_id": "ChIJ60YQ-DOj9jkRxXzw5Q9tMtE", "plus_code": {"compound_code": "QCP7+QQ Dhanbad, Jharkhand, India", "global_code": "7MM8QCP7+QQ"}, "rating": 4.3, "reference": "ChIJ60YQ-DOj9jkRxXzw5Q9tMtE", "scope": "GOOGLE", "types": ["school", "point_of_interest", "establishment"], "user_ratings_total": 22, "vicinity": "near Chhath Talab, Vikash Nagar, Dhanbad"}, {"business_status": "OPERATIONAL", "geometry": {"location": {"lat": 23.7881339, "lng": 86.40952130000001}, "viewport": {"northeast": {"lat": 23.78938958029151, "lng": 86.41089333029151}, "southwest": {"lat": 23.7866916197085, "lng": 86.4081953697085}}}, "icon": "https://maps.gstatic.com/mapfiles/place_api/icons/v1/png_71/school-71.png", "name": "Sunny", "place_id": "ChIJzZBU7Rej9jkRT9SFA7SKUxk", "plus_code": {"compound_code": "QCQ5+7R Matkuria, Jharkhand, India", "global_code": "7MM8QCQ5+7R"}, "reference": "ChIJzZBU7Rej9jkRT9SFA7SKUxk", "scope": "GOOGLE", "types": ["school", "point_of_interest", "establishment"], "vicinity": "Coal Board Colony, Jawahar Nagar, Matkuria"}, {"business_status": "OPERATIONAL", "geometry": {"location": {"lat": 23.7759893, "lng": 86.41779179999999}, "viewport": {"northeast": {"lat": 23.7772925802915, "lng": 86.4190655802915}, "southwest": {"lat": 23.7745946197085, "lng": 86.4163676197085}}}, "icon": "https://maps.gstatic.com/mapfiles/place_api/icons/v1/png_71/school-71.png", "name": "UTKRIMIT MADHAY VIDAYALAY CHANDMARI COLLIERY", "place_id": "ChIJmcJtMYaj9jkRoykL3sLRuuw", "plus_code": {"compound_code": "QCG9+94 Dhanbad, Jharkhand, India", "global_code": "7MM8QCG9+94"}, "reference": "ChIJmcJtMYaj9jkRoykL3sLRuuw", "scope": "GOOGLE", "types": ["school", "point_of_interest", "establishment"], "vicinity": "Dhanbad - Sindri Road, Anugrah Nagar, Dhanbad"}, {"business_status": "OPERATIONAL", "geometry": {"location": {"lat": 23.7875647, "lng": 86.4064272}, "viewport": {"northeast": {"lat": 23.7888196302915, "lng": 86.40779198029149}, "southwest": {"lat": 23.7861216697085, "lng": 86.40509401970849}}}, "icon": "https://maps.gstatic.com/mapfiles/place_api/icons/v1/png_71/school-71.png", "name": "Little Hearts School", "photos": [{"height": 1080, "html_attributions": ["<a href=\"https://maps.google.com/maps/contrib/116009144172800383125\">Sukesh Kumar</a>"], "photo_reference": "ATtYBwLRE1uc2tAFpJQst63oYyXCjt_acfkhkRn-LlHC6FcRxLgQpUfU2FDGvU4O0vo-Q-ApYqkkBIW3x9sBh5QYFvnezUeX1K8sSR6sPMx7RFM5DJ9eYOVYUd9PBfg-4XOSbJ2LDP5P9P6tDdj4A5ZokQdgVH4GyXUkWRNlKXMZDK47ZPzK", "width": 1920}], "place_id": "ChIJP8_0gzmj9jkR22ipplcCyqc", "plus_code": {"compound_code": "QCQ4+2H Nayadih, Jharkhand, India", "global_code": "7MM8QCQ4+2H"}, "rating": 4, "reference": "ChIJP8_0gzmj9jkR22ipplcCyqc", "scope": "GOOGLE", "types": ["school", "point_of_interest", "establishment"], "user_ratings_total": 1, "vicinity": "National Highway 32, Jawahar Nagar, Nayadih"}, {"business_status": "OPERATIONAL", "geometry": {"location": {"lat": 23.7755075, "lng": 86.4176671}, "viewport": {"northeast": {"lat": 23.7768128302915, "lng": 86.4190158802915}, "southwest": {"lat": 23.7741148697085, "lng": 86.41631791970849}}}, "icon": "https://maps.gstatic.com/mapfiles/place_api/icons/v1/png_71/school-71.png", "name": "Primary School Chandmari", "place_id": "ChIJdRKQoCyj9jkRdd6dfE5ZwTM", "plus_code": {"compound_code": "QCG9+63 Dhanbad, Jharkhand, India", "global_code": "7MM8QCG9+63"}, "rating": 4.5, "reference": "ChIJdRKQoCyj9jkRdd6dfE5ZwTM", "scope": "GOOGLE", "types": ["primary_school", "school", "point_of_interest", "establishment"], "user_ratings_total": 2, "vicinity": "Purana Bazar Main Road, Anugrah Nagar, Dhanbad"}, {"business_status": "OPERATIONAL", "geometry": {"location": {"lat": 23.7864152, "lng": 86.4158241}, "viewport": {"northeast": {"lat": 23.7878061802915, "lng": 86.4171314302915}, "southwest": {"lat": 23.7851082197085, "lng": 86.4144334697085}}}, "icon": "https://maps.gstatic.com/mapfiles/place_api/icons/v1/png_71/school-71.png", "name": "Nanhe Kadam", "place_id": "ChIJV_9xmzOj9jkRYsSpzN9wXcs", "plus_code": {"compound_code": "QCP8+H8 Dhanbad, Jharkhand, India", "global_code": "7MM8QCP8+H8"}, "rating": 3.6, "reference": "ChIJV_9xmzOj9jkRYsSpzN9wXcs", "scope": "GOOGLE", "types": ["school", "point_of_interest", "establishment"], "user_ratings_total": 5, "vicinity": "Shastri Nagar West, Dhanbad"}, {"business_status": "OPERATIONAL", "geometry": {"location": {"lat": 23.7885297, "lng": 86.4098204}, "viewport": {"northeast": {"lat": 23.7898813802915, "lng": 86.4111515302915}, "southwest": {"lat": 23.7871834197085, "lng": 86.4084535697085}}}, "icon": "https://maps.gstatic.com/mapfiles/place_api/icons/v1/png_71/school-71.png", "name": "LITTLE KIDS PLAY SCHOOL MATKURIA", "place_id": "ChIJQ_-5pxWj9jkR7g27KSZdIXg", "plus_code": {"compound_code": "QCQ5+CW Matkuria, Jharkhand, India", "global_code": "7MM8QCQ5+CW"}, "reference": "ChIJQ_-5pxWj9jkR7g27KSZdIXg", "scope": "GOOGLE", "types": ["school", "point_of_interest", "establishment"], "vicinity": "Matkuria"}, {"business_status": "OPERATIONAL", "geometry": {"location": {"lat": 23.7762982, "lng": 86.4185492}, "viewport": {"northeast": {"lat": 23.7776047302915, "lng": 86.4200235802915}, "southwest": {"lat": 23.7749067697085, "lng": 86.41732561970849}}}, "icon": "https://maps.gstatic.com/mapfiles/place_api/icons/v1/png_71/school-71.png", "name": "GVTC, Bastacolla", "place_id": "ChIJA8Rmsiyj9jkRtLdSnLg2T4Q", "plus_code": {"compound_code": "QCG9+GC Dhanbad, Jharkhand, India", "global_code": "7MM8QCG9+GC"}, "rating": 4, "reference": "ChIJA8Rmsiyj9jkRtLdSnLg2T4Q", "scope": "GOOGLE", "types": ["school", "point_of_interest", "establishment"], "user_ratings_total": 1, "vicinity": "Unnamed Road, Anugrah Nagar, Dhanbad"}, {"business_status": "OPERATIONAL", "geometry": {"location": {"lat": 23.7888699, "lng": 86.40965399999999}, "viewport": {"northeast": {"lat": 23.7902052302915, "lng": 86.4110882302915}, "southwest": {"lat": 23.7875072697085, "lng": 86.40839026970848}}}, "icon": "https://maps.gstatic.com/mapfiles/place_api/icons/v1/png_71/school-71.png", "name": "Little Kids Heart Play School", "place_id": "ChIJd1pTLBaj9jkRCr2cdkg4miM", "plus_code": {"compound_code": "QCQ5+GV Matkuria, Jharkhand, India", "global_code": "7MM8QCQ5+GV"}, "rating": 5, "reference": "ChIJd1pTLBaj9jkRCr2cdkg4miM", "scope": "GOOGLE", "types": ["school", "point_of_interest", "establishment"], "user_ratings_total": 1, "vicinity": "behind Reliable Showroom, Matkuria"}], "status": "OK"}