{"html_attributions": [], "results": [{"business_status": "OPERATIONAL", "geometry": {"location": {"lat": 23.652453, "lng": 86.422421}, "viewport": {"northeast": {"lat": 23.6538636802915, "lng": 86.4237684302915}, "southwest": {"lat": 23.65116571970849, "lng": 86.42107046970848}}}, "icon": "https://maps.gstatic.com/mapfiles/place_api/icons/v1/png_71/school-71.png", "name": "Gorigram", "opening_hours": {"open_now": false}, "photos": [{"height": 2339, "html_attributions": ["<a href=\"https://maps.google.com/maps/contrib/118433209741837742785\">M j BHOJUDIH</a>"], "photo_reference": "ATtYBwJ06I0c45h2GCQwitx_DLlO37dBBJbvHXOqE2lKMeyNAxgj_AcGxBIX1WyjdV66XMO-pyX6jb00XtmOnIhGUV1mx_8m2WSJJcGiqSNr-WfXUNL6PPG4lnv9RCBAofr09BKyT9EOxpuDCpBtEe9f5k2b0MfMvDC18YweETOJ5VQ1Pik_", "width": 1944}], "place_id": "ChIJI51Y6mCX9jkRFZZj8hSUvZU", "plus_code": {"compound_code": "MC2C+XX Gorigram, Jharkhand, India", "global_code": "7MM8MC2C+XX"}, "reference": "ChIJI51Y6mCX9jkRFZZj8hSUvZU", "scope": "GOOGLE", "types": ["school", "point_of_interest", "establishment"], "vicinity": "Gorigram"}, {"business_status": "OPERATIONAL", "geometry": {"location": {"lat": 23.670183, "lng": 86.4324877}, "viewport": {"northeast": {"lat": 23.67148078029151, "lng": 86.43382198029151}, "southwest": {"lat": 23.6687828197085, "lng": 86.43112401970849}}}, "icon": "https://maps.gstatic.com/mapfiles/place_api/icons/v1/png_71/school-71.png", "name": "KDM Public School", "photos": [{"height": 3120, "html_attributions": ["<a href=\"https://maps.google.com/maps/contrib/105804341503129550022\">Tekla Nikhil</a>"], "photo_reference": "ATtYBwLuzDlBDmovELTQuwGoSq6cAtwv7-uMp1RaedEjV5K6EJ6Aph2yJZk_ffZNPo4V-lLX4bovh3EAbrvHJvIpg3apTnrYnRfJ9JRbxRUVS6Z8H_xmfi4MEaqNtfxt0iuTEPN9Rk6DVKBqMQ991Faz10Q-7QscX6GQhWIwBkUoqAFwe9cN", "width": 4160}], "place_id": "ChIJtUWtwXaX9jkR2REB7Js9fUA", "plus_code": {"compound_code": "MCCJ+3X Pathardih, Jharkhand, India", "global_code": "7MM8MCCJ+3X"}, "rating": 4.2, "reference": "ChIJtUWtwXaX9jkR2REB7Js9fUA", "scope": "GOOGLE", "types": ["school", "point_of_interest", "establishment"], "user_ratings_total": 20, "vicinity": "Sudamdih, Pathardih"}, {"business_status": "OPERATIONAL", "geometry": {"location": {"lat": 23.6517449, "lng": 86.42298459999999}, "viewport": {"northeast": {"lat": 23.65308943029151, "lng": 86.4242637302915}, "southwest": {"lat": 23.6503914697085, "lng": 86.4215657697085}}}, "icon": "https://maps.gstatic.com/mapfiles/place_api/icons/v1/png_71/school-71.png", "name": "Middle School Gourigram", "opening_hours": {"open_now": false}, "place_id": "ChIJD_eru2CX9jkRyoOeqIgW_Os", "plus_code": {"compound_code": "MC2F+M5 Gorigram, Jharkhand, India", "global_code": "7MM8MC2F+M5"}, "rating": 4.3, "reference": "ChIJD_eru2CX9jkRyoOeqIgW_Os", "scope": "GOOGLE", "types": ["school", "point_of_interest", "establishment"], "user_ratings_total": 3, "vicinity": "Gorigram"}, {"business_status": "OPERATIONAL", "geometry": {"location": {"lat": 23.6708812, "lng": 86.4311018}, "viewport": {"northeast": {"lat": 23.6723658302915, "lng": 86.4324749302915}, "southwest": {"lat": 23.66966786970849, "lng": 86.42977696970848}}}, "icon": "https://maps.gstatic.com/mapfiles/place_api/icons/v1/png_71/school-71.png", "name": "Commerce Classes", "photos": [{"height": 1364, "html_attributions": ["<a href=\"https://maps.google.com/maps/contrib/102711053978625338788\">Nitish Kumar</a>"], "photo_reference": "ATtYBwIGkGeybmYusTyxL_orDuXC_xgdgx8FHPI1asfOBOXdnc0AeAV5STHlefakhCScys7SupOfqE8gW-6blS8q1NR5QoaBDn7GdpkQHVP_8DChAI2oK_gBs5azx79KMEB2D4VRrU4lnEd36PI9rf9FumJgawj1PcEKKwjBO3sFNQXIw21d", "width": 1024}], "place_id": "ChIJpYV6GSuX9jkR56aF3TV-PKM", "plus_code": {"compound_code": "MCCJ+9C Pathardih, Jharkhand, India", "global_code": "7MM8MCCJ+9C"}, "rating": 5, "reference": "ChIJpYV6GSuX9jkR56aF3TV-PKM", "scope": "GOOGLE", "types": ["school", "point_of_interest", "establishment"], "user_ratings_total": 2, "vicinity": "Unnamed Road, Sudamdih, Pathardih"}, {"business_status": "OPERATIONAL", "geometry": {"location": {"lat": 23.66926, "lng": 86.42356749999999}, "viewport": {"northeast": {"lat": 23.67062888029151, "lng": 86.4249047302915}, "southwest": {"lat": 23.6679309197085, "lng": 86.4222067697085}}}, "icon": "https://maps.gstatic.com/mapfiles/place_api/icons/v1/png_71/school-71.png", "name": "Plus Point Computer Center", "place_id": "ChIJHzC5rX6X9jkR11UHyRS9Xm4", "plus_code": {"compound_code": "MC9F+PC Pathardih, Jharkhand, India", "global_code": "7MM8MC9F+PC"}, "reference": "ChIJHzC5rX6X9jkR11UHyRS9Xm4", "scope": "GOOGLE", "types": ["school", "point_of_interest", "establishment"], "vicinity": "Sudamdih, Pathardih"}, {"business_status": "OPERATIONAL", "geometry": {"location": {"lat": 23.6489243, "lng": 86.4301069}, "viewport": {"northeast": {"lat": 23.65030598029151, "lng": 86.4314208302915}, "southwest": {"lat": 23.6476080197085, "lng": 86.4287228697085}}}, "icon": "https://maps.gstatic.com/mapfiles/place_api/icons/v1/png_71/school-71.png", "name": "New Primary School Naktidih", "opening_hours": {"open_now": false}, "place_id": "ChIJiyl8wkKX9jkRZJD8VW16CE4", "plus_code": {"compound_code": "JCXJ+H2 Gorigram, Jharkhand, India", "global_code": "7MM8JCXJ+H2"}, "rating": 5, "reference": "ChIJiyl8wkKX9jkRZJD8VW16CE4", "scope": "GOOGLE", "types": ["primary_school", "school", "point_of_interest", "establishment"], "user_ratings_total": 1, "vicinity": "Gorigram"}], "status": "OK"}