{"html_attributions": [], "results": [{"business_status": "OPERATIONAL", "geometry": {"location": {"lat": 23.6708812, "lng": 86.4311018}, "viewport": {"northeast": {"lat": 23.6723658302915, "lng": 86.4324749302915}, "southwest": {"lat": 23.66966786970849, "lng": 86.42977696970848}}}, "icon": "https://maps.gstatic.com/mapfiles/place_api/icons/v1/png_71/school-71.png", "name": "Commerce Classes", "photos": [{"height": 1364, "html_attributions": ["<a href=\"https://maps.google.com/maps/contrib/102711053978625338788\">Nitish Kumar</a>"], "photo_reference": "ATtYBwICnen8nUk3-yiBng5ZQozTo_cMe_c5fWUTr1bW6s7HjEa95PhqVB-2zTTrPXxrYyDhVvXADyLmZXyQxc-RRSBnACLgqD_Cg58oevu2mqWFV5TwLrHvJeGrbCF3YmfpG3ijXvcdR_N3q2LoeYiYKrzsVHW1h5Xx2xdB7UXBTnKe8cMJ", "width": 1024}], "place_id": "ChIJpYV6GSuX9jkR56aF3TV-PKM", "plus_code": {"compound_code": "MCCJ+9C Pathardih, Jharkhand, India", "global_code": "7MM8MCCJ+9C"}, "rating": 5, "reference": "ChIJpYV6GSuX9jkR56aF3TV-PKM", "scope": "GOOGLE", "types": ["school", "point_of_interest", "establishment"], "user_ratings_total": 2, "vicinity": "Unnamed Road, Sudamdih, Pathardih"}, {"business_status": "OPERATIONAL", "geometry": {"location": {"lat": 23.6877195, "lng": 86.4232813}, "viewport": {"northeast": {"lat": 23.6890659302915, "lng": 86.4246333802915}, "southwest": {"lat": 23.6863679697085, "lng": 86.42193541970849}}}, "icon": "https://maps.gstatic.com/mapfiles/place_api/icons/v1/png_71/school-71.png", "name": "D.A.V. MODEL SCHOOL", "opening_hours": {"open_now": true}, "place_id": "ChIJl0qRIYqX9jkRXGRrRX9QD5g", "plus_code": {"compound_code": "MCQF+38 Pathardih, Jharkhand, India", "global_code": "7MM8MCQF+38"}, "reference": "ChIJl0qRIYqX9jkRXGRrRX9QD5g", "scope": "GOOGLE", "types": ["school", "point_of_interest", "establishment"], "vicinity": "Unnamed Road, Pathardih"}, {"business_status": "OPERATIONAL", "geometry": {"location": {"lat": 23.670183, "lng": 86.4324877}, "viewport": {"northeast": {"lat": 23.67148078029151, "lng": 86.43382198029151}, "southwest": {"lat": 23.6687828197085, "lng": 86.43112401970849}}}, "icon": "https://maps.gstatic.com/mapfiles/place_api/icons/v1/png_71/school-71.png", "name": "KDM Public School", "photos": [{"height": 3120, "html_attributions": ["<a href=\"https://maps.google.com/maps/contrib/105804341503129550022\">Tekla Nikhil</a>"], "photo_reference": "ATtYBwLg64qIuLYSSH_2dyrftw-Ladymf_SvgvW8zhKvziyIZbOSzLP7rUsFES5suHW-Jxc9Q842rewS6gk8d4hhrPwfeuUb5IN1FcNryIjyujIhf6kSx8VLIY2V7j_OtUR5cmmb3XaaAkCH_m3i32A2pqDGXZWm0WC5hU6IxMNfrr5d40AW", "width": 4160}], "place_id": "ChIJtUWtwXaX9jkR2REB7Js9fUA", "plus_code": {"compound_code": "MCCJ+3X Pathardih, Jharkhand, India", "global_code": "7MM8MCCJ+3X"}, "rating": 4.2, "reference": "ChIJtUWtwXaX9jkR2REB7Js9fUA", "scope": "GOOGLE", "types": ["school", "point_of_interest", "establishment"], "user_ratings_total": 20, "vicinity": "Sudamdih, Pathardih"}, {"business_status": "OPERATIONAL", "geometry": {"location": {"lat": 23.669579, "lng": 86.43187909999999}, "viewport": {"northeast": {"lat": 23.67097058029151, "lng": 86.43328098029149}, "southwest": {"lat": 23.6682726197085, "lng": 86.43058301970848}}}, "icon": "https://maps.gstatic.com/mapfiles/place_api/icons/v1/png_71/school-71.png", "name": "Kids Angel Public School Patherdih", "opening_hours": {"open_now": true}, "photos": [{"height": 1840, "html_attributions": ["<a href=\"https://maps.google.com/maps/contrib/106404946605500972797\">Vikash Srivastav</a>"], "photo_reference": "ATtYBwKbZo8DKSf2U5NaNhs-JL5V6l6kk6-8phWflIvOrcmY1qqCQfKZ3zK05vxu0LThIGENjMqJAk89k7-qgPN83n7fHx741Bn16nMJkItwRVPNAuUnpDLdXGgERuuje99i7Er9d9zYwPsMG8-MYQT_GKkLhoH7lAp-MZVweEvO_xI6jkX6", "width": 3264}], "place_id": "ChIJLymC2naX9jkR_eyTk4SfWjQ", "plus_code": {"compound_code": "MC9J+RQ Pathardih, Jharkhand, India", "global_code": "7MM8MC9J+RQ"}, "rating": 4.9, "reference": "ChIJLymC2naX9jkR_eyTk4SfWjQ", "scope": "GOOGLE", "types": ["school", "point_of_interest", "establishment"], "user_ratings_total": 7, "vicinity": "DVC Patherdih Colony, Sudamdih, Pathardih"}, {"business_status": "OPERATIONAL", "geometry": {"location": {"lat": 23.6881601, "lng": 86.422597}, "viewport": {"northeast": {"lat": 23.68952223029151, "lng": 86.4239232302915}, "southwest": {"lat": 23.6868242697085, "lng": 86.4212252697085}}}, "icon": "https://maps.gstatic.com/mapfiles/place_api/icons/v1/png_71/school-71.png", "name": "Durga Mandir", "photos": [{"height": 3264, "html_attributions": ["<a href=\"https://maps.google.com/maps/contrib/111629474328977876267\">Sanjay Saw</a>"], "photo_reference": "ATtYBwJK_dmvaUNwqfQ6wxEWOCjfoZj10jf7gxutTuir6RitC-BuANho9CtraJByf4MtoPxqkyNuefrtUdXIDg_SoNSX9SkyHu9jXVRELS5CtgiVqdZCNpCPTmT31dxOR0jq1xmGxAN4jtvjlAUmOmedxuhochLswK3vVaFHARbtoux05abh", "width": 2448}], "place_id": "ChIJRdTHwYiX9jkR7zZBrezi_9o", "plus_code": {"compound_code": "MCQF+72 Pathardih, Jharkhand, India", "global_code": "7MM8MCQF+72"}, "rating": 4, "reference": "ChIJRdTHwYiX9jkR7zZBrezi_9o", "scope": "GOOGLE", "types": ["school", "point_of_interest", "establishment"], "user_ratings_total": 2, "vicinity": "nunudih durga mandir, Basti"}, {"business_status": "OPERATIONAL", "geometry": {"location": {"lat": 23.6693413, "lng": 86.43231999999999}, "viewport": {"northeast": {"lat": 23.6706909802915, "lng": 86.4336671802915}, "southwest": {"lat": 23.6679930197085, "lng": 86.43096921970847}}}, "icon": "https://maps.gstatic.com/mapfiles/place_api/icons/v1/png_71/school-71.png", "name": "Kids Angle Public School", "photos": [{"height": 1080, "html_attributions": ["<a href=\"https://maps.google.com/maps/contrib/109801290637032251099\">Mukul kumar Das</a>"], "photo_reference": "ATtYBwLf_de8Q4RuNagETBqw_uFmqwX7ZFp5-mNBrK8R0rMH8YgQHYtZQ8ulZAFZZtqyTvsdjT8gX2eEsTnRQrz1NCwkGoCB_vZeJSNY5ZkNycHN_MjbqdyvijC5qycJ09X4jFvn4jq_3g4YgJ3mqlNGMgKRGZk_X9XcCPG3Qkp7BHSa-91s", "width": 1920}], "place_id": "ChIJQb3NznaX9jkRgrIib3eiCdY", "plus_code": {"compound_code": "MC9J+PW Pathardih, Jharkhand, India", "global_code": "7MM8MC9J+PW"}, "rating": 4, "reference": "ChIJQb3NznaX9jkRgrIib3eiCdY", "scope": "GOOGLE", "types": ["school", "point_of_interest", "establishment"], "user_ratings_total": 3, "vicinity": "ajmera, 828126, Sudamdih, Pathardih"}, {"business_status": "OPERATIONAL", "geometry": {"location": {"lat": 23.6685512, "lng": 86.43227309999999}, "viewport": {"northeast": {"lat": 23.6699125802915, "lng": 86.4335376302915}, "southwest": {"lat": 23.6672146197085, "lng": 86.43083966970849}}}, "icon": "https://maps.gstatic.com/mapfiles/place_api/icons/v1/png_71/school-71.png", "name": "Binay Decorator & Catterer", "place_id": "ChIJCWDrM3GX9jkRyyN_gxxOU1g", "plus_code": {"compound_code": "MC9J+CW Pathardih, Jharkhand, India", "global_code": "7MM8MC9J+CW"}, "reference": "ChIJCWDrM3GX9jkRyyN_gxxOU1g", "scope": "GOOGLE", "types": ["school", "point_of_interest", "establishment"], "vicinity": "ajmaraRoad, Sudamdih, Pathardih"}, {"business_status": "OPERATIONAL", "geometry": {"location": {"lat": 23.679778, "lng": 86.4172755}, "viewport": {"northeast": {"lat": 23.68124823029151, "lng": 86.4187534802915}, "southwest": {"lat": 23.6785502697085, "lng": 86.4160555197085}}}, "icon": "https://maps.gstatic.com/mapfiles/place_api/icons/v1/png_71/school-71.png", "name": "Triloknath School", "photos": [{"height": 4128, "html_attributions": ["<a href=\"https://maps.google.com/maps/contrib/103939264166745302314\">Somnath Biswas</a>"], "photo_reference": "ATtYBwIEHUjMGuY7-EgRKJE1zXS7_1cZtc6pceAN8nngiJow3KqernBgm_zl4h7V_tFVKVGbGA1mNlsDzmg0EODW1V8Pnv_W_YjswTZtw-0dN86AfmDzXy4047O3nqTUQiKVTnAg-YUZIvB-omk_fr6dpqyONHGrSNUKqT21rdrwpJGhJBC2", "width": 3096}], "place_id": "ChIJ-yIFIyqY9jkRfcoeKAL1m4o", "plus_code": {"compound_code": "MCH8+WW Pathardih, Jharkhand, India", "global_code": "7MM8MCH8+WW"}, "rating": 2, "reference": "ChIJ-yIFIyqY9jkRfcoeKAL1m4o", "scope": "GOOGLE", "types": ["school", "point_of_interest", "establishment"], "user_ratings_total": 2, "vicinity": "DOCP Colony, Pathardih"}, {"business_status": "OPERATIONAL", "geometry": {"location": {"lat": 23.6688732, "lng": 86.433914}, "viewport": {"northeast": {"lat": 23.67021963029151, "lng": 86.4352734302915}, "southwest": {"lat": 23.6675216697085, "lng": 86.4325754697085}}}, "icon": "https://maps.gstatic.com/mapfiles/place_api/icons/v1/png_71/school-71.png", "name": "Kanchan xalxo", "place_id": "ChIJSS0OSe6X9jkRW3Yq-AbotkU", "plus_code": {"compound_code": "MC9M+GH Pathardih, Jharkhand, India", "global_code": "7MM8MC9M+GH"}, "reference": "ChIJSS0OSe6X9jkRW3Yq-AbotkU", "scope": "GOOGLE", "types": ["school", "point_of_interest", "establishment"], "vicinity": "Dav public school koyla nager"}, {"business_status": "OPERATIONAL", "geometry": {"location": {"lat": 23.6688732, "lng": 86.433914}, "viewport": {"northeast": {"lat": 23.67021963029151, "lng": 86.4352734302915}, "southwest": {"lat": 23.6675216697085, "lng": 86.4325754697085}}}, "icon": "https://maps.gstatic.com/mapfiles/place_api/icons/v1/png_71/school-71.png", "name": "St.Thomas Academy Chitahi(Bit Sindri)", "place_id": "ChIJ_____3OX9jkRCFVaDEYRLDg", "plus_code": {"compound_code": "MC9M+GH Pathardih, Jharkhand, India", "global_code": "7MM8MC9M+GH"}, "reference": "ChIJ_____3OX9jkRCFVaDEYRLDg", "scope": "GOOGLE", "types": ["school", "point_of_interest", "establishment"], "vicinity": "Sudamdih, Pathardih"}, {"business_status": "OPERATIONAL", "geometry": {"location": {"lat": 23.6710781, "lng": 86.4215885}, "viewport": {"northeast": {"lat": 23.6724142302915, "lng": 86.4228578302915}, "southwest": {"lat": 23.6697162697085, "lng": 86.42015986970848}}}, "icon": "https://maps.gstatic.com/mapfiles/place_api/icons/v1/png_71/school-71.png", "name": "Vidya Vihar High School", "opening_hours": {"open_now": false}, "photos": [{"height": 1080, "html_attributions": ["<a href=\"https://maps.google.com/maps/contrib/114994888214929596864\">Mitesh Rawani</a>"], "photo_reference": "ATtYBwLGQO7zu7ZilaTL9cHDOCHpwKvMgMumdKjvmNUJQYWfThxRMr8OyrnC_lKLnFrE_BmQPXDEkhqJnP4A4vMn2Ow6wzwHyXBMJzGx8j1Pz1BqWFwxz8-C-8LXixwjwp5ndzsP5tlOPpBbvC-hK8u3dMGl3M-BOxl7Asg-BoJTMgiZw1ZV", "width": 1920}], "place_id": "ChIJH9ne-36X9jkRwE7V7S9C2vA", "plus_code": {"compound_code": "MCCC+CJ Pathardih, Jharkhand, India", "global_code": "7MM8MCCC+CJ"}, "rating": 4, "reference": "ChIJH9ne-36X9jkRwE7V7S9C2vA", "scope": "GOOGLE", "types": ["school", "point_of_interest", "establishment"], "user_ratings_total": 9, "vicinity": "828126, BCCL Main Colony, Sudamdih, Pathardih"}, {"business_status": "OPERATIONAL", "geometry": {"location": {"lat": 23.6684395, "lng": 86.4262609}, "viewport": {"northeast": {"lat": 23.6698428302915, "lng": 86.4276244302915}, "southwest": {"lat": 23.6671448697085, "lng": 86.4249264697085}}}, "icon": "https://maps.gstatic.com/mapfiles/place_api/icons/v1/png_71/school-71.png", "name": "Modern Paradise High School...", "photos": [{"height": 2048, "html_attributions": ["<a href=\"https://maps.google.com/maps/contrib/112503765291537996261\">Amrit Shrawan Chandrawanshi</a>"], "photo_reference": "ATtYBwIKVokCcjvkHJbMAkVx-_N6FBrqidnZUzNB8OUeJdJjInEQzF707oGu54Mh4gVpc6jxy9MhvOyn0Lez-pCCdCq7ItasRTPhbN1zT6iST8gBXl0T1gpgozzLWb1NoLZxja9yO2Njvp12dMTshn6wg9T3H6ZZN-9RW_YgbPbmjoIJOi94", "width": 1536}], "place_id": "ChIJtVrB1HuX9jkRd2fjYmxedWg", "plus_code": {"compound_code": "MC9G+9G Pathardih, Jharkhand, India", "global_code": "7MM8MC9G+9G"}, "reference": "ChIJtVrB1HuX9jkRd2fjYmxedWg", "scope": "GOOGLE", "types": ["school", "point_of_interest", "establishment"], "vicinity": "Sudamdih, Pathardih"}, {"business_status": "OPERATIONAL", "geometry": {"location": {"lat": 23.6768143, "lng": 86.41729600000001}, "viewport": {"northeast": {"lat": 23.6781997302915, "lng": 86.4186767802915}, "southwest": {"lat": 23.6755017697085, "lng": 86.4159788197085}}}, "icon": "https://maps.gstatic.com/mapfiles/place_api/icons/v1/png_71/school-71.png", "name": "NBPS", "place_id": "ChIJQ18D0YOZ9jkRU94356NRJyc", "plus_code": {"compound_code": "MCG8+PW Pathardih, Jharkhand, India", "global_code": "7MM8MCG8+PW"}, "reference": "ChIJQ18D0YOZ9jkRU94356NRJyc", "scope": "GOOGLE", "types": ["school", "point_of_interest", "establishment"], "vicinity": "DOCP Colony, Pathardih"}, {"business_status": "OPERATIONAL", "geometry": {"location": {"lat": 23.66926, "lng": 86.42356749999999}, "viewport": {"northeast": {"lat": 23.67062888029151, "lng": 86.4249047302915}, "southwest": {"lat": 23.6679309197085, "lng": 86.4222067697085}}}, "icon": "https://maps.gstatic.com/mapfiles/place_api/icons/v1/png_71/school-71.png", "name": "Plus Point Computer Center", "place_id": "ChIJHzC5rX6X9jkR11UHyRS9Xm4", "plus_code": {"compound_code": "MC9F+PC Pathardih, Jharkhand, India", "global_code": "7MM8MC9F+PC"}, "reference": "ChIJHzC5rX6X9jkR11UHyRS9Xm4", "scope": "GOOGLE", "types": ["school", "point_of_interest", "establishment"], "vicinity": "Sudamdih, Pathardih"}, {"business_status": "OPERATIONAL", "geometry": {"location": {"lat": 23.68127939999999, "lng": 86.4163971}, "viewport": {"northeast": {"lat": 23.6829133802915, "lng": 86.41774153029151}, "southwest": {"lat": 23.68021541970849, "lng": 86.4150435697085}}}, "icon": "https://maps.gstatic.com/mapfiles/place_api/icons/v1/png_71/school-71.png", "name": "Dav Model School Cfri", "place_id": "ChIJsR_4nCmY9jkRN_YOaR6QH5o", "plus_code": {"compound_code": "MCJ8+GH Pathardih, Jharkhand, India", "global_code": "7MM8MCJ8+GH"}, "rating": 1, "reference": "ChIJsR_4nCmY9jkRN_YOaR6QH5o", "scope": "GOOGLE", "types": ["school", "point_of_interest", "establishment"], "user_ratings_total": 1, "vicinity": "Unnamed Road, Mahulbani, Pathardih"}, {"business_status": "OPERATIONAL", "geometry": {"location": {"lat": 23.6682832, "lng": 86.4250479}, "viewport": {"northeast": {"lat": 23.6696305302915, "lng": 86.4263967302915}, "southwest": {"lat": 23.6669325697085, "lng": 86.4236987697085}}}, "icon": "https://maps.gstatic.com/mapfiles/place_api/icons/v1/png_71/school-71.png", "name": "middle school sudamdih,jharia", "place_id": "ChIJ9XHnTOqX9jkRUF0bNyRrqdw", "plus_code": {"compound_code": "MC9G+82 Pathardih, Jharkhand, India", "global_code": "7MM8MC9G+82"}, "reference": "ChIJ9XHnTOqX9jkRUF0bNyRrqdw", "scope": "GOOGLE", "types": ["school", "point_of_interest", "establishment"], "vicinity": "Deuli - Khairpal Road, Sudamdih, Pathardih"}, {"business_status": "OPERATIONAL", "geometry": {"location": {"lat": 23.6889821, "lng": 86.4397475}, "viewport": {"northeast": {"lat": 23.69035278029151, "lng": 86.4411561802915}, "southwest": {"lat": 23.6876548197085, "lng": 86.4384582197085}}}, "icon": "https://maps.gstatic.com/mapfiles/place_api/icons/v1/png_71/school-71.png", "name": "Aanganbari Kendra Jogankocha", "place_id": "ChIJzT0xbr2X9jkROO7rKZDefHc", "plus_code": {"compound_code": "MCQQ+HV Pathardih, Jharkhand, India", "global_code": "7MM8MCQQ+HV"}, "reference": "ChIJzT0xbr2X9jkROO7rKZDefHc", "scope": "GOOGLE", "types": ["school", "point_of_interest", "establishment"], "vicinity": ""}], "status": "OK"}