{"html_attributions": [], "next_page_token": "ATtYBwIz641B1Ky4GFVlJcRzxEonJ3XhncniuWWFJS13cx9wJ-yTvvlfL4dd-xem97Og5DxpQfrDUqD8CAjdHEiafq7MXSyvhJ3BW6S4xuq-xpUeaVttBfdA8LqRZvIjmP6b1vXKC9UeowkuL-Amh9mCJyIuj1MRWk7bV2JgProSSPyCPZcAa0lRlx6d9ry7MtCltddtQlsYFxMjP4KNkWYahv1vFWmh6KLR3ui9gWuK1GMiN2ab_59sqvLO-vt_TWP8pF48r2yJLGA7S5yY4MiJf5-npoCC0h0dN6u-hbZJ2KTbA1IkXpwrC2gNmI1bDrjQBrO3GmlRGor6R8-ia6EBPYv-0DcW1khvZl7oCwlW8OWVNAtGc8ZzEtVmmkux3zCev7oGJYRbMA47zKALtSIHS36KXJf1_VVyAHMRhhW7Q7zej-NRQQA", "results": [{"business_status": "OPERATIONAL", "geometry": {"location": {"lat": 23.79601689999999, "lng": 86.4245239}, "viewport": {"northeast": {"lat": 23.7973305302915, "lng": 86.4258484802915}, "southwest": {"lat": 23.7946325697085, "lng": 86.4231505197085}}}, "icon": "https://maps.gstatic.com/mapfiles/place_api/icons/v1/png_71/school-71.png", "name": "ATP School", "place_id": "ChIJ19OhZLa89jkR_rq9YlfyeLM", "plus_code": {"compound_code": "QCWF+CR Dhanbad, Jharkhand, India", "global_code": "7MM8QCWF+CR"}, "reference": "ChIJ19OhZLa89jkR_rq9YlfyeLM", "scope": "GOOGLE", "types": ["school", "point_of_interest", "establishment"], "vicinity": "Rangatand, Dhanbad"}, {"business_status": "OPERATIONAL", "geometry": {"location": {"lat": 23.8015016, "lng": 86.4291064}, "viewport": {"northeast": {"lat": 23.8027924802915, "lng": 86.4304011302915}, "southwest": {"lat": 23.8000945197085, "lng": 86.4277031697085}}}, "icon": "https://maps.gstatic.com/mapfiles/place_api/icons/v1/png_71/school-71.png", "name": "Jeevan Jyoti School For Special Children", "photos": [{"height": 1920, "html_attributions": ["<a href=\"https://maps.google.com/maps/contrib/101939701173739809885\">Jeevan Jyoti School For Special Children</a>"], "photo_reference": "ATtYBwJSohmPjOX6P9GSnZMeuk31mQYWvPbDgrVJM4Z8iR3-lW-LPTtkg4T4mqq79CrK-kXXhU68hw2bHbwjjWW8eeBmghwjoUrpG_Z6M0yYtAZL06BI3SQfoV5xBfkFQsMl_k8AVF_xqqIcIIR9WT_pS0PGU3iB2kTZyY_FOsyt_cstIbp6", "width": 2560}], "place_id": "ChIJQ6YPnbC89jkR1T2JziuZEeI", "plus_code": {"compound_code": "RC2H+JJ Dhanbad, Jharkhand, India", "global_code": "7MM8RC2H+JJ"}, "rating": 4.4, "reference": "ChIJQ6YPnbC89jkR1T2JziuZEeI", "scope": "GOOGLE", "types": ["school", "point_of_interest", "establishment"], "user_ratings_total": 11, "vicinity": "Zilla Parishad Building Near Bekarbandh Talab, Bekarbandh, Dhanbad"}, {"business_status": "OPERATIONAL", "geometry": {"location": {"lat": 23.7956531, "lng": 86.43038589999999}, "viewport": {"northeast": {"lat": 23.7970128802915, "lng": 86.4317063302915}, "southwest": {"lat": 23.7943149197085, "lng": 86.4290083697085}}}, "icon": "https://maps.gstatic.com/mapfiles/place_api/icons/v1/png_71/school-71.png", "name": "D.A.V Public School", "photos": [{"height": 811, "html_attributions": ["<a href=\"https://maps.google.com/maps/contrib/115371308408107818320\">Beethika Deka</a>"], "photo_reference": "ATtYBwK6iLHl8CK-t5dHEvBJ02HWmcbrX5J9GextSO49FopOZ3AE0KQbqizQlKLZfaBfJsbtjKHy0zTcfBjC3WhoRHwgnJsw-wUyqYrbEx_Yq9Hu4TwKerPm7IjiFwLhSs0b44HCUMFLXcIBUXQ50Ijp6ZLioA082ahj8XaoQW7yP0N-rBC-", "width": 1080}], "place_id": "ChIJJQBlRri89jkRpR5XWAM3Oko", "rating": 4, "reference": "ChIJJQBlRri89jkRpR5XWAM3Oko", "scope": "GOOGLE", "types": ["school", "point_of_interest", "establishment"], "user_ratings_total": 6, "vicinity": "Sindri - Dhanbad Main Road, Mukunda, Pandey Muhalla, Dhanbad"}, {"business_status": "OPERATIONAL", "geometry": {"location": {"lat": 23.7956531, "lng": 86.43038589999999}, "viewport": {"northeast": {"lat": 23.7970128802915, "lng": 86.4317063302915}, "southwest": {"lat": 23.7943149197085, "lng": 86.4290083697085}}}, "icon": "https://maps.gstatic.com/mapfiles/place_api/icons/v1/png_71/school-71.png", "name": "Prayaas India", "place_id": "ChIJJQBlRri89jkRLZRMWovsAVU", "reference": "ChIJJQBlRri89jkRLZRMWovsAVU", "scope": "GOOGLE", "types": ["school", "point_of_interest", "establishment"], "vicinity": "Dhanbad"}, {"business_status": "OPERATIONAL", "geometry": {"location": {"lat": 23.7956531, "lng": 86.43038589999999}, "viewport": {"northeast": {"lat": 23.7970128802915, "lng": 86.4317063302915}, "southwest": {"lat": 23.7943149197085, "lng": 86.4290083697085}}}, "icon": "https://maps.gstatic.com/mapfiles/place_api/icons/v1/png_71/school-71.png", "name": "Sapphire Kids Play School", "place_id": "ChIJJQBlRri89jkRrss3Lrd16Uk", "reference": "ChIJJQBlRri89jkRrss3Lrd16Uk", "scope": "GOOGLE", "types": ["school", "point_of_interest", "establishment"], "vicinity": "Sindri - Dhanbad Main Road, Mukunda, Pandey Muhalla, Dhanbad"}, {"business_status": "OPERATIONAL", "geometry": {"location": {"lat": 23.79638539999999, "lng": 86.4340611}, "viewport": {"northeast": {"lat": 23.7977993302915, "lng": 86.4353702802915}, "southwest": {"lat": 23.79510136970849, "lng": 86.43267231970849}}}, "icon": "https://maps.gstatic.com/mapfiles/place_api/icons/v1/png_71/school-71.png", "name": "PHOOL MALA", "opening_hours": {"open_now": true}, "photos": [{"height": 588, "html_attributions": ["<a href=\"https://maps.google.com/maps/contrib/106528683985947997731\">Rajesh Kumar</a>"], "photo_reference": "ATtYBwLo8GwwFcOeUDFU6765Sk1X3CLTHpeyzrB_a_26y9D5mkPqAyJ3ALIPsxxFiscBhMUOa3YH6QQtR5pQk2W5HshBBMRzvE5924aP3Sh5dmP_0YFxVax80Ka53ehaCrU6nnsdx2DGMKAlk7up3aSFpWnNOduaQmoKfmJdAcrFtVpe9AzP", "width": 1280}], "place_id": "ChIJhQYJK7-89jkRFARcXr9VZA0", "plus_code": {"compound_code": "QCWM+HJ Dhanbad, Jharkhand, India", "global_code": "7MM8QCWM+HJ"}, "rating": 5, "reference": "ChIJhQYJK7-89jkRFARcXr9VZA0", "scope": "GOOGLE", "types": ["school", "point_of_interest", "establishment"], "user_ratings_total": 5, "vicinity": "opp. Dhanbad Police, Superintendent Office., Ratam Vihar Complex, opp. Dhanbad Police, Superintendent Office., Dhanbad"}, {"business_status": "OPERATIONAL", "geometry": {"location": {"lat": 23.8052472, "lng": 86.4307419}, "viewport": {"northeast": {"lat": 23.8064880802915, "lng": 86.43212853029151}, "southwest": {"lat": 23.80379011970849, "lng": 86.4294305697085}}}, "icon": "https://maps.gstatic.com/mapfiles/place_api/icons/v1/png_71/school-71.png", "name": "Mahendra Educational Private Limited", "opening_hours": {"open_now": true}, "photos": [{"height": 576, "html_attributions": ["<a href=\"https://maps.google.com/maps/contrib/113654686008547197145\">Mahendra Educational Private Limited</a>"], "photo_reference": "ATtYBwLb9-Vxk4M-6jELHK7pwDv3nrLRQl0FWdFyQLljOG_rKkBVpCRF1k3n9bcI28_C44IOBKmxbOgj9HKeydGAXi0vC7WW5rZ7O98jnQF0pPmSbrNsvMg9SAx-CAL_CEbr5qnNRsb_hXizesO6_jOOX_ZtRUtYvjPShXNeqDSNw6-zUAnN", "width": 1024}], "place_id": "ChIJv_5RAjOj9jkRsa7lPdapg5k", "plus_code": {"compound_code": "RC4J+37 Dhanbad, Jharkhand, India", "global_code": "7MM8RC4J+37"}, "rating": 4.2, "reference": "ChIJv_5RAjOj9jkRsa7lPdapg5k", "scope": "GOOGLE", "types": ["school", "point_of_interest", "establishment"], "user_ratings_total": 169, "vicinity": "City Centre, Dhanbad"}, {"business_status": "OPERATIONAL", "geometry": {"location": {"lat": 23.8055337, "lng": 86.42924219999999}, "viewport": {"northeast": {"lat": 23.8068941302915, "lng": 86.4305863302915}, "southwest": {"lat": 23.8041961697085, "lng": 86.42788836970848}}}, "icon": "https://maps.gstatic.com/mapfiles/place_api/icons/v1/png_71/school-71.png", "name": "Vananchal Pvt Iti", "opening_hours": {"open_now": true}, "photos": [{"height": 1600, "html_attributions": ["<a href=\"https://maps.google.com/maps/contrib/104479677142054587773\">Prem Prakash</a>"], "photo_reference": "ATtYBwKGUNyHuU33xI8DlLHLrYHtNIO7aQ85LIwl64AQAcS1LN_OsX7Nx9Zlx3_DBNVkJvZcWlrtA_UuQa3Wj7u3UXntpNGmEbxj8Gl1U69UYhx8D53a7HCRl3yAxmQ81fxdRUcBwc3r9QtRnEHOFAxJtIf9Lal-zAKFGQ1cATYbsOapNqMZ", "width": 1200}], "place_id": "ChIJGfX6qrq89jkRlAbG0BMZ1io", "plus_code": {"compound_code": "RC4H+6M Dhanbad, Jharkhand, India", "global_code": "7MM8RC4H+6M"}, "rating": 4.5, "reference": "ChIJGfX6qrq89jkRlAbG0BMZ1io", "scope": "GOOGLE", "types": ["school", "point_of_interest", "establishment"], "user_ratings_total": 8, "vicinity": "Swami Sahjanand Nagar, Luby Circular Road Behind Akruthi Nursing Home, Dhanbad"}, {"business_status": "OPERATIONAL", "geometry": {"location": {"lat": 23.8058909, "lng": 86.4311524}, "viewport": {"northeast": {"lat": 23.8072163302915, "lng": 86.4325817302915}, "southwest": {"lat": 23.80451836970849, "lng": 86.4298837697085}}}, "icon": "https://maps.gstatic.com/mapfiles/place_api/icons/v1/png_71/school-71.png", "name": "The Gate Coach", "opening_hours": {"open_now": true}, "photos": [{"height": 300, "html_attributions": ["<a href=\"https://maps.google.com/maps/contrib/103940070223502403421\">The Gate Coach</a>"], "photo_reference": "ATtYBwIRF1tw-GOTDtFe911aYFn9Yodf_S_ipA5J2mlGbAu4Yhb2WeFTdaKOFTpTZZVIViZGuOf6fnciiXH96pFGY5NxYB4BQX2XajKzi3zHC6cyNzOpxxQWKrPv8tCjr-IDik2gmiUWlPtpLIBlsmIrRfZqu8COkpIl5D6A584i4PI225_G", "width": 800}], "place_id": "ChIJK4vTkTSj9jkR7jmt4FrPKRU", "plus_code": {"compound_code": "RC4J+9F Dhanbad, Jharkhand, India", "global_code": "7MM8RC4J+9F"}, "rating": 3.7, "reference": "ChIJK4vTkTSj9jkR7jmt4FrPKRU", "scope": "GOOGLE", "types": ["school", "point_of_interest", "establishment"], "user_ratings_total": 35, "vicinity": "Room No 506, 3rd Floor City Center, Bartand, Dhanbad"}, {"business_status": "OPERATIONAL", "geometry": {"location": {"lat": 23.8056867, "lng": 86.4258961}, "viewport": {"northeast": {"lat": 23.8070782802915, "lng": 86.4271557802915}, "southwest": {"lat": 23.8043803197085, "lng": 86.4244578197085}}}, "icon": "https://maps.gstatic.com/mapfiles/place_api/icons/v1/png_71/school-71.png", "name": "KCPMT", "place_id": "ChIJXVwwKa689jkRrLeZ1tFfNXM", "plus_code": {"compound_code": "RC4G+79 Dhanbad, Jharkhand, India", "global_code": "7MM8RC4G+79"}, "reference": "ChIJXVwwKa689jkRrLeZ1tFfNXM", "scope": "GOOGLE", "types": ["school", "point_of_interest", "establishment"], "vicinity": "Jharudih, Dhanbad"}, {"business_status": "OPERATIONAL", "geometry": {"location": {"lat": 23.8055588, "lng": 86.42482489999999}, "viewport": {"northeast": {"lat": 23.8069640802915, "lng": 86.42620063029149}, "southwest": {"lat": 23.8042661197085, "lng": 86.42350266970848}}}, "icon": "https://maps.gstatic.com/mapfiles/place_api/icons/v1/png_71/school-71.png", "name": "Kidzee Activity Center", "place_id": "ChIJSdeVHq689jkRI5KjIMSgWBw", "plus_code": {"compound_code": "RC4F+6W Dhanbad, Jharkhand, India", "global_code": "7MM8RC4F+6W"}, "rating": 1, "reference": "ChIJSdeVHq689jkRI5KjIMSgWBw", "scope": "GOOGLE", "types": ["school", "point_of_interest", "establishment"], "user_ratings_total": 2, "vicinity": "Jharudih, Dhanbad"}, {"business_status": "OPERATIONAL", "geometry": {"location": {"lat": 23.805961, "lng": 86.43652}, "viewport": {"northeast": {"lat": 23.8073030302915, "lng": 86.4379076802915}, "southwest": {"lat": 23.80460506970849, "lng": 86.43520971970848}}}, "icon": "https://maps.gstatic.com/mapfiles/place_api/icons/v1/png_71/school-71.png", "name": "Manas International School", "opening_hours": {"open_now": true}, "photos": [{"height": 809, "html_attributions": ["<a href=\"https://maps.google.com/maps/contrib/103375470384568664426\">Manas International School</a>"], "photo_reference": "ATtYBwLJakfedLrlhUxl22jbJGtHhSIppMPyWC_yYxzYNKb8UpTSTrj-sFrkQEMapzNZcq4D6njjfDxAJR6GteVZcJRP3wY3RCf70IPcpMk1qBC4rff7m1fg5gxn9BukluY9-a4Rxjyj6q4GveZzqV8vCD5nJkVyvf8nDGOiRSx3YlETHU-3", "width": 1440}], "place_id": "ChIJjY_A1aK89jkROIap892ymIE", "plus_code": {"compound_code": "RC4P+9J Dhanbad, Jharkhand, India", "global_code": "7MM8RC4P+9J"}, "rating": 4, "reference": "ChIJjY_A1aK89jkROIap892ymIE", "scope": "GOOGLE", "types": ["school", "primary_school", "secondary_school", "point_of_interest", "establishment"], "user_ratings_total": 13, "vicinity": "Plot No. 81MIG, Housing Colony Road, Housing Colony, Sardar Patel Nagar, Dhanbad"}, {"business_status": "OPERATIONAL", "geometry": {"location": {"lat": 23.79426, "lng": 86.4371989}, "viewport": {"northeast": {"lat": 23.7955357802915, "lng": 86.43862793029152}, "southwest": {"lat": 23.7928378197085, "lng": 86.43592996970851}}}, "icon": "https://maps.gstatic.com/mapfiles/place_api/icons/v1/png_71/school-71.png", "name": "Holy Mother's School", "place_id": "ChIJg5QFj7-89jkR6If-rpz40_U", "plus_code": {"compound_code": "QCVP+PV Dhanbad, Jharkhand, India", "global_code": "7MM8QCVP+PV"}, "rating": 3, "reference": "ChIJg5QFj7-89jkR6If-rpz40_U", "scope": "GOOGLE", "types": ["school", "point_of_interest", "establishment"], "user_ratings_total": 1, "vicinity": "Opp Kali Mandie, Swastik Cinema Road, P.o. Katrasgarh, Pandey Muhalla, Dhanbad"}, {"business_status": "OPERATIONAL", "geometry": {"location": {"lat": 23.80941290000001, "lng": 86.4264168}, "viewport": {"northeast": {"lat": 23.8107042802915, "lng": 86.42789423029151}, "southwest": {"lat": 23.8080063197085, "lng": 86.4251962697085}}}, "icon": "https://maps.gstatic.com/mapfiles/place_api/icons/v1/png_71/school-71.png", "name": "De Nobili School - C.M.R.I.", "opening_hours": {"open_now": true}, "photos": [{"height": 1084, "html_attributions": ["<a href=\"https://maps.google.com/maps/contrib/113153703238656274972\">The Central DogMa of MEDICINE</a>"], "photo_reference": "ATtYBwKKdBLsFRuRtr0bBpAPIyXj5NHcwm2gNWacptPJbcW6KcRQOhgleb7T8_-TNIygKClbyufd6Zj2YHyANGOnZnLjsJ_MlNJF1E0xYnzv63Cz2Wi7XlYzgOZoFrdad8dnH-3lqkCgQUva9U-RD36Wj8S3DM-UjasjPC4N7LyDhd7w8cTU", "width": 1080}], "place_id": "ChIJ76q4Ha-89jkRWC08JhVw_DY", "plus_code": {"compound_code": "RC5G+QH Dhanbad, Jharkhand, India", "global_code": "7MM8RC5G+QH"}, "rating": 4.5, "reference": "ChIJ76q4Ha-89jkRWC08JhVw_DY", "scope": "GOOGLE", "types": ["school", "point_of_interest", "establishment"], "user_ratings_total": 336, "vicinity": "CIMFR Colony, Dhanbad"}, {"business_status": "OPERATIONAL", "geometry": {"location": {"lat": 23.791879, "lng": 86.437117}, "viewport": {"northeast": {"lat": 23.7932117802915, "lng": 86.4385381302915}, "southwest": {"lat": 23.7905138197085, "lng": 86.4358401697085}}}, "icon": "https://maps.gstatic.com/mapfiles/place_api/icons/v1/png_71/school-71.png", "name": "Government Middle School", "photos": [{"height": 1840, "html_attributions": ["<a href=\"https://maps.google.com/maps/contrib/104436589443155435229\">Santosh Kumar</a>"], "photo_reference": "ATtYBwKW79SfJzrMoe-c2MTm76yEMTu5RjhFxQUuD5FDu_nlzEccXmpZCBfa5JIk-kqcued-4oDHoXEz00wtI-h9m26NSdw6xXC9COr8GvxxiAW21LYdilWYI7KTjk4XybXyaLMqxekX8EEeKW2WlNUd-SRRn8LDVjCH1_rpmfafOLJxqFQQ", "width": 3264}], "place_id": "ChIJMR9YQ8C89jkRbrGEu7eQfNg", "plus_code": {"compound_code": "QCRP+QR Dhanbad, Jharkhand, India", "global_code": "7MM8QCRP+QR"}, "rating": 4.5, "reference": "ChIJMR9YQ8C89jkRbrGEu7eQfNg", "scope": "GOOGLE", "types": ["school", "point_of_interest", "establishment"], "user_ratings_total": 4, "vicinity": "Pandey Muhalla, Dhanbad"}, {"business_status": "OPERATIONAL", "geometry": {"location": {"lat": 23.7959691, "lng": 86.44052049999999}, "viewport": {"northeast": {"lat": 23.7973846802915, "lng": 86.44187348029149}, "southwest": {"lat": 23.7946867197085, "lng": 86.43917551970848}}}, "icon": "https://maps.gstatic.com/mapfiles/place_api/icons/v1/png_71/school-71.png", "name": "CIITM, MHSS Trust", "photos": [{"height": 600, "html_attributions": ["<a href=\"https://maps.google.com/maps/contrib/109448590386328571963\">DRISHTI Talks</a>"], "photo_reference": "ATtYBwJH2JTJ0Ffz4VY4RJt4KslG32oN8WyHk_ReDs8CL4B7pW3ivQgLQkh0ZiDqY9NfDk2rcLU2DkCniFQn_E2xk5plY95fNa5YBfeOIYyNi5Y4KwEUXEYMgHZLS3VnE8wUA-fFOzGuP1cj2ziqj080Tehq4cnw6PftqgBv5FZMSGIoSg2F", "width": 480}], "place_id": "ChIJHy1wcJW89jkRrbqcj5Zao8o", "plus_code": {"compound_code": "QCWR+96 Dhanbad, Jharkhand, India", "global_code": "7MM8QCWR+96"}, "rating": 4.5, "reference": "ChIJHy1wcJW89jkRrbqcj5Zao8o", "scope": "GOOGLE", "types": ["school", "point_of_interest", "establishment"], "user_ratings_total": 8, "vicinity": "Harimandir Road, Hirapur, Pandey Muhalla, Dhanbad"}, {"business_status": "OPERATIONAL", "geometry": {"location": {"lat": 23.8090379, "lng": 86.4366608}, "viewport": {"northeast": {"lat": 23.81042518029151, "lng": 86.43803518029151}, "southwest": {"lat": 23.8077272197085, "lng": 86.4353372197085}}}, "icon": "https://maps.gstatic.com/mapfiles/place_api/icons/v1/png_71/school-71.png", "name": "DHANBAD VIKAS VIDYALAYA,C.B.S.E School", "opening_hours": {"open_now": false}, "photos": [{"height": 810, "html_attributions": ["<a href=\"https://maps.google.com/maps/contrib/118328516113611696366\">DHANBAD VIKAS VIDYALAYA,C.B.S.E School</a>"], "photo_reference": "ATtYBwLzcl84L8ei390xhF9dtMuyzYRJM39pPQA8vzTrjzZ_aWlSdD1QzYExpFiyw51Vc7QXNS3m1RBPl4Lhdwse7SHREYBhhRSBfIa-AeCp8uXnBdf8uDvy8mgjYmBvI-6OJNYrns-jYNzhUzaKNBuamCf6sSWyv0lYCUn_EfDjeyBBYKmJ", "width": 1440}], "place_id": "ChIJxS1Ta6O89jkRqV9tYgMR8os", "plus_code": {"compound_code": "RC5P+JM Dhanbad, Jharkhand, India", "global_code": "7MM8RC5P+JM"}, "rating": 4.2, "reference": "ChIJxS1Ta6O89jkRqV9tYgMR8os", "scope": "GOOGLE", "types": ["school", "point_of_interest", "establishment"], "user_ratings_total": 22, "vicinity": "near Janta Flat, Pandit Clinic Road, near Janta Flat, Housing Colony, Dhanbad"}, {"business_status": "OPERATIONAL", "geometry": {"location": {"lat": 23.7878931, "lng": 86.4305337}, "viewport": {"northeast": {"lat": 23.7892553302915, "lng": 86.4318210302915}, "southwest": {"lat": 23.7865573697085, "lng": 86.4291230697085}}}, "icon": "https://maps.gstatic.com/mapfiles/place_api/icons/v1/png_71/school-71.png", "name": "Railway Institute", "photos": [{"height": 1426, "html_attributions": ["<a href=\"https://maps.google.com/maps/contrib/105726798058900575288\">\u021aH\u00c9 H\u00daNT\u00c9R</a>"], "photo_reference": "ATtYBwKWTi0tCMnLid-AS3lXE1GMNXteeS7MiRO2SQJElReM_nl_eL8m-p5RBs8Uq0ojFUAPpOd95I4HX93DX_dorDYYsMV-uQXgI6De22vDT6STK00-El1pkoZI__T6lwkXVCIf1x6F2NPjXagwjX-zxDrElIXcXjzeTvqr7KKLvN8_zTxh", "width": 2048}], "place_id": "ChIJ7aD2dsa89jkRUVSpa66oGls", "plus_code": {"compound_code": "QCQJ+56 Dhanbad, Jharkhand, India", "global_code": "7MM8QCQJ+56"}, "rating": 4.5, "reference": "ChIJ7aD2dsa89jkRUVSpa66oGls", "scope": "GOOGLE", "types": ["school", "point_of_interest", "establishment"], "user_ratings_total": 2, "vicinity": "Damodarpur, Dhanbad"}, {"business_status": "OPERATIONAL", "geometry": {"location": {"lat": 23.8008624, "lng": 86.4435645}, "viewport": {"northeast": {"lat": 23.8021575802915, "lng": 86.44491013029149}, "southwest": {"lat": 23.7994596197085, "lng": 86.44221216970848}}}, "icon": "https://maps.gstatic.com/mapfiles/place_api/icons/v1/png_71/generic_business-71.png", "name": "Skin Care Slimming & Fitness Center Dhanbad", "opening_hours": {"open_now": true}, "photos": [{"height": 4608, "html_attributions": ["<a href=\"https://maps.google.com/maps/contrib/115428303809767015817\">Abhineet Akash</a>"], "photo_reference": "ATtYBwIbqTSGAXSf-IOoB4tZJHE9fvgjRj5G0N0Hsg8Ps3bk5rPas2NXJ4HiRK3nvsKaWQj4EwQ4nUutsChtRCKki02rnGkNXLHVQf-aEgXZlQgAJjgG_TVIyyz17uAQxIi4bSdNW3f76axIK8KE6Mre_O_28TMu_JzD-pg87OiJq_rCGbh8", "width": 3456}], "place_id": "ChIJ63ALvJa89jkRRoKVewxKjZs", "plus_code": {"compound_code": "RC2V+8C Dhanbad, Jharkhand, India", "global_code": "7MM8RC2V+8C"}, "rating": 5, "reference": "ChIJ63ALvJa89jkRRoKVewxKjZs", "scope": "GOOGLE", "types": ["secondary_school", "school", "gym", "health", "point_of_interest", "establishment"], "user_ratings_total": 32, "vicinity": "Park Market, Madhav Apartment Near S.B.I-ATM, Dhanbad"}, {"business_status": "OPERATIONAL", "geometry": {"location": {"lat": 23.7929385, "lng": 86.41858409999999}, "viewport": {"northeast": {"lat": 23.7942368802915, "lng": 86.4198840802915}, "southwest": {"lat": 23.7915389197085, "lng": 86.41718611970848}}}, "icon": "https://maps.gstatic.com/mapfiles/place_api/icons/v1/png_71/school-71.png", "name": "Global school of India", "place_id": "ChIJR7aBVDWj9jkR_RZBFcHV4jA", "plus_code": {"compound_code": "QCV9+5C Dhanbad, Jharkhand, India", "global_code": "7MM8QCV9+5C"}, "rating": 4, "reference": "ChIJR7aBVDWj9jkR_RZBFcHV4jA", "scope": "GOOGLE", "types": ["school", "point_of_interest", "establishment"], "user_ratings_total": 1, "vicinity": "Wassepur, Dhanbad"}], "status": "OK"}