{"html_attributions": [], "results": [{"business_status": "OPERATIONAL", "geometry": {"location": {"lat": 23.9796769, "lng": 86.28942529999999}, "viewport": {"northeast": {"lat": 23.9809559802915, "lng": 86.2907849802915}, "southwest": {"lat": 23.97825801970849, "lng": 86.2880870197085}}}, "icon": "https://maps.gstatic.com/mapfiles/place_api/icons/v1/png_71/school-71.png", "name": "Project High School Harladih", "photos": [{"height": 611, "html_attributions": ["<a href=\"https://maps.google.com/maps/contrib/106401118802649841646\">Badass Nemesis</a>"], "photo_reference": "ATtYBwJeP8t0BuIbCiBb2CUPjgktPtOzN1rYWQrLzEirF0gPFUvlQT6rmOet7k6ClcbDj0-vkPrUAkh7192pLD9k2djfdU22eNA4R8MYT3pKkkyhiNnIvGyFZEvl64SYGl9JFo2enIZWsKyhMqU5M_fDPH36NQWFuomfNil7HgD1FVaUqCJ1", "width": 1080}], "place_id": "ChIJOUABk5Sp9jkR8wB-3ZXNZU8", "plus_code": {"compound_code": "X7HQ+VQ Hariladih, Jharkhand, India", "global_code": "7MM8X7HQ+VQ"}, "rating": 3.8, "reference": "ChIJOUABk5Sp9jkR8wB-3ZXNZU8", "scope": "GOOGLE", "types": ["school", "point_of_interest", "establishment"], "user_ratings_total": 5, "vicinity": "Hariladih"}, {"business_status": "OPERATIONAL", "geometry": {"location": {"lat": 23.9794383, "lng": 86.2870482}, "viewport": {"northeast": {"lat": 23.9807795802915, "lng": 86.2884127802915}, "southwest": {"lat": 23.9780816197085, "lng": 86.28571481970849}}}, "icon": "https://maps.gstatic.com/mapfiles/place_api/icons/v1/png_71/school-71.png", "name": "c.p.memorial resdencial public scbool harldoh", "photos": [{"height": 1080, "html_attributions": ["<a href=\"https://maps.google.com/maps/contrib/107559474882090949670\">vijay kumar</a>"], "photo_reference": "ATtYBwIoIsk-WuPzFiPdDHtUaTArikfWbF00XC5nXoGkP2yekOGlUihi-jcpT6ylS-qnUv95FQiSMimEEel_bzNcmZQr_L2WC8br-PxbtjKB97dymIjp9b9IQR6JP1Mshn2e0ibF5Jd45g6FmZl65TrbzZLHzou53KFs9uqRec5LIGhKYyAF", "width": 1920}], "place_id": "ChIJYxJ77pup9jkRca8LKNTqSiM", "plus_code": {"compound_code": "X7HP+QR Pipradih, Jharkhand, India", "global_code": "7MM8X7HP+QR"}, "reference": "ChIJYxJ77pup9jkRca8LKNTqSiM", "scope": "GOOGLE", "types": ["school", "point_of_interest", "establishment"], "vicinity": "Main road harladih pirtand, Giridih"}, {"business_status": "OPERATIONAL", "geometry": {"location": {"lat": 23.9759625, "lng": 86.2854684}, "viewport": {"northeast": {"lat": 23.9773631802915, "lng": 86.2867419302915}, "southwest": {"lat": 23.9746652197085, "lng": 86.28404396970849}}}, "icon": "https://maps.gstatic.com/mapfiles/place_api/icons/v1/png_71/school-71.png", "name": "Lalita Gift And Sringer Stor", "opening_hours": {"open_now": true}, "place_id": "ChIJaVhubkqp9jkRj7lvc42xs2s", "plus_code": {"compound_code": "X7GP+95 Pipradih, Jharkhand, India", "global_code": "7MM8X7GP+95"}, "rating": 1, "reference": "ChIJaVhubkqp9jkRj7lvc42xs2s", "scope": "GOOGLE", "types": ["school", "point_of_interest", "establishment"], "user_ratings_total": 1, "vicinity": "vill-pipradih p.o-harladih p.s- khukhara dist"}, {"business_status": "OPERATIONAL", "geometry": {"location": {"lat": 23.9846282, "lng": 86.2986749}, "viewport": {"northeast": {"lat": 23.9859722802915, "lng": 86.3000386302915}, "southwest": {"lat": 23.9832743197085, "lng": 86.29734066970849}}}, "icon": "https://maps.gstatic.com/mapfiles/place_api/icons/v1/png_71/school-71.png", "name": "Ums Padriyatand", "place_id": "ChIJBWefQVWp9jkRimM_QTNRDSA", "plus_code": {"compound_code": "X7MX+VF Semarkorhi, Jharkhand, India", "global_code": "7MM8X7MX+VF"}, "rating": 5, "reference": "ChIJBWefQVWp9jkRimM_QTNRDSA", "scope": "GOOGLE", "types": ["school", "point_of_interest", "establishment"], "user_ratings_total": 1, "vicinity": "Unnamed Road, Semarkorhi"}, {"business_status": "OPERATIONAL", "geometry": {"location": {"lat": 23.9897958, "lng": 86.28753569999999}, "viewport": {"northeast": {"lat": 23.9911769802915, "lng": 86.28866413029151}, "southwest": {"lat": 23.9884790197085, "lng": 86.2859661697085}}}, "icon": "https://maps.gstatic.com/mapfiles/place_api/icons/v1/png_71/school-71.png", "name": "B B M S Inter College Iaxmipur Harladih", "place_id": "ChIJEXnMqSGp9jkRSCDw52hW75w", "plus_code": {"compound_code": "X7QQ+W2 Mandro, Jharkhand, India", "global_code": "7MM8X7QQ+W2"}, "reference": "ChIJEXnMqSGp9jkRSCDw52hW75w", "scope": "GOOGLE", "types": ["school", "point_of_interest", "establishment"], "vicinity": "Harladih"}, {"business_status": "OPERATIONAL", "geometry": {"location": {"lat": 23.9768368, "lng": 86.27909120000001}, "viewport": {"northeast": {"lat": 23.9781511302915, "lng": 86.28040913029152}, "southwest": {"lat": 23.97545316970849, "lng": 86.27771116970851}}}, "icon": "https://maps.gstatic.com/mapfiles/place_api/icons/v1/png_71/school-71.png", "name": "Suhani ladies tailor bajrangbali Mandir ke samne", "place_id": "ChIJDxrLb-mp9jkRGRc3Jg0c2oc", "plus_code": {"compound_code": "X7GH+PJ Majhladih, Jharkhand, India", "global_code": "7MM8X7GH+PJ"}, "reference": "ChIJDxrLb-mp9jkRGRc3Jg0c2oc", "scope": "GOOGLE", "types": ["school", "point_of_interest", "establishment"], "vicinity": "Unnamed Road, Majhladih"}], "status": "OK"}