{"html_attributions": [], "results": [{"business_status": "OPERATIONAL", "geometry": {"location": {"lat": 24.0163513, "lng": 86.4313837}, "viewport": {"northeast": {"lat": 24.0183506802915, "lng": 86.4352705}, "southwest": {"lat": 24.0156527197085, "lng": 86.4300881}}}, "icon": "https://maps.gstatic.com/mapfiles/place_api/icons/v1/png_71/school-71.png", "name": "Middle school Jiyajori", "opening_hours": {"open_now": false}, "place_id": "ChIJk3BfGzWz9jkRsDYfizXiOLU", "plus_code": {"compound_code": "2C8J+GH Jiajuri, Jharkhand, India", "global_code": "7MP82C8J+GH"}, "rating": 5, "reference": "ChIJk3BfGzWz9jkRsDYfizXiOLU", "scope": "GOOGLE", "types": ["school", "point_of_interest", "establishment"], "user_ratings_total": 1, "vicinity": "Jiajuri"}, {"business_status": "OPERATIONAL", "geometry": {"location": {"lat": 24.0277949, "lng": 86.43238679999999}, "viewport": {"northeast": {"lat": 24.02928878029151, "lng": 86.43375978029151}, "southwest": {"lat": 24.0265908197085, "lng": 86.43106181970849}}}, "icon": "https://maps.gstatic.com/mapfiles/place_api/icons/v1/png_71/school-71.png", "name": "AANGANWADI KENDRA PRATAPPUR", "place_id": "ChIJ0323RMuz9jkRs9BnF-JSalM", "plus_code": {"compound_code": "2CHJ+4X Pratappur, Jharkhand, India", "global_code": "7MP82CHJ+4X"}, "reference": "ChIJ0323RMuz9jkRs9BnF-JSalM", "scope": "GOOGLE", "types": ["school", "point_of_interest", "establishment"], "vicinity": "Pratappur"}, {"business_status": "OPERATIONAL", "geometry": {"location": {"lat": 24.0191909, "lng": 86.4417007}, "viewport": {"northeast": {"lat": 24.0205877802915, "lng": 86.44306168029149}, "southwest": {"lat": 24.0178898197085, "lng": 86.44036371970849}}}, "icon": "https://maps.gstatic.com/mapfiles/place_api/icons/v1/png_71/school-71.png", "name": "NPS sonad", "photos": [{"height": 2126, "html_attributions": ["<a href=\"https://maps.google.com/maps/contrib/102932399909527738316\">Tipan kumar Mandal</a>"], "photo_reference": "ATtYBwJtmvKdj6u0RaAnqcjQ5qGpp8Md66gmFHcsipEqvm5kLxp8cxuyMYTzZH9bEk4weXbfnVl1txvrlc6cDZFNSYijph1ZBCnAHjZE-H95FEw6tzt3Fy7aHByPRd5Viql79Ty3D82z8Jx5pkywx02qmuEvJQXeRsdRGnu_W4Frsy46_IWI", "width": 4608}], "place_id": "ChIJufnXKyOy9jkR3i9zLLIdjx8", "plus_code": {"compound_code": "2C9R+MM Sanad, Jharkhand, India", "global_code": "7MP82C9R+MM"}, "rating": 4.7, "reference": "ChIJufnXKyOy9jkR3i9zLLIdjx8", "scope": "GOOGLE", "types": ["school", "point_of_interest", "establishment"], "user_ratings_total": 3, "vicinity": "Sanad"}], "status": "OK"}