{"html_attributions": [], "results": [{"business_status": "OPERATIONAL", "geometry": {"location": {"lat": 23.6603636, "lng": 86.45162189999999}, "viewport": {"northeast": {"lat": 23.6617839802915, "lng": 86.45286108029151}, "southwest": {"lat": 23.6590860197085, "lng": 86.45016311970849}}}, "icon": "https://maps.gstatic.com/mapfiles/place_api/icons/v1/png_71/school-71.png", "name": "Chasnalla Academy", "photos": [{"height": 3456, "html_attributions": ["<a href=\"https://maps.google.com/maps/contrib/110838951348518226485\">Rockey Ray</a>"], "photo_reference": "ATtYBwKQAsAE0Qqobswd3LRrFuC3_5yrRU5R8F2oQQxNsX4mhBrmOS0hc7ncnWj0UOGWtxuvvt5f_8MHJAYyUGc-yKDfzMVaiMY2GZuosFbXFafiJjwjYBA45MY328x_B6ZqpVmPXfB8aG0HIWE4U9a8ZwGaSeVhe-Chyn-ok8vmUYPt0SCU", "width": 4608}], "place_id": "ChIJcUvIwhGX9jkRozGo-HlEpYY", "plus_code": {"compound_code": "MF62+4J Chasnalla, Jharkhand, India", "global_code": "7MM8MF62+4J"}, "rating": 4, "reference": "ChIJcUvIwhGX9jkRozGo-HlEpYY", "scope": "GOOGLE", "types": ["school", "point_of_interest", "establishment"], "user_ratings_total": 31, "vicinity": "Chasnalla"}, {"business_status": "OPERATIONAL", "geometry": {"location": {"lat": 23.6603146, "lng": 86.4602689}, "viewport": {"northeast": {"lat": 23.6617091802915, "lng": 86.46165238029151}, "southwest": {"lat": 23.65901121970849, "lng": 86.4589544197085}}}, "icon": "https://maps.gstatic.com/mapfiles/place_api/icons/v1/png_71/school-71.png", "name": "RCM PUC", "place_id": "ChIJ9fAQYeKW9jkRET-GtMZTx_4", "plus_code": {"compound_code": "MF66+44 Pathardih, Jharkhand, India", "global_code": "7MM8MF66+44"}, "reference": "ChIJ9fAQYeKW9jkRET-GtMZTx_4", "scope": "GOOGLE", "types": ["school", "point_of_interest", "establishment"], "vicinity": "Kandra Bazar, Dhanbad"}, {"business_status": "OPERATIONAL", "geometry": {"location": {"lat": 23.6483592, "lng": 86.4459072}, "viewport": {"northeast": {"lat": 23.6497575802915, "lng": 86.44717418029151}, "southwest": {"lat": 23.6470596197085, "lng": 86.4444762197085}}}, "icon": "https://maps.gstatic.com/mapfiles/place_api/icons/v1/png_71/school-71.png", "name": "Angel Public School", "photos": [{"height": 2976, "html_attributions": ["<a href=\"https://maps.google.com/maps/contrib/111125733946452006301\">MOHD. ZAKIR</a>"], "photo_reference": "ATtYBwLpAJ2v2v6bbF3h_gY9EMmX2CKxnc1Y6JlEZ8_Ls4cRTZTRHlWUS2GHQ4-Xg7D6Pjn_8kKOOOOPdeEjrWIV-Dzt3_UssqvKlFXqLKdvwXT0e5BaYRS8AgFa0Ah8NapWY6EZ5_PirKQnOz5ML6SVouCkp7nlufqzGCjtxAnWpxMOQpg", "width": 3968}], "place_id": "ChIJ3Reosj2X9jkR9OSaG6TKfPM", "plus_code": {"compound_code": "JCXW+89 Bhojudih, Jharkhand, India", "global_code": "7MM8JCXW+89"}, "rating": 4, "reference": "ChIJ3Reosj2X9jkR9OSaG6TKfPM", "scope": "GOOGLE", "types": ["school", "point_of_interest", "establishment"], "user_ratings_total": 3, "vicinity": "Bhojudih"}, {"business_status": "OPERATIONAL", "geometry": {"location": {"lat": 23.6599646, "lng": 86.4515723}, "viewport": {"northeast": {"lat": 23.6612115802915, "lng": 86.4527052302915}, "southwest": {"lat": 23.65851361970849, "lng": 86.4500072697085}}}, "icon": "https://maps.gstatic.com/mapfiles/place_api/icons/v1/png_71/school-71.png", "name": "Chasnalla basti no - 2", "place_id": "ChIJDehWrLSX9jkR1ToOLGvMGn4", "plus_code": {"compound_code": "MF52+XJ Pathardih, Jharkhand, India", "global_code": "7MM8MF52+XJ"}, "reference": "ChIJDehWrLSX9jkR1ToOLGvMGn4", "scope": "GOOGLE", "types": ["school", "point_of_interest", "establishment"], "vicinity": "Chasnalla academy"}, {"business_status": "OPERATIONAL", "geometry": {"location": {"lat": 23.6603636, "lng": 86.45162189999999}, "viewport": {"northeast": {"lat": 23.6617839802915, "lng": 86.45286108029151}, "southwest": {"lat": 23.6590860197085, "lng": 86.45016311970849}}}, "icon": "https://maps.gstatic.com/mapfiles/place_api/icons/v1/png_71/school-71.png", "name": "Primary Shool Chhatabad", "place_id": "ChIJq6qqqhuX9jkRrqWcBhDlza0", "plus_code": {"compound_code": "MF62+4J Pathardih, Jharkhand, India", "global_code": "7MM8MF62+4J"}, "reference": "ChIJq6qqqhuX9jkRrqWcBhDlza0", "scope": "GOOGLE", "types": ["school", "point_of_interest", "establishment"], "vicinity": "Dhanbad"}, {"business_status": "OPERATIONAL", "geometry": {"location": {"lat": 23.6603636, "lng": 86.45162189999999}, "viewport": {"northeast": {"lat": 23.6617839802915, "lng": 86.45286108029151}, "southwest": {"lat": 23.6590860197085, "lng": 86.45016311970849}}}, "icon": "https://maps.gstatic.com/mapfiles/place_api/icons/v1/png_71/school-71.png", "name": "chasnalla rajkirth madhya vidhiyalay", "opening_hours": {"open_now": false}, "photos": [{"height": 4160, "html_attributions": ["<a href=\"https://maps.google.com/maps/contrib/106652532370086272497\">Santosh Parmanik</a>"], "photo_reference": "ATtYBwL9Brl_Xwsam0UxfU--8h9L0qMAfXyTY-y6kZLfGOivs2ZRp1CWlsfyAUMOPum5eqsHubJL_M16S-fBo81uhhyHAFK1eP62sfsdmtS4u4bbLofrcvkliZNB4HsvAT_x8rbU3z3_ym3SotSutK4dA2O_G-e8mGfz34OWSYCaiTuU7sn1", "width": 3120}], "place_id": "ChIJq6qqqhuX9jkRB0FO7THpKB0", "plus_code": {"compound_code": "MF62+4J Chasnalla, Jharkhand, India", "global_code": "7MM8MF62+4J"}, "reference": "ChIJq6qqqhuX9jkRB0FO7THpKB0", "scope": "GOOGLE", "types": ["school", "point_of_interest", "establishment"], "vicinity": "Chasnalla"}, {"business_status": "OPERATIONAL", "geometry": {"location": {"lat": 23.6635047, "lng": 86.44990489999999}, "viewport": {"northeast": {"lat": 23.6648443302915, "lng": 86.45124563029152}, "southwest": {"lat": 23.66214636970849, "lng": 86.4485476697085}}}, "icon": "https://maps.gstatic.com/mapfiles/place_api/icons/v1/png_71/school-71.png", "name": "ROYAL BRAHMAN HOME", "photos": [{"height": 810, "html_attributions": ["<a href=\"https://maps.google.com/maps/contrib/114473920066553143640\">Rakesh Ojha</a>"], "photo_reference": "ATtYBwJ1DWzsmVi-eA_7LznPcDkbKtEBsrsLpTFqR4NuQxJcoN-HwQASwM24Bgs4UGBtLmTn6w-1_ugG-qNjf55p7CRGiV_qGmFoHB7WrOKGV2gBH52PK8Riacpos38RmMSz4rRSPuWTLZJfxJM02VUDOBqoiHlXm1XiNajJgyu9sTh78xnL", "width": 1080}], "place_id": "ChIJhRJbpt2X9jkRXH_jm9rQeUU", "plus_code": {"compound_code": "MC7X+CX Chasnalla, Jharkhand, India", "global_code": "7MM8MC7X+CX"}, "reference": "ChIJhRJbpt2X9jkRXH_jm9rQeUU", "scope": "GOOGLE", "types": ["school", "point_of_interest", "establishment"], "vicinity": "Chasnalla"}, {"business_status": "OPERATIONAL", "geometry": {"location": {"lat": 23.6650361, "lng": 86.4477206}, "viewport": {"northeast": {"lat": 23.6663538802915, "lng": 86.44905713029151}, "southwest": {"lat": 23.6636559197085, "lng": 86.44635916970849}}}, "icon": "https://maps.gstatic.com/mapfiles/place_api/icons/v1/png_71/school-71.png", "name": "Jharkhad Academy", "opening_hours": {"open_now": false}, "photos": [{"height": 3096, "html_attributions": ["<a href=\"https://maps.google.com/maps/contrib/107037428274082905889\">vicky jha</a>"], "photo_reference": "ATtYBwIwS5B1wG8_t1cYGiI-EletMGoHYGORxTGuDtbd05xkgvabhO0oVcv-ASQw_iDYbo0glN__zfIUn7VKBjcePsBvx6pYSTCdm4L0CJa4hyaLYBW4Ow_W7xuV6cpdyI0wDdKeZ6xe8aD66WXPGiZnKFrKwWZH4p2nyLwFiUkAQ4W3AqCU", "width": 4128}], "place_id": "ChIJx9Buvg-X9jkR7yLAfiYIW_k", "plus_code": {"compound_code": "MC8X+23 Chasnalla, Jharkhand, India", "global_code": "7MM8MC8X+23"}, "rating": 5, "reference": "ChIJx9Buvg-X9jkR7yLAfiYIW_k", "scope": "GOOGLE", "types": ["primary_school", "school", "point_of_interest", "establishment"], "user_ratings_total": 2, "vicinity": "Chasnalla"}, {"business_status": "OPERATIONAL", "geometry": {"location": {"lat": 23.6668083, "lng": 86.4465314}, "viewport": {"northeast": {"lat": 23.6681468802915, "lng": 86.44790018029151}, "southwest": {"lat": 23.6654489197085, "lng": 86.44520221970849}}}, "icon": "https://maps.gstatic.com/mapfiles/place_api/icons/v1/png_71/school-71.png", "name": "Chasnalla More Madrasa Razay e Mustafa", "opening_hours": {"open_now": true}, "place_id": "ChIJiTeFIo6X9jkRSMNcr3cxG5w", "plus_code": {"compound_code": "MC8W+PJ Chasnalla, Jharkhand, India", "global_code": "7MM8MC8W+PJ"}, "rating": 5, "reference": "ChIJiTeFIo6X9jkRSMNcr3cxG5w", "scope": "GOOGLE", "types": ["school", "point_of_interest", "establishment"], "user_ratings_total": 1, "vicinity": "Chasnalla"}, {"business_status": "OPERATIONAL", "geometry": {"location": {"lat": 23.6629379, "lng": 86.457792}, "viewport": {"northeast": {"lat": 23.6643032302915, "lng": 86.45926633029151}, "southwest": {"lat": 23.6616052697085, "lng": 86.45656836970849}}}, "icon": "https://maps.gstatic.com/mapfiles/place_api/icons/v1/png_71/school-71.png", "name": "Kalyaneshwari ITI", "place_id": "ChIJy1dLLryX9jkRPmjq5PNLHiE", "plus_code": {"compound_code": "MF75+54 Pathardih, Jharkhand, India", "global_code": "7MM8MF75+54"}, "reference": "ChIJy1dLLryX9jkRPmjq5PNLHiE", "scope": "GOOGLE", "types": ["school", "point_of_interest", "establishment"], "vicinity": "Chatabad, Kandra"}, {"business_status": "OPERATIONAL", "geometry": {"location": {"lat": 23.6679819, "lng": 86.4448523}, "viewport": {"northeast": {"lat": 23.6693770302915, "lng": 86.4460890302915}, "southwest": {"lat": 23.66667906970849, "lng": 86.44339106970848}}}, "icon": "https://maps.gstatic.com/mapfiles/place_api/icons/v1/png_71/school-71.png", "name": "Kerala Public School", "place_id": "ChIJU9sU8u2X9jkR2mhavlcZOag", "plus_code": {"compound_code": "MC9V+5W Chasnalla, Jharkhand, India", "global_code": "7MM8MC9V+5W"}, "rating": 5, "reference": "ChIJU9sU8u2X9jkR2mhavlcZOag", "scope": "GOOGLE", "types": ["school", "point_of_interest", "establishment"], "user_ratings_total": 2, "vicinity": "Chasnalla"}, {"business_status": "OPERATIONAL", "geometry": {"location": {"lat": 23.660129, "lng": 86.461441}, "viewport": {"northeast": {"lat": 23.6613252302915, "lng": 86.46266303029148}, "southwest": {"lat": 23.6586272697085, "lng": 86.45996506970847}}}, "icon": "https://maps.gstatic.com/mapfiles/place_api/icons/v1/png_71/school-71.png", "name": "TSP Spoken English Institute", "opening_hours": {"open_now": true}, "photos": [{"height": 4160, "html_attributions": ["<a href=\"https://maps.google.com/maps/contrib/105156414761113359059\">THE SUCCESS POINT</a>"], "photo_reference": "ATtYBwJvbQhJyKxiusY6_jmYtvaV9E8wBVoNZFc-5EdELNghn6miyDHNZ64ArGzfVolQkUG6v-m_HmyRef7PgE8RO6iSHNZGg1Rt04vu78tBjziG3PNf2lEhVmqM2Oi0BciDcdgFMrRCN1ef8AmCw8n-uNNSkG_bho7e1hbqtaw4WW-471Zw", "width": 3120}], "place_id": "ChIJl8-ITeKW9jkRydp_TFdTp18", "plus_code": {"compound_code": "MF66+3H Pathardih, Jharkhand, India", "global_code": "7MM8MF66+3H"}, "rating": 4.9, "reference": "ChIJl8-ITeKW9jkRydp_TFdTp18", "scope": "GOOGLE", "types": ["school", "point_of_interest", "establishment"], "user_ratings_total": 25, "vicinity": "Main Road, Kandra Road, Dhanbad - Sindri Road"}, {"business_status": "OPERATIONAL", "geometry": {"location": {"lat": 23.6606088, "lng": 86.4615433}, "viewport": {"northeast": {"lat": 23.6619796302915, "lng": 86.46292958029152}, "southwest": {"lat": 23.65928166970849, "lng": 86.4602316197085}}}, "icon": "https://maps.gstatic.com/mapfiles/place_api/icons/v1/png_71/school-71.png", "name": "Rajkiyakrit Mazdoor Ucch Vidyalaya", "place_id": "ChIJT7p8_-KW9jkRsg7ymxyQm8s", "plus_code": {"compound_code": "MF66+6J Pathardih, Jharkhand, India", "global_code": "7MM8MF66+6J"}, "reference": "ChIJT7p8_-KW9jkRsg7ymxyQm8s", "scope": "GOOGLE", "types": ["school", "point_of_interest", "establishment"], "vicinity": "Sindri, Dhanbad"}, {"business_status": "OPERATIONAL", "geometry": {"location": {"lat": 23.667966, "lng": 86.44176499999999}, "viewport": {"northeast": {"lat": 23.6693150802915, "lng": 86.44311403029151}, "southwest": {"lat": 23.66661711970849, "lng": 86.4404160697085}}}, "icon": "https://maps.gstatic.com/mapfiles/place_api/icons/v1/png_71/school-71.png", "name": "Shivmandir Shiva house", "place_id": "ChIJxa6_nKmX9jkR2YLABlsesKI", "plus_code": {"compound_code": "MC9R+5P Pathardih, Jharkhand, India", "global_code": "7MM8MC9R+5P"}, "reference": "ChIJxa6_nKmX9jkR2YLABlsesKI", "scope": "GOOGLE", "types": ["school", "point_of_interest", "establishment"], "vicinity": "Unnamed Road, Pathardih"}, {"business_status": "OPERATIONAL", "geometry": {"location": {"lat": 23.6606045, "lng": 86.4623252}, "viewport": {"northeast": {"lat": 23.6619372802915, "lng": 86.4636689302915}, "southwest": {"lat": 23.6592393197085, "lng": 86.46097096970848}}}, "icon": "https://maps.gstatic.com/mapfiles/place_api/icons/v1/png_71/school-71.png", "name": "Mazdoor High School,Sindri", "photos": [{"height": 3120, "html_attributions": ["<a href=\"https://maps.google.com/maps/contrib/114473920066553143640\">Rakesh Ojha</a>"], "photo_reference": "ATtYBwJSI8ToYzNtR1ipEc0GU0gLeVc_QpLxsW3L3tgtpcObKDMpk9bg5gWlf-eC636L9X5d-DzPuBz1wS9BG3YiKE0_Slmk1usB6kjYDR4DNZBMADRNtGcEtebqFhqESO1X3bfzchJJnLMoFVjttAq87acBGYda12tsWCXGJ3kXhSuAvKUE", "width": 4160}], "place_id": "ChIJ22cdqOOW9jkREQiMWmmJqFo", "plus_code": {"compound_code": "MF66+6W Rohraband, Jharkhand, India", "global_code": "7MM8MF66+6W"}, "rating": 4.7, "reference": "ChIJ22cdqOOW9jkREQiMWmmJqFo", "scope": "GOOGLE", "types": ["school", "point_of_interest", "establishment"], "user_ratings_total": 6, "vicinity": "Rohraband"}, {"business_status": "OPERATIONAL", "geometry": {"location": {"lat": 23.657587, "lng": 86.4622763}, "viewport": {"northeast": {"lat": 23.6589926802915, "lng": 86.4636371302915}, "southwest": {"lat": 23.65629471970849, "lng": 86.4609391697085}}}, "icon": "https://maps.gstatic.com/mapfiles/place_api/icons/v1/png_71/school-71.png", "name": "Middle School Upper Kandra", "photos": [{"height": 1920, "html_attributions": ["<a href=\"https://maps.google.com/maps/contrib/105750886551077088058\">PRAVEEN KUMAR</a>"], "photo_reference": "ATtYBwJjkg_aoa88GTANsEecZw977B0xNXG7VcIe8_h2W6N2-doSGrUzKwZfZLx16R_bdKL9gx7Ovo1py7sLxR2hnJaJR_7k68BiPPwN8EfRz0XjTcGw0tmLEMrbdKe9T1ODt_EkgAMwsFA0zPcfEszh7VCsU3-YrdS__nhrLTEfmzVS9WPM", "width": 1080}], "place_id": "ChIJW59ofeGW9jkRPVDxCK8EvL8", "plus_code": {"compound_code": "MF56+2W Kandra, Jharkhand, India", "global_code": "7MM8MF56+2W"}, "reference": "ChIJW59ofeGW9jkRPVDxCK8EvL8", "scope": "GOOGLE", "types": ["school", "point_of_interest", "establishment"], "vicinity": "upper sindri, Kandra"}, {"business_status": "OPERATIONAL", "geometry": {"location": {"lat": 23.65978789999999, "lng": 86.4630382}, "viewport": {"northeast": {"lat": 23.6611292802915, "lng": 86.4643828302915}, "southwest": {"lat": 23.6584313197085, "lng": 86.46168486970849}}}, "icon": "https://maps.gstatic.com/mapfiles/place_api/icons/v1/png_71/school-71.png", "name": "Safal India Branch 01", "opening_hours": {"open_now": true}, "photos": [{"height": 1920, "html_attributions": ["<a href=\"https://maps.google.com/maps/contrib/109313815522661651028\">The vlogger krishna</a>"], "photo_reference": "ATtYBwIFceylAKZKL_BMemDZ8ektRmVpCnEw-hNCTclOEFGhhYmfRFO8j-B9y5gy9MbO0yAuaujTI7dOI0IvRiG1NaJc_LCHH_uuaC1EAKHmubjOQb3ztg86jA2vxoqlvEFPHHMbfFAw1O6V-MklHWEXAzecfg3hVhwnh8TZsBNTtT87xb2f", "width": 2560}], "place_id": "ChIJEfbnl-OW9jkReWRGyStgh_M", "plus_code": {"compound_code": "MF57+W6 Rohraband, Jharkhand, India", "global_code": "7MM8MF57+W6"}, "rating": 5, "reference": "ChIJEfbnl-OW9jkReWRGyStgh_M", "scope": "GOOGLE", "types": ["school", "point_of_interest", "establishment"], "user_ratings_total": 2, "vicinity": "Kandra, \u0930\u094b\u0939\u094d\u0930\u093e\u092c\u0902\u0926"}, {"business_status": "OPERATIONAL", "geometry": {"location": {"lat": 23.6549383, "lng": 86.43766269999999}, "viewport": {"northeast": {"lat": 23.6562455302915, "lng": 86.43897393029151}, "southwest": {"lat": 23.6535475697085, "lng": 86.4362759697085}}}, "icon": "https://maps.gstatic.com/mapfiles/place_api/icons/v1/png_71/school-71.png", "name": "Tapan Pathak Tutorial", "place_id": "ChIJpTW25MmX9jkRfQkmJYx5tkE", "plus_code": {"compound_code": "MC3Q+X3 Pathardih, Jharkhand, India", "global_code": "7MM8MC3Q+X3"}, "reference": "ChIJpTW25MmX9jkRfQkmJYx5tkE", "scope": "GOOGLE", "types": ["school", "point_of_interest", "establishment"], "vicinity": "Sudamdih, Pathardih"}, {"business_status": "OPERATIONAL", "geometry": {"location": {"lat": 23.6578104, "lng": 86.46346129999999}, "viewport": {"northeast": {"lat": 23.6592015802915, "lng": 86.4648341302915}, "southwest": {"lat": 23.6565036197085, "lng": 86.46213616970849}}}, "icon": "https://maps.gstatic.com/mapfiles/place_api/icons/v1/png_71/school-71.png", "name": "Safal India", "photos": [{"height": 1920, "html_attributions": ["<a href=\"https://maps.google.com/maps/contrib/109313815522661651028\">The vlogger krishna</a>"], "photo_reference": "ATtYBwJcZisV9STf6l7mAN0GXybJRzDlHXHZmOzCqRHZMHa0DfGgDOuCb-aIqWcHSYc4bcYRaTTVCKat3BqvVNtVH7Rb1aabTSv-7Ihmc5Oy5lQ78hNMwver7kUEzGDJ3mSfjgjnh_NR58eLo89yossPmBaPn4r-4dXagxNTqp84zN7_7swg", "width": 2560}], "place_id": "ChIJZyJX4uOW9jkRwa1PRmGubP0", "plus_code": {"compound_code": "MF57+49 Rohraband, Jharkhand, India", "global_code": "7MM8MF57+49"}, "rating": 4.5, "reference": "ChIJZyJX4uOW9jkRwa1PRmGubP0", "scope": "GOOGLE", "types": ["school", "point_of_interest", "establishment"], "user_ratings_total": 2, "vicinity": "Rohraband"}, {"business_status": "OPERATIONAL", "geometry": {"location": {"lat": 23.6605139, "lng": 86.4362486}, "viewport": {"northeast": {"lat": 23.6618888802915, "lng": 86.43762798029151}, "southwest": {"lat": 23.6591909197085, "lng": 86.43493001970849}}}, "icon": "https://maps.gstatic.com/mapfiles/place_api/icons/v1/png_71/school-71.png", "name": "Campus Tailoring", "place_id": "ChIJ49kJbXuX9jkRGetJ27qOY8Q", "plus_code": {"compound_code": "MC6P+6F Pathardih, Jharkhand, India", "global_code": "7MM8MC6P+6F"}, "reference": "ChIJ49kJbXuX9jkRGetJ27qOY8Q", "scope": "GOOGLE", "types": ["school", "point_of_interest", "establishment"], "vicinity": "Sudamdih, Pathardih"}], "status": "OK"}