{"html_attributions": [], "results": [{"business_status": "OPERATIONAL", "geometry": {"location": {"lat": 23.7587395, "lng": 86.4449899}, "viewport": {"northeast": {"lat": 23.7601537802915, "lng": 86.4463948802915}, "southwest": {"lat": 23.75745581970849, "lng": 86.44369691970849}}}, "icon": "https://maps.gstatic.com/mapfiles/place_api/icons/v1/png_71/school-71.png", "name": "amtal high school", "photos": [{"height": 720, "html_attributions": ["<a href=\"https://maps.google.com/maps/contrib/113668870954187173845\">Ajay Roy</a>"], "photo_reference": "ATtYBwJ4A24jHO-ODI-RDMlpSIc6ZsqJ9k8OvsdTnvNli9-wTArujxPm9l8NJGPY_iRaX3f2iQRZsAd89wkq5urK4Jnvd8KnBC9KYhQKNqPBb1O7iVQk0Mr1T9T9YwAFekR4qWWR-MT9MFqKYoWyz_39npO9srf39SMq6Uk09V8YcKDYCi3o", "width": 1280}], "place_id": "ChIJW_ogDBq99jkRUwDHOQWPqKo", "plus_code": {"compound_code": "QC5V+FX Amtal, Jharkhand, India", "global_code": "7MM8QC5V+FX"}, "rating": 4, "reference": "ChIJW_ogDBq99jkRUwDHOQWPqKo", "scope": "GOOGLE", "types": ["school", "point_of_interest", "establishment"], "user_ratings_total": 5, "vicinity": "Amtal"}, {"business_status": "OPERATIONAL", "geometry": {"location": {"lat": 23.7653938, "lng": 86.4513666}, "viewport": {"northeast": {"lat": 23.7667330802915, "lng": 86.4527688302915}, "southwest": {"lat": 23.7640351197085, "lng": 86.4500708697085}}}, "icon": "https://maps.gstatic.com/mapfiles/place_api/icons/v1/png_71/school-71.png", "name": "Upgraded Middle School Amtal (khadakendra)", "place_id": "ChIJSWfFdgO99jkR_UtWVCHBL6k", "plus_code": {"compound_code": "QF82+5G Amtal, Jharkhand, India", "global_code": "7MM8QF82+5G"}, "rating": 4, "reference": "ChIJSWfFdgO99jkR_UtWVCHBL6k", "scope": "GOOGLE", "types": ["school", "point_of_interest", "establishment"], "user_ratings_total": 1, "vicinity": "Amtal"}, {"business_status": "OPERATIONAL", "geometry": {"location": {"lat": 23.7558073, "lng": 86.45406229999999}, "viewport": {"northeast": {"lat": 23.7574263302915, "lng": 86.4553483802915}, "southwest": {"lat": 23.7547283697085, "lng": 86.45265041970849}}}, "icon": "https://maps.gstatic.com/mapfiles/place_api/icons/v1/png_71/school-71.png", "name": "an", "opening_hours": {"open_now": true}, "place_id": "ChIJQevX7jq99jkRJXOqehrXOUU", "plus_code": {"compound_code": "QF43+8J Amtal, Jharkhand, India", "global_code": "7MM8QF43+8J"}, "rating": 5, "reference": "ChIJQevX7jq99jkRJXOqehrXOUU", "scope": "GOOGLE", "types": ["school", "point_of_interest", "establishment"], "user_ratings_total": 3, "vicinity": "near kali mandir, amtal panjniyatand near bangali basti, near kali mandir"}, {"business_status": "OPERATIONAL", "geometry": {"location": {"lat": 23.7654385, "lng": 86.4514039}, "viewport": {"northeast": {"lat": 23.7667777302915, "lng": 86.45279333029151}, "southwest": {"lat": 23.76407976970849, "lng": 86.4500953697085}}}, "icon": "https://maps.gstatic.com/mapfiles/place_api/icons/v1/png_71/school-71.png", "name": "Kharakend,Amtal Govt. School", "opening_hours": {"open_now": false}, "place_id": "ChIJd1eZdgO99jkRYasxervy0yQ", "plus_code": {"compound_code": "QF82+5H Amtal, Jharkhand, India", "global_code": "7MM8QF82+5H"}, "rating": 5, "reference": "ChIJd1eZdgO99jkRYasxervy0yQ", "scope": "GOOGLE", "types": ["school", "point_of_interest", "establishment"], "user_ratings_total": 1, "vicinity": "Amtal"}, {"business_status": "OPERATIONAL", "geometry": {"location": {"lat": 23.754346, "lng": 86.4499463}, "viewport": {"northeast": {"lat": 23.7556990802915, "lng": 86.4512866302915}, "southwest": {"lat": 23.75300111970849, "lng": 86.44858866970849}}}, "icon": "https://maps.gstatic.com/mapfiles/place_api/icons/v1/png_71/school-71.png", "name": "Bikram Paul", "place_id": "ChIJ5zaSOw699jkRz6_q_ap4Yd4", "plus_code": {"compound_code": "QC3X+PX Amtal, Jharkhand, India", "global_code": "7MM8QC3X+PX"}, "rating": 5, "reference": "ChIJ5zaSOw699jkRz6_q_ap4Yd4", "scope": "GOOGLE", "types": ["school", "point_of_interest", "establishment"], "user_ratings_total": 1, "vicinity": "kuiya, Amtal"}, {"business_status": "OPERATIONAL", "geometry": {"location": {"lat": 23.754346, "lng": 86.4499463}, "viewport": {"northeast": {"lat": 23.7556990802915, "lng": 86.4512866302915}, "southwest": {"lat": 23.75300111970849, "lng": 86.44858866970849}}}, "icon": "https://maps.gstatic.com/mapfiles/place_api/icons/v1/png_71/school-71.png", "name": "Kali Mandir Kuiya Basti", "photos": [{"height": 4160, "html_attributions": ["<a href=\"https://maps.google.com/maps/contrib/109269000691196623048\">Prakash Kushwaha</a>"], "photo_reference": "ATtYBwJLycCYFfX0a5mupTefeyU8K7zEfTUdM5j9yMLS_fc2860jbydw27oZMBohvWOw24tnt1wbli-ewVMXd1OxPVsXJf68J5omx2jX9HgIBOhC1G9nt-qDwLnHrPSrH_JDoY9DPQ4ElLlfsVyiCxwavnHZ5xUx33yZLopP8QYL5tyUjTG-", "width": 3120}], "place_id": "ChIJ5zaSOw699jkRlXa8LGniCRg", "plus_code": {"compound_code": "QC3X+PX Kuia, Jharkhand, India", "global_code": "7MM8QC3X+PX"}, "rating": 4, "reference": "ChIJ5zaSOw699jkRlXa8LGniCRg", "scope": "GOOGLE", "types": ["school", "point_of_interest", "establishment"], "user_ratings_total": 2, "vicinity": "Kuia"}, {"business_status": "OPERATIONAL", "geometry": {"location": {"lat": 23.7655229, "lng": 86.4512926}, "viewport": {"northeast": {"lat": 23.7667954302915, "lng": 86.45261303029149}, "southwest": {"lat": 23.7640974697085, "lng": 86.44991506970848}}}, "icon": "https://maps.gstatic.com/mapfiles/place_api/icons/v1/png_71/school-71.png", "name": "Amtal primary School", "place_id": "ChIJtQmCq2G99jkRVONMwFYCUrc", "plus_code": {"compound_code": "QF82+6G Amtal, Jharkhand, India", "global_code": "7MM8QF82+6G"}, "reference": "ChIJtQmCq2G99jkRVONMwFYCUrc", "scope": "GOOGLE", "types": ["school", "point_of_interest", "establishment"], "vicinity": "Amtal"}, {"business_status": "OPERATIONAL", "geometry": {"location": {"lat": 23.7508413, "lng": 86.44529829999999}, "viewport": {"northeast": {"lat": 23.7521711802915, "lng": 86.4464806802915}, "southwest": {"lat": 23.7494732197085, "lng": 86.4437827197085}}}, "icon": "https://maps.gstatic.com/mapfiles/place_api/icons/v1/png_71/school-71.png", "name": "Upgraded Middle School Kuiyan", "place_id": "ChIJVVVVlRO99jkRW8n0NcFjnVA", "plus_code": {"compound_code": "QC2W+84 Kuia, Jharkhand, India", "global_code": "7MM8QC2W+84"}, "rating": 4, "reference": "ChIJVVVVlRO99jkRW8n0NcFjnVA", "scope": "GOOGLE", "types": ["school", "point_of_interest", "establishment"], "user_ratings_total": 1, "vicinity": "Kuia"}, {"business_status": "OPERATIONAL", "geometry": {"location": {"lat": 23.7694992, "lng": 86.4552707}, "viewport": {"northeast": {"lat": 23.7709052302915, "lng": 86.4566902802915}, "southwest": {"lat": 23.7682072697085, "lng": 86.45399231970849}}}, "icon": "https://maps.gstatic.com/mapfiles/place_api/icons/v1/png_71/school-71.png", "name": "East End Convent", "opening_hours": {"open_now": false}, "photos": [{"height": 2322, "html_attributions": ["<a href=\"https://maps.google.com/maps/contrib/113007293007216146944\">Rajan Kr. Gupta Roll 13</a>"], "photo_reference": "ATtYBwLtzezqsws69SvCSvGzF7_7Ht87l9VjW8jJMSFO1FkmcZgui7FuZGnGYvhJ9oja3PrvMQBJQS9St33XRnXro_BT_gac2Eimelr0Fn0SZTMfFYau9K2g25AKZSw3pJP2GV2jvGR32jSY-UDKLm2XNk24LJfcZ4r9voAiqnMMbdDx7oGU", "width": 4128}], "place_id": "ChIJiZ4y5gG99jkRvkesliv3qPc", "plus_code": {"compound_code": "QF94+Q4 Amtal, Jharkhand, India", "global_code": "7MM8QF94+Q4"}, "rating": 3.9, "reference": "ChIJiZ4y5gG99jkRvkesliv3qPc", "scope": "GOOGLE", "types": ["school", "point_of_interest", "establishment"], "user_ratings_total": 8, "vicinity": "shaharpura, Amtal"}], "status": "OK"}