{"html_attributions": [], "next_page_token": "ATtYBwIBLPK35iLc2gJIKS5dKSsIRWnwwloK_w_trl1gV0hpYtPIFQ44Db0Y4nWE1nXbEiqHtrb1HQCCq3-LQKDV4IdXe-4sVI0cWUhsCbGO0K8HhCn0bfWYfgGp4EH8ESFAONuvSougmJow6P2qN8xeewR8HApMEx8vI6rH_HJYtXS45MhX8VA1V960JarZqeQKzQNA7DCdcyRJq4OU0ICG9eJw0kvaAxRWrCZjmLeb5EbtqMhe64c77uEcbjE8hHSuhJMV69NCNqUm5AFOZ99M0K6s3QCC7IAhTMa-KUTJ-lfnfk_2QqimOjp1LnjaBbdSxDs-zY9ASj9K_CK0Jp1kMMaqGgCPLGqKU8BKGXLllnMSt0uxRCgFpoMK4zlvPhj4dfGw6V4WFD_-uP04HxiKihm_5_VNP26VyCqlZS165KSn_4YqM8b4TcWtw2sIRoeHYu78UMtn-NlxmavjW_tzBDfU4dy_EBY_ZHhP6mwUdBCysk8LlwJhjXR55_r94sQBbuTva-TSFP0SemUQb-QdF55DdEWmtOykHKnNPAcJYrg31PQSOKID9whSK58038Z9oX60hW4q8-YybUHxBrNqIfwwpWVPny2dvVBxuTMSCX6rO8VZ138jAbhP1xKbG5DXgkJA3n-h", "results": [{"business_status": "OPERATIONAL", "geometry": {"location": {"lat": 23.8148581, "lng": 86.45162189999999}, "viewport": {"northeast": {"lat": 23.8161417802915, "lng": 86.4529417302915}, "southwest": {"lat": 23.8134438197085, "lng": 86.45024376970849}}}, "icon": "https://maps.gstatic.com/mapfiles/place_api/icons/v1/png_71/school-71.png", "name": "Smart Kids", "opening_hours": {"open_now": true}, "photos": [{"height": 401, "html_attributions": ["<a href=\"https://maps.google.com/maps/contrib/104225040897627401714\">Smart Kids</a>"], "photo_reference": "ATtYBwIWgvcJSIDp5T86Sgc4R7NWo9cdiujadn5714FDhfZ6KhdBnsbMI7VkigoIguGKRLZr5ZeqYaiMALeGZZjnooyu8vFMP8CYsLaI91GmsFeLUAt9nQq_rI9uCZNOGItsTB_vv6Ptbw44xeGU_yLYJQU1_Auqy9TyQaO5gzR1dhdPDsCO", "width": 720}], "place_id": "ChIJt_gFUNS99jkRx-Nqjkza6Qs", "plus_code": {"compound_code": "RF72+WJ Dhanbad, Jharkhand, India", "global_code": "7MM8RF72+WJ"}, "rating": 5, "reference": "ChIJt_gFUNS99jkRx-Nqjkza6Qs", "scope": "GOOGLE", "types": ["school", "point_of_interest", "establishment"], "user_ratings_total": 1, "vicinity": "opposite dps school, New Karmik Nagar Road, Lohar Kulli, Dhanbad"}, {"business_status": "OPERATIONAL", "geometry": {"location": {"lat": 23.8195811, "lng": 86.4433095}, "viewport": {"northeast": {"lat": 23.8209223802915, "lng": 86.44464568029152}, "southwest": {"lat": 23.8182244197085, "lng": 86.44194771970851}}}, "icon": "https://maps.gstatic.com/mapfiles/place_api/icons/v1/png_71/school-71.png", "name": "Kartavya Talab Centre", "opening_hours": {"open_now": false}, "place_id": "ChIJwZrqkWG79jkRAFBPyVxzDKA", "plus_code": {"compound_code": "RC9V+R8 Chanchani Colony, Dhanbad, Jharkhand, India", "global_code": "7MM8RC9V+R8"}, "rating": 5, "reference": "ChIJwZrqkWG79jkRAFBPyVxzDKA", "scope": "GOOGLE", "types": ["school", "point_of_interest", "establishment"], "user_ratings_total": 5, "vicinity": "Unnamed Road, Lahbani Dhaiya, Chanchani Colony"}, {"business_status": "OPERATIONAL", "geometry": {"location": {"lat": 23.8195705, "lng": 86.44322559999999}, "viewport": {"northeast": {"lat": 23.8209548302915, "lng": 86.4445599802915}, "southwest": {"lat": 23.81825686970849, "lng": 86.44186201970848}}}, "icon": "https://maps.gstatic.com/mapfiles/place_api/icons/v1/png_71/school-71.png", "name": "Gyanodaya Public School", "opening_hours": {"open_now": true}, "photos": [{"height": 1080, "html_attributions": ["<a href=\"https://maps.google.com/maps/contrib/110518396242470691745\">Marvel Cinematic Universe</a>"], "photo_reference": "ATtYBwKiM0eFn3Plf1j4exIGHFcbNKeZL9AkkOIWvJCSZqjoSMfFiS7rF4HZzTd44feB8qeqR43Oj0MRC_xl5uLRqTFIHeq1I1D0_L6wQT4qd22yamrxuHAMeDVTVC_yM2JoQy_rwh7wgsoowz0UANK04-6OzJlDODSmiQph1G3FRoXXTYub", "width": 1920}], "place_id": "ChIJP4hOVgW79jkR3RI7oUw5ymA", "plus_code": {"compound_code": "RC9V+R7 Dhanbad, Jharkhand, India", "global_code": "7MM8RC9V+R7"}, "rating": 5, "reference": "ChIJP4hOVgW79jkR3RI7oUw5ymA", "scope": "GOOGLE", "types": ["school", "point_of_interest", "establishment"], "user_ratings_total": 3, "vicinity": "Lahabani Dhaiya , near kali mandir , Gyanodaya public school, Dhanbad"}, {"business_status": "OPERATIONAL", "geometry": {"location": {"lat": 23.8215846, "lng": 86.44218450000001}, "viewport": {"northeast": {"lat": 23.8229477302915, "lng": 86.4435062302915}, "southwest": {"lat": 23.8202497697085, "lng": 86.4408082697085}}}, "icon": "https://maps.gstatic.com/mapfiles/place_api/icons/v1/png_71/school-71.png", "name": "Naya Pradyamik Vidyalaya", "place_id": "ChIJnSaXEGG79jkR6Yo6X89YAzY", "plus_code": {"compound_code": "RCCR+JV Dhanbad, Jharkhand, India", "global_code": "7MM8RCCR+JV"}, "reference": "ChIJnSaXEGG79jkR6Yo6X89YAzY", "scope": "GOOGLE", "types": ["school", "point_of_interest", "establishment"], "vicinity": "Chanchani Colony, Dhanbad"}, {"business_status": "OPERATIONAL", "geometry": {"location": {"lat": 23.8188604, "lng": 86.4420068}, "viewport": {"northeast": {"lat": 23.8202086802915, "lng": 86.44329693029151}, "southwest": {"lat": 23.8175107197085, "lng": 86.44059896970849}}}, "icon": "https://maps.gstatic.com/mapfiles/place_api/icons/v1/png_71/school-71.png", "name": "Dhaiya Public School", "place_id": "ChIJb9TkyGG79jkRIr9SZ3kgwsg", "plus_code": {"compound_code": "RC9R+GR Dhanbad, Jharkhand, India", "global_code": "7MM8RC9R+GR"}, "rating": 5, "reference": "ChIJb9TkyGG79jkRIr9SZ3kgwsg", "scope": "GOOGLE", "types": ["school", "point_of_interest", "establishment"], "user_ratings_total": 2, "vicinity": "Lahbani Dhaiya, Chanchani Colony, Dhanbad"}, {"business_status": "OPERATIONAL", "geometry": {"location": {"lat": 23.8218138, "lng": 86.4421158}, "viewport": {"northeast": {"lat": 23.8231191802915, "lng": 86.4435450802915}, "southwest": {"lat": 23.8204212197085, "lng": 86.4408471197085}}}, "icon": "https://maps.gstatic.com/mapfiles/place_api/icons/v1/png_71/school-71.png", "name": "Bhelatand Primary School", "place_id": "ChIJ3fzbGWG79jkRQq5v6Uhibe8", "plus_code": {"compound_code": "RCCR+PR Dhanbad, Jharkhand, India", "global_code": "7MM8RCCR+PR"}, "reference": "ChIJ3fzbGWG79jkRQq5v6Uhibe8", "scope": "GOOGLE", "types": ["school", "point_of_interest", "establishment"], "vicinity": "Chanchani Colony, Dhanbad"}, {"business_status": "OPERATIONAL", "geometry": {"location": {"lat": 23.816074, "lng": 86.456989}, "viewport": {"northeast": {"lat": 23.8175058802915, "lng": 86.4584339302915}, "southwest": {"lat": 23.8148079197085, "lng": 86.4557359697085}}}, "icon": "https://maps.gstatic.com/mapfiles/place_api/icons/v1/png_71/school-71.png", "name": "GOLDEN DAISY PUBLIC SCHOOL", "opening_hours": {"open_now": false}, "photos": [{"height": 2219, "html_attributions": ["<a href=\"https://maps.google.com/maps/contrib/115253317782397968439\">GOLDEN DAISY PUBLIC SCHOOL</a>"], "photo_reference": "ATtYBwL7zG4xbIomns51orhEuqwu-AsmvLoukGYYNnySjkeeSN-fWPxzJGuXUDAFgWDkwVrx6gQqzY4TdAWeTUYiQvUnm8Gm0AlGidKGEiFdHK1Svtf8yY8Pmj-JrpGDjZPHyPGO3VvJ7OIieaTAO3TGRuAOCIvpRH6_7ufTg6PMB0UV0GXb", "width": 3264}], "place_id": "ChIJe7OlToC89jkRF-gxHStx9k0", "plus_code": {"compound_code": "RF84+CQ Saraidhella, Jharkhand, India", "global_code": "7MM8RF84+CQ"}, "rating": 4.6, "reference": "ChIJe7OlToC89jkRF-gxHStx9k0", "scope": "GOOGLE", "types": ["school", "point_of_interest", "establishment"], "user_ratings_total": 11, "vicinity": "New Bank Colony Street, Steel Gate, Lohar Kulli, Saraidhella"}, {"business_status": "OPERATIONAL", "geometry": {"location": {"lat": 23.813961, "lng": 86.454944}, "viewport": {"northeast": {"lat": 23.8152978302915, "lng": 86.45632168029151}, "southwest": {"lat": 23.8125998697085, "lng": 86.4536237197085}}}, "icon": "https://maps.gstatic.com/mapfiles/place_api/icons/v1/png_71/school-71.png", "name": "D.A.V. High School", "opening_hours": {"open_now": true}, "photos": [{"height": 1932, "html_attributions": ["<a href=\"https://maps.google.com/maps/contrib/109705187727563859724\">Bikram Rawani</a>"], "photo_reference": "ATtYBwJu0lL8vlxzOWOf2Nz1NPXBTqImkR0YebfjWPaW2DPpN1-Ujsfmovs7nv2t0lZFK_Dr8SOJ6-AaulJMIWHvY-czJkNMRf425-O2vT2EVo9bWYoZw4l-1jaVZ0tFcIlltuF1REJ2W80ueoGx5CFSKslqv6pis8YVgrhl5BLxbECMdUop", "width": 2576}], "place_id": "ChIJB079boG89jkRAGVa3-SvIwY", "plus_code": {"compound_code": "RF73+HX Dhanbad, Jharkhand, India", "global_code": "7MM8RF73+HX"}, "rating": 2.8, "reference": "ChIJB079boG89jkRAGVa3-SvIwY", "scope": "GOOGLE", "types": ["secondary_school", "school", "point_of_interest", "establishment"], "user_ratings_total": 12, "vicinity": "Lohar Kulli, Dhanbad"}, {"business_status": "OPERATIONAL", "geometry": {"location": {"lat": 23.8126535, "lng": 86.452961}, "viewport": {"northeast": {"lat": 23.8140097802915, "lng": 86.45429318029149}, "southwest": {"lat": 23.8113118197085, "lng": 86.45159521970848}}}, "icon": "https://maps.gstatic.com/mapfiles/place_api/icons/v1/png_71/school-71.png", "name": "Jack & Jill play school", "photos": [{"height": 2322, "html_attributions": ["<a href=\"https://maps.google.com/maps/contrib/117622381577104804185\">SANJAY KUMAR</a>"], "photo_reference": "ATtYBwI4cGnm2B-zcKnAmKCT3QjLae1klJBPjTWUX36Uxd_ScXSTgmuDb0BBj6Tjqhec11qgTFJqBiQeVss7FTLHqb4b1inDQtVYb4PLtTSYqUyy0cUml6saWxOzeSFDrri6HxOr5Mw1TMyhL_bFt44e3JgPrJTljNOqVC2I9SYSxD-uKj0", "width": 4128}], "place_id": "ChIJeWhE-IS99jkRpzWdiacPELU", "plus_code": {"compound_code": "RF73+35 Saraidhella, Jharkhand, India", "global_code": "7MM8RF73+35"}, "reference": "ChIJeWhE-IS99jkRpzWdiacPELU", "scope": "GOOGLE", "types": ["school", "point_of_interest", "establishment"], "vicinity": "Saw Para, Saraidhella"}, {"business_status": "OPERATIONAL", "geometry": {"location": {"lat": 23.8190871, "lng": 86.4412541}, "viewport": {"northeast": {"lat": 23.8204128802915, "lng": 86.4426498802915}, "southwest": {"lat": 23.8177149197085, "lng": 86.43995191970849}}}, "icon": "https://maps.gstatic.com/mapfiles/place_api/icons/v1/png_71/school-71.png", "name": "Aganbari Kendra", "place_id": "ChIJraXO3wu79jkR_6rMb5NpSTg", "plus_code": {"compound_code": "RC9R+JG Dhanbad, Jharkhand, India", "global_code": "7MM8RC9R+JG"}, "rating": 3, "reference": "ChIJraXO3wu79jkR_6rMb5NpSTg", "scope": "GOOGLE", "types": ["school", "point_of_interest", "establishment"], "user_ratings_total": 1, "vicinity": "Unnamed Road, Lahbani Dhaiya, Chanchani Colony, Dhanbad"}, {"business_status": "OPERATIONAL", "geometry": {"location": {"lat": 23.81357089999999, "lng": 86.4552781}, "viewport": {"northeast": {"lat": 23.8148739802915, "lng": 86.4566142802915}, "southwest": {"lat": 23.8121760197085, "lng": 86.4539163197085}}}, "icon": "https://maps.gstatic.com/mapfiles/place_api/icons/v1/png_71/school-71.png", "name": "Coal field academy", "photos": [{"height": 1080, "html_attributions": ["<a href=\"https://maps.google.com/maps/contrib/109501658566898448116\">Abhay hello</a>"], "photo_reference": "ATtYBwKKRN6iuEETlY_JT95PuDcB-EJsOhZjHsCyNiWaZcKGAGWR5EO0z7HmtYhIFP2lgVcm4ykJp82M-i4qV-dqDRG7GEuNY9BiQKPy36Yv8kk5h_U3kgjsRv_QZ54hrnnJ7VfaLsgjDsqdly859ortE_ox_GbaZX3CHxegkjENC8P3SpRl", "width": 2160}], "place_id": "ChIJP9S5aoG89jkREWkX3I-Y39c", "plus_code": {"compound_code": "RF74+C4 Dhanbad, Jharkhand, India", "global_code": "7MM8RF74+C4"}, "rating": 4.2, "reference": "ChIJP9S5aoG89jkREWkX3I-Y39c", "scope": "GOOGLE", "types": ["school", "point_of_interest", "establishment"], "user_ratings_total": 10, "vicinity": "Kusum Vihar, Murli Nagar, Dhanbad"}, {"business_status": "OPERATIONAL", "geometry": {"location": {"lat": 23.812763, "lng": 86.45413839999999}, "viewport": {"northeast": {"lat": 23.8140965802915, "lng": 86.45552568029149}, "southwest": {"lat": 23.8113986197085, "lng": 86.45282771970848}}}, "icon": "https://maps.gstatic.com/mapfiles/place_api/icons/v1/png_71/school-71.png", "name": "\ud83c\udd70\ufe0e\ud83c\udd71\ufe0e\ud83c\udd77\ufe0e\ud83c\udd70\ufe0e\ud83c\udd88\ufe0e \ud83c\udd70\ufe0e.\ud83c\udd7a\ufe0e", "opening_hours": {"open_now": true}, "place_id": "ChIJm7wQgDS99jkRvMM8P3lQabI", "plus_code": {"compound_code": "RF73+4M Dhanbad, Jharkhand, India", "global_code": "7MM8RF73+4M"}, "reference": "ChIJm7wQgDS99jkRvMM8P3lQabI", "scope": "GOOGLE", "types": ["primary_school", "school", "point_of_interest", "establishment"], "vicinity": "Rajganj rathtand"}, {"business_status": "OPERATIONAL", "geometry": {"location": {"lat": 23.816177, "lng": 86.458263}, "viewport": {"northeast": {"lat": 23.8174975802915, "lng": 86.4596987302915}, "southwest": {"lat": 23.8147996197085, "lng": 86.45700076970849}}}, "icon": "https://maps.gstatic.com/mapfiles/place_api/icons/v1/png_71/school-71.png", "name": "Infant Jesus Kids", "place_id": "ChIJM58FbIC89jkRemlH4RLgyx8", "plus_code": {"compound_code": "RF85+F8 Saraidhella, Jharkhand, India", "global_code": "7MM8RF85+F8"}, "rating": 3.8, "reference": "ChIJM58FbIC89jkRemlH4RLgyx8", "scope": "GOOGLE", "types": ["school", "point_of_interest", "establishment"], "user_ratings_total": 5, "vicinity": "Lohar Kulli, Saraidhella"}, {"business_status": "OPERATIONAL", "geometry": {"location": {"lat": 23.8246764, "lng": 86.4418299}, "viewport": {"northeast": {"lat": 23.8260048802915, "lng": 86.4431833302915}, "southwest": {"lat": 23.8233069197085, "lng": 86.4404853697085}}}, "icon": "https://maps.gstatic.com/mapfiles/place_api/icons/v1/png_71/school-71.png", "name": "VIDHAY BHARTI SCHOOL", "photos": [{"height": 1080, "html_attributions": ["<a href=\"https://maps.google.com/maps/contrib/101392017758124088477\">Chandra Prakash Merotha</a>"], "photo_reference": "ATtYBwKAmNJ3rWCJVFSYX0OhDHn4Jfi2TzNH4N6QGih6jGB_A4lwWZir-v9oN1z-iA45OV9iiONMh5xqgotPYRmyIbtQ6q49y2Dd9aNgSgIOqCa6FUsy_oi0jdCFhRnNZmGRTsDUsrEN2NDuD1aRdCDI7r5hN8t2aJw_7l1cW879tQAxG4nk", "width": 1920}], "place_id": "ChIJCZxaiBi79jkRgKlpoc6nvH8", "plus_code": {"compound_code": "RCFR+VP Dhaiya, Dhanbad, Jharkhand, India", "global_code": "7MM8RCFR+VP"}, "rating": 1.3, "reference": "ChIJCZxaiBi79jkRgKlpoc6nvH8", "scope": "GOOGLE", "types": ["school", "point_of_interest", "establishment"], "user_ratings_total": 3, "vicinity": "Dhaiya, Bheletand"}, {"business_status": "OPERATIONAL", "geometry": {"location": {"lat": 23.823923, "lng": 86.44134729999999}, "viewport": {"northeast": {"lat": 23.8252651302915, "lng": 86.4426972302915}, "southwest": {"lat": 23.8225671697085, "lng": 86.4399992697085}}}, "icon": "https://maps.gstatic.com/mapfiles/place_api/icons/v1/png_71/school-71.png", "name": "Foundation Public School", "opening_hours": {"open_now": false}, "photos": [{"height": 4128, "html_attributions": ["<a href=\"https://maps.google.com/maps/contrib/101935216045841403136\">Jai Singh</a>"], "photo_reference": "ATtYBwKIQtg-Pixwnqb1KZZRwpPdmGp3Vz2WnFuUM5Ty0MXA79GUuP-Dj1zBK0eMZB1TLscBjyKSaeCB7Gr2Ffo1E7jy32uzEsNKbYk0UE2F_Tc8DxoBVlRG9uKySwkgwO_aZGRb4QhlIOzs-meEunmFoxuOY7zWCqw3euOzQJHPSo8WTPmV", "width": 3096}], "place_id": "ChIJr1KgoD-79jkR2OSAyNOBs-k", "plus_code": {"compound_code": "RCFR+HG Dhanbad, Jharkhand, India", "global_code": "7MM8RCFR+HG"}, "rating": 4.6, "reference": "ChIJr1KgoD-79jkR2OSAyNOBs-k", "scope": "GOOGLE", "types": ["school", "point_of_interest", "establishment"], "user_ratings_total": 11, "vicinity": "Unnamed Road, Chanchani Colony, Dhanbad"}, {"business_status": "OPERATIONAL", "geometry": {"location": {"lat": 23.811555, "lng": 86.4528047}, "viewport": {"northeast": {"lat": 23.8128124302915, "lng": 86.4541509802915}, "southwest": {"lat": 23.81011446970849, "lng": 86.4514530197085}}}, "icon": "https://maps.gstatic.com/mapfiles/place_api/icons/v1/png_71/school-71.png", "name": "IITians HUB", "opening_hours": {"open_now": false}, "photos": [{"height": 984, "html_attributions": ["<a href=\"https://maps.google.com/maps/contrib/105284020333762671517\">IITians HUB</a>"], "photo_reference": "ATtYBwKX9TnA5g77b3U9TkOXSRlrAfg3ZHVARI2PsRAHEIJ6eWeGd8AnIiXqgwv0UDctjkvNmQjxWxaB_z00zz61AMR3KdbvAvmeRtbChpxisj6fXk-5yTBeLyvT_CMcJItbTeBLGM4StUvpgjE9XTuVIOMzMmcbVyQRglbju-B60e_LA_gt", "width": 984}], "place_id": "ChIJ53efdIS89jkRJEXoyI5zaCc", "plus_code": {"compound_code": "RF63+J4 Dhanbad, Jharkhand, India", "global_code": "7MM8RF63+J4"}, "rating": 4.8, "reference": "ChIJ53efdIS89jkRJEXoyI5zaCc", "scope": "GOOGLE", "types": ["school", "point_of_interest", "establishment"], "user_ratings_total": 21, "vicinity": "Dena bank, Dhanbad"}, {"business_status": "OPERATIONAL", "geometry": {"location": {"lat": 23.8116128, "lng": 86.45340019999999}, "viewport": {"northeast": {"lat": 23.8129718302915, "lng": 86.45485238029151}, "southwest": {"lat": 23.8102738697085, "lng": 86.45215441970849}}}, "icon": "https://maps.gstatic.com/mapfiles/place_api/icons/v1/png_71/school-71.png", "name": "Sagar Kumar Das", "place_id": "ChIJQ9ZaYlW99jkR3V05ZjqKzUQ", "plus_code": {"compound_code": "RF63+J9 Saw Para, Jharkhand, India", "global_code": "7MM8RF63+J9"}, "reference": "ChIJQ9ZaYlW99jkR3V05ZjqKzUQ", "scope": "GOOGLE", "types": ["school", "point_of_interest", "establishment"], "vicinity": "Saw Para"}, {"business_status": "OPERATIONAL", "geometry": {"location": {"lat": 23.81137289999999, "lng": 86.4527603}, "viewport": {"northeast": {"lat": 23.8127533802915, "lng": 86.4541098302915}, "southwest": {"lat": 23.81005541970849, "lng": 86.4514118697085}}}, "icon": "https://maps.gstatic.com/mapfiles/place_api/icons/v1/png_71/school-71.png", "name": "Montfort Academy Amaghata", "place_id": "ChIJ_fO46Ge99jkRjDKxwZfxJOo", "plus_code": {"compound_code": "RF63+G4 Dhanbad, Jharkhand, India", "global_code": "7MM8RF63+G4"}, "reference": "ChIJ_fO46Ge99jkRjDKxwZfxJOo", "scope": "GOOGLE", "types": ["secondary_school", "school", "point_of_interest", "establishment"], "vicinity": "Lal Bangla, Govindpur Road, Dhanbad"}, {"business_status": "OPERATIONAL", "geometry": {"location": {"lat": 23.81137289999999, "lng": 86.4527603}, "viewport": {"northeast": {"lat": 23.8127533802915, "lng": 86.4541098302915}, "southwest": {"lat": 23.81005541970849, "lng": 86.4514118697085}}}, "icon": "https://maps.gstatic.com/mapfiles/place_api/icons/v1/png_71/school-71.png", "name": "2342 upgraded high school pathiria govindpur", "place_id": "ChIJ-SGqESi99jkRe_VHlPA_ISk", "plus_code": {"compound_code": "RF63+G4 Dhanbad, Jharkhand, India", "global_code": "7MM8RF63+G4"}, "rating": 1, "reference": "ChIJ-SGqESi99jkRe_VHlPA_ISk", "scope": "GOOGLE", "types": ["school", "point_of_interest", "establishment"], "user_ratings_total": 2, "vicinity": "2342 upgraded high school pathiria, Govindpur Road, Dhanbad"}, {"business_status": "OPERATIONAL", "geometry": {"location": {"lat": 23.810893, "lng": 86.450904}, "viewport": {"northeast": {"lat": 23.8122615802915, "lng": 86.45228753029149}, "southwest": {"lat": 23.8095636197085, "lng": 86.44958956970848}}}, "icon": "https://maps.gstatic.com/mapfiles/place_api/icons/v1/png_71/school-71.png", "name": "Kendriya Vidhalaya No 2", "photos": [{"height": 2250, "html_attributions": ["<a href=\"https://maps.google.com/maps/contrib/116380552618833434323\">Ranjeet Sharma</a>"], "photo_reference": "ATtYBwJV9IbbVndrg-oPdEFek-UYHi75VOjqiWD9X_JV3hf94We713T3oImEjtkUcM64kwgtvBpsNiNTfvo9L8cIsJ0qbiclxxX6i2rdkXGF7usM2F12pqxPMKVotzZzD0mP44Wa1P_7yphRbOAaEy4PJqqYLGCX3c3mfc0Nai23aWlRQL1T", "width": 4000}], "place_id": "ChIJFTu4kYS89jkRMI3N12bjw18", "plus_code": {"compound_code": "RF62+99 Dhanbad, Jharkhand, India", "global_code": "7MM8RF62+99"}, "rating": 4.7, "reference": "ChIJFTu4kYS89jkRMI3N12bjw18", "scope": "GOOGLE", "types": ["school", "point_of_interest", "establishment"], "user_ratings_total": 15, "vicinity": "Behind police station. Post : Jagjiwan Nagar, Dist : Dhanbad , State :"}], "status": "OK"}