{"html_attributions": [], "results": [{"business_status": "OPERATIONAL", "geometry": {"location": {"lat": 24.0191909, "lng": 86.4417007}, "viewport": {"northeast": {"lat": 24.0205877802915, "lng": 86.44306168029149}, "southwest": {"lat": 24.0178898197085, "lng": 86.44036371970849}}}, "icon": "https://maps.gstatic.com/mapfiles/place_api/icons/v1/png_71/school-71.png", "name": "NPS sonad", "photos": [{"height": 2126, "html_attributions": ["<a href=\"https://maps.google.com/maps/contrib/102932399909527738316\">Tipan kumar Mandal</a>"], "photo_reference": "ATtYBwLIA0G40zieUIT7s7SAEJbq7KTLUQEbMmanr7Mw8X3VnX9Hegp1zsF1XGYWICGXG3RkjyLHfWQg1qKOp3y8vP54RponhdP8alRTy5d8ZBQpF7-NNvPbLPyz-xdL8tqbXyAJasYHwQF5j-wWAkFUzNZniNiMjQDSMPvZAVVwrQ7XJPls", "width": 4608}], "place_id": "ChIJufnXKyOy9jkR3i9zLLIdjx8", "plus_code": {"compound_code": "2C9R+MM Sanad, Jharkhand, India", "global_code": "7MP82C9R+MM"}, "rating": 4.7, "reference": "ChIJufnXKyOy9jkR3i9zLLIdjx8", "scope": "GOOGLE", "types": ["school", "point_of_interest", "establishment"], "user_ratings_total": 3, "vicinity": "Sanad"}, {"business_status": "OPERATIONAL", "geometry": {"location": {"lat": 24.0272411, "lng": 86.45288649999999}, "viewport": {"northeast": {"lat": 24.0280141302915, "lng": 86.4539440802915}, "southwest": {"lat": 24.0253161697085, "lng": 86.45124611970849}}}, "icon": "https://maps.gstatic.com/mapfiles/place_api/icons/v1/png_71/school-71.png", "name": "Primary School ,Jahanabad", "photos": [{"height": 4128, "html_attributions": ["<a href=\"https://maps.google.com/maps/contrib/107749706047826666393\">Ajay Pandey</a>"], "photo_reference": "ATtYBwKRxHXv5Yu0uRUK8riorR4bkNPM2QgdO_YneDjQiJa0x_ztgcX9qrJvTN07S19siOH57FAhCdWbpmHsab0jAtm4m8MPR4YnIZyfOH_weacIGc4Se5Ltn8H3FtQ5Kvz5pvtbTmBFK_FCIiEDPxuUrx7RN4IaM8oLHcoVp9gQnuUgoPRN", "width": 3096}], "place_id": "ChIJ____vzay9jkR_1PCuNZ0BhI", "plus_code": {"compound_code": "2FG3+V5 Jahanabad, Jharkhand, India", "global_code": "7MP82FG3+V5"}, "rating": 5, "reference": "ChIJ____vzay9jkR_1PCuNZ0BhI", "scope": "GOOGLE", "types": ["school", "point_of_interest", "establishment"], "user_ratings_total": 1, "vicinity": "Jahanabad"}, {"business_status": "OPERATIONAL", "geometry": {"location": {"lat": 24.02655739999999, "lng": 86.4445653}, "viewport": {"northeast": {"lat": 24.0279844802915, "lng": 86.44599738029152}, "southwest": {"lat": 24.02528651970849, "lng": 86.4432994197085}}}, "icon": "https://maps.gstatic.com/mapfiles/place_api/icons/v1/png_71/school-71.png", "name": "Ashok house", "place_id": "ChIJGSxUFsGz9jkR9mNGjtBL--E", "plus_code": {"compound_code": "2CGV+JR Bejrabad, Jharkhand, India", "global_code": "7MP82CGV+JR"}, "rating": 5, "reference": "ChIJGSxUFsGz9jkR9mNGjtBL--E", "scope": "GOOGLE", "types": ["primary_school", "school", "point_of_interest", "establishment"], "user_ratings_total": 1, "vicinity": "Unnamed Road, Bejrabad"}, {"business_status": "OPERATIONAL", "geometry": {"location": {"lat": 24.0153111, "lng": 86.46227499999999}, "viewport": {"northeast": {"lat": 24.0167538802915, "lng": 86.4634680802915}, "southwest": {"lat": 24.0140559197085, "lng": 86.46077011970849}}}, "icon": "https://maps.gstatic.com/mapfiles/place_api/icons/v1/png_71/school-71.png", "name": "mandal tola school Tundi, Dhanbad", "place_id": "ChIJ1wS-mdOz9jkRPwgPD03Fryk", "plus_code": {"compound_code": "2F86+4W Madhursa alias Kathchira, Jharkhand, India", "global_code": "7MP82F86+4W"}, "rating": 2, "reference": "ChIJ1wS-mdOz9jkRPwgPD03Fryk", "scope": "GOOGLE", "types": ["school", "point_of_interest", "establishment"], "user_ratings_total": 1, "vicinity": "Madhursa alias Kathchira"}], "status": "OK"}