{"html_attributions": [], "results": [{"business_status": "OPERATIONAL", "geometry": {"location": {"lat": 23.7221737, "lng": 86.46832599999999}, "viewport": {"northeast": {"lat": 23.7235042802915, "lng": 86.4697115302915}, "southwest": {"lat": 23.7208063197085, "lng": 86.4670135697085}}}, "icon": "https://maps.gstatic.com/mapfiles/place_api/icons/v1/png_71/school-71.png", "name": "Balika Parthamik Bidhalay Kusmatand", "place_id": "ChIJAUgpr4-X9jkREAu8CPJz5ls", "plus_code": {"compound_code": "PFC9+V8 Kusmatand, Jharkhand, India", "global_code": "7MM8PFC9+V8"}, "reference": "ChIJAUgpr4-X9jkREAu8CPJz5ls", "scope": "GOOGLE", "types": ["school", "point_of_interest", "establishment"], "vicinity": "Kusmatand"}, {"business_status": "OPERATIONAL", "geometry": {"location": {"lat": 23.7195067, "lng": 86.4670641}, "viewport": {"northeast": {"lat": 23.7209184802915, "lng": 86.46845233029151}, "southwest": {"lat": 23.7182205197085, "lng": 86.46575436970849}}}, "icon": "https://maps.gstatic.com/mapfiles/place_api/icons/v1/png_71/school-71.png", "name": "Ashish, Reliance, Kusmatand Middle School", "photos": [{"height": 1836, "html_attributions": ["<a href=\"https://maps.google.com/maps/contrib/100020342733219958527\">kartik gorai</a>"], "photo_reference": "ATtYBwL935Zzj6H2JLOCa9PXcenfB4V8qEynApOC-NbS14HGmbzx7RlGYMsNJvzQ_x0SFZCJMnRpwE5uuFVYqSEuLIa11M8sinC8_aT0cvMxZ6OjVkozIAe_aOpflXTUrN17RZZErAFzPltc9dVzDXOxDa-a6TRqLPL1W8tHk7lf8YlPeK1W", "width": 3264}], "place_id": "ChIJlxqX_CiW9jkRDUkBQIYFPvw", "plus_code": {"compound_code": "PF98+RR Kusmatand, Jharkhand, India", "global_code": "7MM8PF98+RR"}, "rating": 1, "reference": "ChIJlxqX_CiW9jkRDUkBQIYFPvw", "scope": "GOOGLE", "types": ["school", "point_of_interest", "establishment"], "user_ratings_total": 2, "vicinity": "Kusmatand"}, {"business_status": "OPERATIONAL", "geometry": {"location": {"lat": 23.7196061, "lng": 86.4667147}, "viewport": {"northeast": {"lat": 23.7210065802915, "lng": 86.46820433029151}, "southwest": {"lat": 23.7183086197085, "lng": 86.46550636970849}}}, "icon": "https://maps.gstatic.com/mapfiles/place_api/icons/v1/png_71/school-71.png", "name": "Kusmatand High Scool", "place_id": "ChIJcQDAUwqX9jkRNq0oCzPjuKc", "plus_code": {"compound_code": "PF98+RM Kusmatand, Jharkhand, India", "global_code": "7MM8PF98+RM"}, "reference": "ChIJcQDAUwqX9jkRNq0oCzPjuKc", "scope": "GOOGLE", "types": ["school", "point_of_interest", "establishment"], "vicinity": "Kusmatand"}, {"business_status": "OPERATIONAL", "geometry": {"location": {"lat": 23.7196759, "lng": 86.46650369999999}, "viewport": {"northeast": {"lat": 23.7210307302915, "lng": 86.4680988302915}, "southwest": {"lat": 23.7183327697085, "lng": 86.46540086970849}}}, "icon": "https://maps.gstatic.com/mapfiles/place_api/icons/v1/png_71/school-71.png", "name": "Prop High School Kusmatand", "photos": [{"height": 3096, "html_attributions": ["<a href=\"https://maps.google.com/maps/contrib/114863966051449506410\">Sandeep Kumar</a>"], "photo_reference": "ATtYBwJdg5ZI_hd9HrrnIrc6XiAr46zqYU7zYmqyPF1rqAJfhrvrKe-UrUFl224X28sdydq6iAl9KH7KbJz-iszIVLkgGC6_rkIwMEjkgrPefSVLQf8PyX7GU_GoREBNzzqI6jg36y7-ZQK3-zb3E1D-f-vN2JYK2KSwlPoOP0usMsnPu46F", "width": 4128}], "place_id": "ChIJsWX-bpuX9jkRTWLCIOFgW68", "plus_code": {"compound_code": "PF98+VJ Kusmatand, Jharkhand, India", "global_code": "7MM8PF98+VJ"}, "rating": 5, "reference": "ChIJsWX-bpuX9jkRTWLCIOFgW68", "scope": "GOOGLE", "types": ["school", "point_of_interest", "establishment"], "user_ratings_total": 1, "vicinity": "Kusmatand"}, {"business_status": "OPERATIONAL", "geometry": {"location": {"lat": 23.7199324, "lng": 86.4662221}, "viewport": {"northeast": {"lat": 23.7215046302915, "lng": 86.46753323029151}, "southwest": {"lat": 23.7188066697085, "lng": 86.46483526970849}}}, "icon": "https://maps.gstatic.com/mapfiles/place_api/icons/v1/png_71/school-71.png", "name": "High School Ground Kusmatand", "place_id": "ChIJdbVBGgCX9jkRnL70na6gNx0", "plus_code": {"compound_code": "PF98+XF Kusmatand, Jharkhand, India", "global_code": "7MM8PF98+XF"}, "rating": 5, "reference": "ChIJdbVBGgCX9jkRnL70na6gNx0", "scope": "GOOGLE", "types": ["school", "point_of_interest", "establishment"], "user_ratings_total": 1, "vicinity": "Kusmatand"}, {"business_status": "OPERATIONAL", "geometry": {"location": {"lat": 23.7173367, "lng": 86.47438}, "viewport": {"northeast": {"lat": 23.7185788802915, "lng": 86.4750754}, "southwest": {"lat": 23.7158809197085, "lng": 86.4722938}}}, "icon": "https://maps.gstatic.com/mapfiles/place_api/icons/v1/png_71/school-71.png", "name": "Dav Model School", "place_id": "ChIJ_____yOW9jkRFygpo9QGUTA", "plus_code": {"compound_code": "PF8F+WQ Dhanbad, Jharkhand, India", "global_code": "7MM8PF8F+WQ"}, "rating": 3, "reference": "ChIJ_____yOW9jkRFygpo9QGUTA", "scope": "GOOGLE", "types": ["school", "point_of_interest", "establishment"], "user_ratings_total": 2, "vicinity": "Dhanbad"}, {"business_status": "OPERATIONAL", "geometry": {"location": {"lat": 23.7264114, "lng": 86.4693808}, "viewport": {"northeast": {"lat": 23.7277553802915, "lng": 86.47067628029151}, "southwest": {"lat": 23.7250574197085, "lng": 86.46797831970851}}}, "icon": "https://maps.gstatic.com/mapfiles/place_api/icons/v1/png_71/school-71.png", "name": "ROSE MERRY PUBLIC SCHOOL (KUSMATAND)", "opening_hours": {"open_now": true}, "place_id": "ChIJId16YQm99jkR_dZHECNhOyE", "plus_code": {"compound_code": "PFG9+HQ Kusmatand, Jharkhand, India", "global_code": "7MM8PFG9+HQ"}, "rating": 5, "reference": "ChIJId16YQm99jkR_dZHECNhOyE", "scope": "GOOGLE", "types": ["school", "point_of_interest", "establishment"], "user_ratings_total": 1, "vicinity": "Kusmatand"}, {"business_status": "OPERATIONAL", "geometry": {"location": {"lat": 23.7275249, "lng": 86.4728482}, "viewport": {"northeast": {"lat": 23.7289379302915, "lng": 86.4742208302915}, "southwest": {"lat": 23.7262399697085, "lng": 86.47152286970848}}}, "icon": "https://maps.gstatic.com/mapfiles/place_api/icons/v1/png_71/school-71.png", "name": "\u091c\u0924\u093f\u0928 \u0907\u0902\u092b\u094b\u091f\u0947\u0915 Computer Center", "opening_hours": {"open_now": true}, "photos": [{"height": 4128, "html_attributions": ["<a href=\"https://maps.google.com/maps/contrib/111231761579114308899\">Jati\u043f I\u043ffotech</a>"], "photo_reference": "ATtYBwJuwXp1NOquv4JxfHez8g1gIyQLtx559JV0zATRM4fH2ekGZZVKpqsJtDuk02vYen6B-lcL_MaGEtXZy1FTKbyC_nViYwB2Fh1IHQOabPA7E6e31U9w3U0NzCVgpGUzJI2qj68jgknvSAjuoy-_JkLkV6PDF7B-SFfOBKmyPAxL5Vno", "width": 2322}], "place_id": "ChIJmwPNFYm99jkRWLokS4QgWX4", "plus_code": {"compound_code": "PFHF+24 Kusmatand, Jharkhand, India", "global_code": "7MM8PFHF+24"}, "reference": "ChIJmwPNFYm99jkRWLokS4QgWX4", "scope": "GOOGLE", "types": ["school", "point_of_interest", "establishment"], "vicinity": "Kusmatand"}, {"business_status": "OPERATIONAL", "geometry": {"location": {"lat": 23.7242137, "lng": 86.4774884}, "viewport": {"northeast": {"lat": 23.7254592302915, "lng": 86.4786837802915}, "southwest": {"lat": 23.7227612697085, "lng": 86.4759858197085}}}, "icon": "https://maps.gstatic.com/mapfiles/place_api/icons/v1/png_71/school-71.png", "name": "Adarsh Vidya Mandir,Kusmatand", "photos": [{"height": 3120, "html_attributions": ["<a href=\"https://maps.google.com/maps/contrib/115808769632975919871\">sarita giridhari</a>"], "photo_reference": "ATtYBwK1iXR0FOp1XElDbWUF43eLVLOVjKidihFeaVzMt2y33sLw44LXQudSBsyseu2fBFcUnWu3scxjqTf_ec6K4EagDQ-44RDgpW1gheLqKaKJN2Uh50t88Du0vBkhiobPMG4xZhK99jlpCl8EZMzYQrwQmMVuwLVMyzgCprJuNFA1o-E", "width": 4160}], "place_id": "ChIJz2fEj4q99jkRS6T0bDKjEkQ", "plus_code": {"compound_code": "PFFG+MX Kusmatand, Jharkhand, India", "global_code": "7MM8PFFG+MX"}, "rating": 2.5, "reference": "ChIJz2fEj4q99jkRS6T0bDKjEkQ", "scope": "GOOGLE", "types": ["school", "point_of_interest", "establishment"], "user_ratings_total": 6, "vicinity": "Kusmatand"}, {"business_status": "OPERATIONAL", "geometry": {"location": {"lat": 23.7303985, "lng": 86.4654584}, "viewport": {"northeast": {"lat": 23.7315438302915, "lng": 86.4667325802915}, "southwest": {"lat": 23.7288458697085, "lng": 86.4640346197085}}}, "icon": "https://maps.gstatic.com/mapfiles/place_api/icons/v1/png_71/school-71.png", "name": "Saint thomas diligent public", "place_id": "ChIJ61j9_pO99jkRkZe-hXL50JA", "plus_code": {"compound_code": "PFJ8+55 Makunda, Jharkhand, India", "global_code": "7MM8PFJ8+55"}, "reference": "ChIJ61j9_pO99jkRkZe-hXL50JA", "scope": "GOOGLE", "types": ["school", "point_of_interest", "establishment"], "vicinity": "Makunda"}, {"business_status": "OPERATIONAL", "geometry": {"location": {"lat": 23.7303592, "lng": 86.46438549999999}, "viewport": {"northeast": {"lat": 23.73167058029151, "lng": 86.4657206802915}, "southwest": {"lat": 23.7289726197085, "lng": 86.46302271970849}}}, "icon": "https://maps.gstatic.com/mapfiles/place_api/icons/v1/png_71/school-71.png", "name": "Saint Thomas Delight Public School", "opening_hours": {"open_now": false}, "place_id": "ChIJISjbDja99jkRZJ3bqutzVoo", "plus_code": {"compound_code": "PFJ7+4Q Alagdiha, Jharkhand, India", "global_code": "7MM8PFJ7+4Q"}, "reference": "ChIJISjbDja99jkRZJ3bqutzVoo", "scope": "GOOGLE", "types": ["school", "point_of_interest", "establishment"], "vicinity": "Jairampur More to Baliapur, Alagdiha"}, {"business_status": "OPERATIONAL", "geometry": {"location": {"lat": 23.7205312, "lng": 86.456593}, "viewport": {"northeast": {"lat": 23.7218854802915, "lng": 86.4578767302915}, "southwest": {"lat": 23.7191875197085, "lng": 86.4551787697085}}}, "icon": "https://maps.gstatic.com/mapfiles/place_api/icons/v1/png_71/school-71.png", "name": "Middle School, Golden Pahari", "opening_hours": {"open_now": true}, "photos": [{"height": 1920, "html_attributions": ["<a href=\"https://maps.google.com/maps/contrib/109807752439808583626\">tech duniya</a>"], "photo_reference": "ATtYBwIgcP5ccSBvTc-R2G5vTCCvFfpzWMeCo0zhKdLNaiygNfNDl6dbmOZKZPhR8ZzmuHctSPYJ4PKnuX6ICrcAzUDoHHPKzC8svKCl4L3UbkXlCCa2n3inLkMPyv7vN9AThynmfzcsjVPVxT_Y9QKryabj9W1OoKNKnM8ttPDsl83aQTcx", "width": 1080}], "place_id": "ChIJydNAqNWX9jkR-QtztGz6pbQ", "plus_code": {"compound_code": "PFC4+6J Makunda, Jharkhand, India", "global_code": "7MM8PFC4+6J"}, "rating": 4.5, "reference": "ChIJydNAqNWX9jkR-QtztGz6pbQ", "scope": "GOOGLE", "types": ["school", "point_of_interest", "establishment"], "user_ratings_total": 2, "vicinity": "Makunda"}], "status": "OK"}