{"html_attributions": [], "results": [{"business_status": "OPERATIONAL", "geometry": {"location": {"lat": 23.7375601, "lng": 86.4656445}, "viewport": {"northeast": {"lat": 23.7389481802915, "lng": 86.46715073029151}, "southwest": {"lat": 23.7362502197085, "lng": 86.46445276970849}}}, "icon": "https://maps.gstatic.com/mapfiles/place_api/icons/v1/png_71/school-71.png", "name": "Golmara School", "place_id": "ChIJX_c067C99jkR_1t_D4gZu-Q", "plus_code": {"compound_code": "PFQ8+27 Golmara, Jharkhand, India", "global_code": "7MM8PFQ8+27"}, "reference": "ChIJX_c067C99jkR_1t_D4gZu-Q", "scope": "GOOGLE", "types": ["school", "point_of_interest", "establishment"], "vicinity": "Golmara"}, {"business_status": "OPERATIONAL", "geometry": {"location": {"lat": 23.7439046, "lng": 86.4667951}, "viewport": {"northeast": {"lat": 23.74507275, "lng": 86.4677226302915}, "southwest": {"lat": 23.74040014999999, "lng": 86.4650246697085}}}, "icon": "https://maps.gstatic.com/mapfiles/place_api/icons/v1/png_71/school-71.png", "name": "prathmik vidhalaya golmara", "place_id": "ChIJ_____5i99jkR1uTzQxAj_uA", "plus_code": {"compound_code": "PFV8+HP Golmara, Jharkhand, India", "global_code": "7MM8PFV8+HP"}, "reference": "ChIJ_____5i99jkR1uTzQxAj_uA", "scope": "GOOGLE", "types": ["school", "point_of_interest", "establishment"], "vicinity": "Golmara"}, {"business_status": "OPERATIONAL", "geometry": {"location": {"lat": 23.7326992, "lng": 86.4729934}, "viewport": {"northeast": {"lat": 23.73394873029151, "lng": 86.4743519302915}, "southwest": {"lat": 23.7312507697085, "lng": 86.47165396970848}}}, "icon": "https://maps.gstatic.com/mapfiles/place_api/icons/v1/png_71/school-71.png", "name": "Learn Public School Nimtand", "photos": [{"height": 3456, "html_attributions": ["<a href=\"https://maps.google.com/maps/contrib/109877823674281831931\">Rr K</a>"], "photo_reference": "ATtYBwKMTrSLxZ7JR7AMjrYOv3XmURzAgTtxxP8pXWw2XxIG0pz_d-3LMaema92G01Aa0-1R6KCtKR0ZiG7EbVUJHwI9AcDxMVnOsIsFisqRu-fUBx5F-QXRH1hxBNfmp1ODzpDwA3DA4Cjd9CswXwSxIZ4V3ybfVOpHA_HZ5lZJxOAWeBRC", "width": 4608}], "place_id": "ChIJubcDle-99jkREK1P4Yks4iQ", "plus_code": {"compound_code": "PFMF+35 Karmatand, Jharkhand, India", "global_code": "7MM8PFMF+35"}, "rating": 5, "reference": "ChIJubcDle-99jkREK1P4Yks4iQ", "scope": "GOOGLE", "types": ["school", "point_of_interest", "establishment"], "user_ratings_total": 3, "vicinity": "Karmatand"}, {"business_status": "OPERATIONAL", "geometry": {"location": {"lat": 23.7418353, "lng": 86.4786441}, "viewport": {"northeast": {"lat": 23.7431716302915, "lng": 86.4799804802915}, "southwest": {"lat": 23.7404736697085, "lng": 86.4772825197085}}}, "icon": "https://maps.gstatic.com/mapfiles/place_api/icons/v1/png_71/school-71.png", "name": "Shalom Music school", "photos": [{"height": 2322, "html_attributions": ["<a href=\"https://maps.google.com/maps/contrib/105753871129428055585\">shalom sachin</a>"], "photo_reference": "ATtYBwLKdGROdeDnUclNEkoJe1Fpq0ewRDLrc8Vs4s1ZT2cj_huZiMTou6naEGYG8V11YnrsuvOSjweP2nN1IedarpzSkF2Fjygm5Jey381iFCXSAE43LFeHvKk5lh8SLjV-srro3GBWj__puxoj7D1Y0LTAjvsXcGrLjbnNCUnhWTxB5za6", "width": 4128}], "place_id": "ChIJSYf5rzW99jkRNEaxJUYzkYM", "plus_code": {"compound_code": "PFRH+PF Pargha, Jharkhand, India", "global_code": "7MM8PFRH+PF"}, "rating": 3, "reference": "ChIJSYf5rzW99jkRNEaxJUYzkYM", "scope": "GOOGLE", "types": ["school", "point_of_interest", "establishment"], "user_ratings_total": 2, "vicinity": "Shalom Nagar, Khas, Pargha"}, {"business_status": "OPERATIONAL", "geometry": {"location": {"lat": 23.7303985, "lng": 86.4654584}, "viewport": {"northeast": {"lat": 23.7315438302915, "lng": 86.4667325802915}, "southwest": {"lat": 23.7288458697085, "lng": 86.4640346197085}}}, "icon": "https://maps.gstatic.com/mapfiles/place_api/icons/v1/png_71/school-71.png", "name": "Saint thomas diligent public", "place_id": "ChIJ61j9_pO99jkRkZe-hXL50JA", "plus_code": {"compound_code": "PFJ8+55 Makunda, Jharkhand, India", "global_code": "7MM8PFJ8+55"}, "reference": "ChIJ61j9_pO99jkRkZe-hXL50JA", "scope": "GOOGLE", "types": ["school", "point_of_interest", "establishment"], "vicinity": "Makunda"}, {"business_status": "OPERATIONAL", "geometry": {"location": {"lat": 23.7303592, "lng": 86.46438549999999}, "viewport": {"northeast": {"lat": 23.73167058029151, "lng": 86.4657206802915}, "southwest": {"lat": 23.7289726197085, "lng": 86.46302271970849}}}, "icon": "https://maps.gstatic.com/mapfiles/place_api/icons/v1/png_71/school-71.png", "name": "Saint Thomas Delight Public School", "opening_hours": {"open_now": false}, "place_id": "ChIJISjbDja99jkRZJ3bqutzVoo", "plus_code": {"compound_code": "PFJ7+4Q Alagdiha, Jharkhand, India", "global_code": "7MM8PFJ7+4Q"}, "reference": "ChIJISjbDja99jkRZJ3bqutzVoo", "scope": "GOOGLE", "types": ["school", "point_of_interest", "establishment"], "vicinity": "Jairampur More to Baliapur, Alagdiha"}, {"business_status": "OPERATIONAL", "geometry": {"location": {"lat": 23.7312139, "lng": 86.462513}, "viewport": {"northeast": {"lat": 23.7325769302915, "lng": 86.4638345302915}, "southwest": {"lat": 23.7298789697085, "lng": 86.46113656970849}}}, "icon": "https://maps.gstatic.com/mapfiles/place_api/icons/v1/png_71/school-71.png", "name": "Udan Chochin Centre", "place_id": "ChIJ6aTXwgS99jkR7ypFA8vehUU", "plus_code": {"compound_code": "PFJ7+F2 Makunda, Jharkhand, India", "global_code": "7MM8PFJ7+F2"}, "reference": "ChIJ6aTXwgS99jkR7ypFA8vehUU", "scope": "GOOGLE", "types": ["school", "point_of_interest", "establishment"], "vicinity": "tiranga more, Makunda"}, {"business_status": "OPERATIONAL", "geometry": {"location": {"lat": 23.7311221, "lng": 86.4624898}, "viewport": {"northeast": {"lat": 23.7324671302915, "lng": 86.4638464302915}, "southwest": {"lat": 23.7297691697085, "lng": 86.46114846970849}}}, "icon": "https://maps.gstatic.com/mapfiles/place_api/icons/v1/png_71/school-71.png", "name": "\u0909\u095c\u093e\u0928 \u0915\u094b\u091a\u0940\u0928 \u0938\u0947\u0902\u091f\u0930", "photos": [{"height": 2910, "html_attributions": ["<a href=\"https://maps.google.com/maps/contrib/115753601800101141231\">Unique video By Santosh</a>"], "photo_reference": "ATtYBwIPzk-J_r0PlVQhiPNlg5Gncd9qfFT0h6FWssAeC81QmnwHZNuvyMt7TR8KtNw-qTAfFKwkrRaZ-IqFLBxZ5VuNfFRkCrt8zaW2HxSNoYiqWULhR2FCdGWsgPd-0AyR2s8_ag6Q72a_P597IAqrdCjhh-WiyLVWbo3uIZ6OPrQN4m9W", "width": 1676}], "place_id": "ChIJhYJLYfS99jkR3Z-9nZ_KOO0", "plus_code": {"compound_code": "PFJ6+CX Dhanbad, Jharkhand, India", "global_code": "7MM8PFJ6+CX"}, "rating": 5, "reference": "ChIJhYJLYfS99jkR3Z-9nZ_KOO0", "scope": "GOOGLE", "types": ["school", "point_of_interest", "establishment"], "user_ratings_total": 1, "vicinity": "near \u0924\u093f\u0930\u0902\u0917\u093e more, Mukunda, Dhanbad"}, {"business_status": "OPERATIONAL", "geometry": {"location": {"lat": 23.7316117, "lng": 86.4596031}, "viewport": {"northeast": {"lat": 23.7330240802915, "lng": 86.46097613029151}, "southwest": {"lat": 23.7303261197085, "lng": 86.45827816970849}}}, "icon": "https://maps.gstatic.com/mapfiles/place_api/icons/v1/png_71/school-71.png", "name": "Saraswati Shishu Vidya Mandeer", "place_id": "ChIJm_xSrBy99jkRVJ_yKtCFF8c", "plus_code": {"compound_code": "PFJ5+JR Makunda, Jharkhand, India", "global_code": "7MM8PFJ5+JR"}, "reference": "ChIJm_xSrBy99jkRVJ_yKtCFF8c", "scope": "GOOGLE", "types": ["school", "point_of_interest", "establishment"], "vicinity": "Makunda"}], "status": "OK"}