{"html_attributions": [], "results": [{"business_status": "OPERATIONAL", "geometry": {"location": {"lat": 23.7571793, "lng": 86.46732329999999}, "viewport": {"northeast": {"lat": 23.7585598802915, "lng": 86.4686700302915}, "southwest": {"lat": 23.7558619197085, "lng": 86.46597206970849}}}, "icon": "https://maps.gstatic.com/mapfiles/place_api/icons/v1/png_71/school-71.png", "name": "Royal Yadav", "opening_hours": {"open_now": true}, "photos": [{"height": 3456, "html_attributions": ["<a href=\"https://maps.google.com/maps/contrib/107007782673050970475\">Royal Yadav</a>"], "photo_reference": "ATtYBwIOdg-gOGV6LrxBEjBCb3PfpUA8_dqi0gctCzkvuBFP9GL4bJLeE3vbWu1RsUpNTWk0Ud_uJRqg4BAVGiClVrU_ZPsveC_qNlsnpPLjjmNJN18_YT16wS6pEOb_tzXeWEXPTix8ww9kLmQLqei_-oWUvIFGaAn8L6ZDjHUqTAdUQves", "width": 4608}], "place_id": "ChIJmS4qzTG99jkRMn40b1_iENY", "plus_code": {"compound_code": "QF48+VW Belgaria, Jharkhand, India", "global_code": "7MM8QF48+VW"}, "reference": "ChIJmS4qzTG99jkRMn40b1_iENY", "scope": "GOOGLE", "types": ["school", "point_of_interest", "establishment"], "vicinity": "Unnamed Road, Belgaria"}, {"business_status": "OPERATIONAL", "geometry": {"location": {"lat": 23.7569564, "lng": 86.4672738}, "viewport": {"northeast": {"lat": 23.7583092302915, "lng": 86.4685299802915}, "southwest": {"lat": 23.7556112697085, "lng": 86.4658320197085}}}, "icon": "https://maps.gstatic.com/mapfiles/place_api/icons/v1/png_71/school-71.png", "name": "Sarva Shiksha Abhiyan School", "photos": [{"height": 422, "html_attributions": ["<a href=\"https://maps.google.com/maps/contrib/112577189152417501466\">Kanhaiya Kumar</a>"], "photo_reference": "ATtYBwKwWk9mQ3cvPyRhqufuIl4arWEkybdtw-gKJ6MaIAMV85ujeBJcmw3BdnbNDlhf4qkT_8CaRiZjJFJsoDKD1CuxqESWUkk30PCRzopp9hAggpdawsME1EjbbLDu13Lwo6KteMquNBJ8wtJTuAA_pgzcNJaj0EGY9nfXSA3hZle5AVK9", "width": 635}], "place_id": "ChIJmWHSDaW99jkRPIezUzZnjKs", "plus_code": {"compound_code": "QF48+QW Belgaria, Jharkhand, India", "global_code": "7MM8QF48+QW"}, "rating": 5, "reference": "ChIJmWHSDaW99jkRPIezUzZnjKs", "scope": "GOOGLE", "types": ["school", "point_of_interest", "establishment"], "user_ratings_total": 1, "vicinity": "Belgaria"}, {"business_status": "OPERATIONAL", "geometry": {"location": {"lat": 23.7571141, "lng": 86.4664511}, "viewport": {"northeast": {"lat": 23.7584276802915, "lng": 86.4677547302915}, "southwest": {"lat": 23.7557297197085, "lng": 86.4650567697085}}}, "icon": "https://maps.gstatic.com/mapfiles/place_api/icons/v1/png_71/school-71.png", "name": "Ambedkar Public School", "photos": [{"height": 1970, "html_attributions": ["<a href=\"https://maps.google.com/maps/contrib/113026876426943915742\">Sanju Rao</a>"], "photo_reference": "ATtYBwK2JADhdz7gh95fuO4iCPod0qQxGiFaOO59ykIaiQOKt2uAKK0GZbTTJ-QhTWFJfxAmSl-PmFA_itdDxk6-v71Roo5qBUm60goFZB3DJHK0kdDsfccIhr8xD-2P44qzsr03Wdi1W5WRIFz1YQy0AGT0RiWoxLKAcvcuskypwrr5c53n", "width": 4160}], "place_id": "ChIJFSj8V2e99jkRbg69tHiuFrg", "plus_code": {"compound_code": "QF48+RH Belgaria, Jharkhand, India", "global_code": "7MM8QF48+RH"}, "rating": 3.7, "reference": "ChIJFSj8V2e99jkRbg69tHiuFrg", "scope": "GOOGLE", "types": ["school", "point_of_interest", "establishment"], "user_ratings_total": 3, "vicinity": "Belgaria"}, {"business_status": "OPERATIONAL", "geometry": {"location": {"lat": 23.7570632, "lng": 86.4664538}, "viewport": {"northeast": {"lat": 23.7583868802915, "lng": 86.4677703802915}, "southwest": {"lat": 23.7556889197085, "lng": 86.46507241970849}}}, "icon": "https://maps.gstatic.com/mapfiles/place_api/icons/v1/png_71/school-71.png", "name": "Ambedkar Public School Bel. Colony", "place_id": "ChIJxcIAErS99jkRC5NS0iXLh8Q", "plus_code": {"compound_code": "QF48+RH Jharia, Jharkhand, India", "global_code": "7MM8QF48+RH"}, "reference": "ChIJxcIAErS99jkRC5NS0iXLh8Q", "scope": "GOOGLE", "types": ["school", "point_of_interest", "establishment"], "vicinity": "near big shiv mandir, vihar colony, Jharia"}, {"business_status": "OPERATIONAL", "geometry": {"location": {"lat": 23.7573585, "lng": 86.46437189999999}, "viewport": {"northeast": {"lat": 23.7588261802915, "lng": 86.46585818029149}, "southwest": {"lat": 23.75612821970849, "lng": 86.46316021970848}}}, "icon": "https://maps.gstatic.com/mapfiles/place_api/icons/v1/png_71/school-71.png", "name": "Raja Shiv Prasad College Jharia", "photos": [{"height": 3024, "html_attributions": ["<a href=\"https://maps.google.com/maps/contrib/101647566605362550539\">abinash sharma</a>"], "photo_reference": "ATtYBwJ2KsMLs9szsdK6FZ_8WeUSzc686T5TVsRvfkYRdnWXs69PkS52Mm4WjnZpfX0cYUaqOb-381vcNaLIvW2WmnDzJ3UZk87zDli-mLmj79oAEXs8kAGdYdrq09R4gG0-iLisnwX-liVoYEH_Phx22VFTKQCD52OrAP3nk19aYImX0_hK", "width": 4032}], "place_id": "ChIJFZOJNcW99jkRTP325On8NRA", "plus_code": {"compound_code": "QF47+WP Belgaria, Jharkhand, India", "global_code": "7MM8QF47+WP"}, "rating": 3.5, "reference": "ChIJFZOJNcW99jkRTP325On8NRA", "scope": "GOOGLE", "types": ["school", "point_of_interest", "establishment"], "user_ratings_total": 2, "vicinity": "Belgaria"}, {"business_status": "OPERATIONAL", "geometry": {"location": {"lat": 23.7597466, "lng": 86.47753999999999}, "viewport": {"northeast": {"lat": 23.76124018029151, "lng": 86.47912253029149}, "southwest": {"lat": 23.7585422197085, "lng": 86.47642456970848}}}, "icon": "https://maps.gstatic.com/mapfiles/place_api/icons/v1/png_71/school-71.png", "name": "Birla Open Minds International School, Dhanbad", "place_id": "ChIJI9po9cS99jkRrUEHc6LyElg", "plus_code": {"compound_code": "QF5H+V2 Amagarha, Jharkhand, India", "global_code": "7MM8QF5H+V2"}, "rating": 5, "reference": "ChIJI9po9cS99jkRrUEHc6LyElg", "scope": "GOOGLE", "types": ["school", "point_of_interest", "establishment"], "user_ratings_total": 6, "vicinity": "Amagarha"}, {"business_status": "OPERATIONAL", "geometry": {"location": {"lat": 23.7679209, "lng": 86.4682594}, "viewport": {"northeast": {"lat": 23.7692888802915, "lng": 86.4695645802915}, "southwest": {"lat": 23.7665909197085, "lng": 86.46686661970848}}}, "icon": "https://maps.gstatic.com/mapfiles/place_api/icons/v1/png_71/school-71.png", "name": "NAGESHWAR HEMBRAM COACHING CENTRE", "opening_hours": {"open_now": true}, "photos": [{"height": 1372, "html_attributions": ["<a href=\"https://maps.google.com/maps/contrib/105744046495526542299\">NAGESHWAR HEMBRAM COACHING CENTRE</a>"], "photo_reference": "ATtYBwI8iAcpsz1LWtN2qKdsHU7ZgSAp0q31VIYfZBeyq9KyCzGpmbLwykCmgu2pA6eK85KEAj9u7AFBKmNoEhcCotqLXHXwe6ArD9ixoAd57L-lqCwAX_Mz8XtdurwMY6_dR7MTMf1N8_PSlKUoasUfG7yYXWjNn3eOqCqdsKqkIDqgiTuo", "width": 1920}], "place_id": "ChIJ19tOdK299jkRJ8NXt4fsrTo", "plus_code": {"compound_code": "QF99+58 Dhokhra, Jharkhand, India", "global_code": "7MM8QF99+58"}, "rating": 5, "reference": "ChIJ19tOdK299jkRJ8NXt4fsrTo", "scope": "GOOGLE", "types": ["school", "point_of_interest", "establishment"], "user_ratings_total": 6, "vicinity": "JHADEDIH, \u0927\u094b\u0916\u094d\u0930\u093e"}, {"business_status": "OPERATIONAL", "geometry": {"location": {"lat": 23.7615596, "lng": 86.47944090000001}, "viewport": {"northeast": {"lat": 23.7628384302915, "lng": 86.48074038029151}, "southwest": {"lat": 23.7601404697085, "lng": 86.4780424197085}}}, "icon": "https://maps.gstatic.com/mapfiles/place_api/icons/v1/png_71/school-71.png", "name": "Birla Open Minds International School", "photos": [{"height": 4000, "html_attributions": ["<a href=\"https://maps.google.com/maps/contrib/105666488631227982012\">kanhaiya Kumar saw</a>"], "photo_reference": "ATtYBwLqldtXnoMxHZTfpcrE6Fs20R8u3iVD_IYWeJDIey8tsiapYFCwGgAgmtjJHZf9Q8DJSPX43Nq6jTWc9UpUr-yxnQyrAimCuMQnHYumAtSxgyiuf2lS-DDWIBh8l8tJlMjGzABxWgG6jSb6EtxT3JJ67aPaUrp2ICkJR0gFZn7K-LM", "width": 6000}], "place_id": "ChIJ79Jj11q99jkRdtwfH16mBmY", "plus_code": {"compound_code": "QF6H+JQ Amagarha, Jharkhand, India", "global_code": "7MM8QF6H+JQ"}, "rating": 4.6, "reference": "ChIJ79Jj11q99jkRdtwfH16mBmY", "scope": "GOOGLE", "types": ["school", "point_of_interest", "establishment"], "user_ratings_total": 11, "vicinity": "Amagarha"}, {"business_status": "OPERATIONAL", "geometry": {"location": {"lat": 23.7546356, "lng": 86.48065009999999}, "viewport": {"northeast": {"lat": 23.7560260802915, "lng": 86.4820176802915}, "southwest": {"lat": 23.7533281197085, "lng": 86.47931971970849}}}, "icon": "https://maps.gstatic.com/mapfiles/place_api/icons/v1/png_71/school-71.png", "name": "Bhavani Vidya Mandir ,Sabaigara", "opening_hours": {"open_now": false}, "photos": [{"height": 3096, "html_attributions": ["<a href=\"https://maps.google.com/maps/contrib/107709386804721710014\">Amit Kumar</a>"], "photo_reference": "ATtYBwJ_BwG3OShhLRyGJUstA9sfwpbCAtiQMcrU-ndRoSAA61V5nY4lBxf0OB0WRAfE-j56UuZkEhjWdCIHwoJy1tWSpRjBFpNnRH3k3onEm0NoLlv4B-UG_7np6PRd_BlcPslx5XxUd5dnh_WiNH3VhR0pUAvwZyTVK5vIB5bzadU_C5y2", "width": 4128}], "place_id": "ChIJ4TJ0cMa99jkRMHXdiOFgxMc", "plus_code": {"compound_code": "QF3J+V7 Sabaigarha, Jharkhand, India", "global_code": "7MM8QF3J+V7"}, "rating": 4.2, "reference": "ChIJ4TJ0cMa99jkRMHXdiOFgxMc", "scope": "GOOGLE", "types": ["school", "point_of_interest", "establishment"], "user_ratings_total": 5, "vicinity": ""}, {"business_status": "OPERATIONAL", "geometry": {"location": {"lat": 23.7672044, "lng": 86.4793516}, "viewport": {"northeast": {"lat": 23.76872043029151, "lng": 86.4806998302915}, "southwest": {"lat": 23.7660224697085, "lng": 86.47800186970849}}}, "icon": "https://maps.gstatic.com/mapfiles/place_api/icons/v1/png_71/school-71.png", "name": "Upgraded Middle School Bijaydih", "place_id": "ChIJDx91iLW99jkRtVxNeLI3XuE", "plus_code": {"compound_code": "QF8H+VP Bijaydih, Jharkhand, India", "global_code": "7MM8QF8H+VP"}, "rating": 5, "reference": "ChIJDx91iLW99jkRtVxNeLI3XuE", "scope": "GOOGLE", "types": ["school", "point_of_interest", "establishment"], "user_ratings_total": 1, "vicinity": "Bijaydih"}, {"business_status": "OPERATIONAL", "geometry": {"location": {"lat": 23.7672464, "lng": 86.47936130000001}, "viewport": {"northeast": {"lat": 23.7687414302915, "lng": 86.4807028802915}, "southwest": {"lat": 23.7660434697085, "lng": 86.47800491970848}}}, "icon": "https://maps.gstatic.com/mapfiles/place_api/icons/v1/png_71/school-71.png", "name": "Primary School Bijaydih", "place_id": "ChIJ7YyIDQK99jkRmTCr2exz5Ac", "plus_code": {"compound_code": "QF8H+VP Dhanbad, Jharkhand, India", "global_code": "7MM8QF8H+VP"}, "reference": "ChIJ7YyIDQK99jkRmTCr2exz5Ac", "scope": "GOOGLE", "types": ["school", "point_of_interest", "establishment"], "vicinity": "Dhanbad"}], "status": "OK"}