{"html_attributions": [], "next_page_token": "ATtYBwLTIr2LXgPMY7ilptIo2xPT-iNtfWnj_hM03e-hReQ5QAhlgYPZ-KYWgBun4735a4SglmH1XDd7kRqu92lVxB1_MRSvBrvxS0j7HVbPQpnXI9INUWCcCDkB421fcGo9L3NHLkdZtUHBFnwuLpTYY1Z-ANB_A_dsvSKsfRRHHq_c8yQ8XGuymMECwFfIll9FNeg32OSYJ8wogxvnYhtB6z9H6bSlhPN1XwtUZangRPzNcehKFvZ6r7J4Jbydi_qyiVDG6RmD39zfkTOPA0P6-cSb32egpkTP6NSJRcZ-uWEGHDoBBCy1cLGkuepd3C_2GbbngbUfQrGQjqzf1Ts_Zvnd7deXonXhSt--PUbx2MhJEux1eu_xKETlpPI1aY9heN_lbRPeCdMp9aw246rvmIJC1bGiiQ-j6VClqaeFrSfa1qg_Ki4", "results": [{"business_status": "OPERATIONAL", "geometry": {"location": {"lat": 23.81656229999999, "lng": 86.4644963}, "viewport": {"northeast": {"lat": 23.8177009802915, "lng": 86.4657306802915}, "southwest": {"lat": 23.8150030197085, "lng": 86.4630327197085}}}, "icon": "https://maps.gstatic.com/mapfiles/place_api/icons/v1/png_71/school-71.png", "name": "Sri Sri Suryadeo Singh Smriti Gurukulam", "opening_hours": {"open_now": true}, "photos": [{"height": 1536, "html_attributions": ["<a href=\"https://maps.google.com/maps/contrib/104456399709921553959\">Sri Sri Suryadeo Singh Smriti Gurukulam</a>"], "photo_reference": "ATtYBwKqqinYYCbIAUt5HI0LtqdU03ghL_KaPiS6QwckJ9QCfgxlygSn9SEaaR_7eFabmw2ExrgoTxI9WlN6I0VtWEa8h_phBAheg1Lc8jyTiXtRmjy_Iqri5gzXXYTGGC1JzURgNVhErrfp6FXb4Xyt13S4W1NMWn-QiSy74ZofLni_MjuD", "width": 2048}], "place_id": "ChIJhwXLy3i89jkRTfnAbL-IsbI", "plus_code": {"compound_code": "RF87+JQ Saraidhella, Jharkhand, India", "global_code": "7MM8RF87+JQ"}, "rating": 4.1, "reference": "ChIJhwXLy3i89jkRTfnAbL-IsbI", "scope": "GOOGLE", "types": ["school", "point_of_interest", "establishment"], "user_ratings_total": 51, "vicinity": "National Highway 32, Kola Kusma Road, Shanti Colony, Saraidhella"}, {"business_status": "OPERATIONAL", "geometry": {"location": {"lat": 23.8274203, "lng": 86.46538960000001}, "viewport": {"northeast": {"lat": 23.8288612802915, "lng": 86.46680543029152}, "southwest": {"lat": 23.8261633197085, "lng": 86.46410746970851}}}, "icon": "https://maps.gstatic.com/mapfiles/place_api/icons/v1/png_71/school-71.png", "name": "Brilliant High School Rangni Bhitha", "opening_hours": {"open_now": true}, "photos": [{"height": 960, "html_attributions": ["<a href=\"https://maps.google.com/maps/contrib/109987957864300172617\">Dev tudu</a>"], "photo_reference": "ATtYBwKz1b1qv1QPR5xbbykfGmGgv3kGm0ZKcKnYjDIsAXdxkBgfpSxjA9985tz538C7RzDCdu-Kx-hEN0eZRP6lAxCOG13_ko2mNAljonvJd-OtizVc79kOvqBR4a-zLvbJAarKKzDHYPaxDG1VeYPSyZ8QGBVrvtOe24nCf-P1yPk9bZ6H", "width": 1280}], "place_id": "ChIJA1jXjYS79jkRSwTEgbgdTPA", "plus_code": {"compound_code": "RFG8+X5 Dhanbad, Jharkhand, India", "global_code": "7MM8RFG8+X5"}, "rating": 3.6, "reference": "ChIJA1jXjYS79jkRSwTEgbgdTPA", "scope": "GOOGLE", "types": ["school", "point_of_interest", "establishment"], "user_ratings_total": 9, "vicinity": "Tapowan colony, Dhanbad"}, {"business_status": "OPERATIONAL", "geometry": {"location": {"lat": 23.8118984, "lng": 86.4638707}, "viewport": {"northeast": {"lat": 23.8132468302915, "lng": 86.46522138029151}, "southwest": {"lat": 23.8105488697085, "lng": 86.46252341970849}}}, "icon": "https://maps.gstatic.com/mapfiles/place_api/icons/v1/png_71/school-71.png", "name": "Little Millennium", "photos": [{"height": 3000, "html_attributions": ["<a href=\"https://maps.google.com/maps/contrib/117043221059253802302\">Little Millennium</a>"], "photo_reference": "ATtYBwJKBBeA6aHMnQ2pKuMkcVPNKe-xElcrzuxFN5y91Cp5fcLE6HYAyehDUibNO4aj_r6g9stF8mAEvuS_skJWu1KHriJzhifFDe_j9_UvgS3O7SzXei35X26W_C4j0d2XeLWtwrfXcIXniznn8QmQE54X7MekO8N83wQ85sbgaVX9cWog", "width": 2400}], "place_id": "ChIJl2eFuIC89jkRum0pcSr9GtQ", "plus_code": {"compound_code": "RF67+QG Saraidhella, Jharkhand, India", "global_code": "7MM8RF67+QG"}, "rating": 5, "reference": "ChIJl2eFuIC89jkRum0pcSr9GtQ", "scope": "GOOGLE", "types": ["school", "point_of_interest", "establishment"], "user_ratings_total": 7, "vicinity": "Little Millennium, SUMBRIDHI GARDEN (PHASE-2, Netaji Subhash Nagar, Pin, Saraidhella"}, {"business_status": "OPERATIONAL", "geometry": {"location": {"lat": 23.8156175, "lng": 86.45897049999999}, "viewport": {"northeast": {"lat": 23.8169220802915, "lng": 86.46027823029151}, "southwest": {"lat": 23.8142241197085, "lng": 86.4575802697085}}}, "icon": "https://maps.gstatic.com/mapfiles/place_api/icons/v1/png_71/school-71.png", "name": "Kidzee", "opening_hours": {"open_now": true}, "photos": [{"height": 4160, "html_attributions": ["<a href=\"https://maps.google.com/maps/contrib/107888997961735431867\">Satyam Singh</a>"], "photo_reference": "ATtYBwIk9XvEE43C2liv0dIT2kI07gOa4yg8Ybn3nRYKAPenSY7yydYE-XhePirb0CyEAH7W0_7KtHSQnxKhmIV7KETK5etCDIaySeYUXx-40WN5lPklmB9FvMvDAmp8niKxvyXPE7fRhCyX4l6EDFpbNNe3nlvIbwPI0PEV9y-fwTLz3Z0M", "width": 3120}], "place_id": "ChIJk2wAwbu89jkROORv6RpFng4", "plus_code": {"compound_code": "RF85+6H Lohar Kulli, Dhanbad, Jharkhand, India", "global_code": "7MM8RF85+6H"}, "rating": 4.7, "reference": "ChIJk2wAwbu89jkROORv6RpFng4", "scope": "GOOGLE", "types": ["school", "point_of_interest", "establishment"], "user_ratings_total": 58, "vicinity": "near Saraidhella, New Bank Colony Street, Steel Gate, Lohar Kulli"}, {"business_status": "OPERATIONAL", "geometry": {"location": {"lat": 23.80814, "lng": 86.47438799999999}, "viewport": {"northeast": {"lat": 23.8094349302915, "lng": 86.4756970802915}, "southwest": {"lat": 23.8067369697085, "lng": 86.47299911970849}}}, "icon": "https://maps.gstatic.com/mapfiles/place_api/icons/v1/png_71/school-71.png", "name": "A.g Public School", "opening_hours": {"open_now": true}, "photos": [{"height": 3120, "html_attributions": ["<a href=\"https://maps.google.com/maps/contrib/113293728009421068759\">A.g Public School</a>"], "photo_reference": "ATtYBwIBRHCyiejYDDQSdaBRAkPNzxZvM4ALJ4wSG8eKq2YFM7lJZHOaY8ay97Kpdfb0oDi3m8rE7RlqibGoclTtPAs2ByjcHdUwUnGGzSuTj44Io-12gKscOLUdq7odi92IrhwQnSjsUK6VKj4VvFJZ37ix0q08-6xk6g_I4BMBQ-g1T8La", "width": 4160}], "place_id": "ChIJS6ESinG89jkRuM6GjyZc-rE", "plus_code": {"compound_code": "RF5F+7Q Dhanbad, Jharkhand, India", "global_code": "7MM8RF5F+7Q"}, "rating": 4.4, "reference": "ChIJS6ESinG89jkRuM6GjyZc-rE", "scope": "GOOGLE", "types": ["school", "point_of_interest", "establishment"], "user_ratings_total": 7, "vicinity": "Kusum Vihar Phase 2, Hirak Ring Road, Koyla Nagar, Dhanbad"}, {"business_status": "OPERATIONAL", "geometry": {"location": {"lat": 23.8209255, "lng": 86.46978109999999}, "viewport": {"northeast": {"lat": 23.82203388029151, "lng": 86.47106508029151}, "southwest": {"lat": 23.8193359197085, "lng": 86.46836711970849}}}, "icon": "https://maps.gstatic.com/mapfiles/place_api/icons/v1/png_71/school-71.png", "name": "Kishalay Play School", "photos": [{"height": 3120, "html_attributions": ["<a href=\"https://maps.google.com/maps/contrib/105374435842950797998\">DILIP Kr.</a>"], "photo_reference": "ATtYBwIFbNM2DuagasEDXZf-YR0hrLdcrc4d2Oh57ePlCqh9dlGiLoRJ9le-mBNQx1EDGn-5dBj8Enxtmuc19djNTWDAueQlAxt5wI2KAMnkVsIdlDoib1k2cw_zMrKXnFAXPvaVyqhYDcJBKkywqp8wcFkdRY0J_Un750zOf7MlBJPrKmIe", "width": 4160}], "place_id": "ChIJ0yNi-4e79jkRD5Qj6Oo6bJk", "plus_code": {"compound_code": "RFC9+9W Saraidhella, Jharkhand, India", "global_code": "7MM8RFC9+9W"}, "rating": 5, "reference": "ChIJ0yNi-4e79jkRD5Qj6Oo6bJk", "scope": "GOOGLE", "types": ["school", "point_of_interest", "establishment"], "user_ratings_total": 2, "vicinity": "House No.4, Near, Big Bazar, Nilanchal Colony, Chanakya Nagar, Saraidhella"}, {"business_status": "OPERATIONAL", "geometry": {"location": {"lat": 23.8209344, "lng": 86.4697186}, "viewport": {"northeast": {"lat": 23.8220383302915, "lng": 86.4710338302915}, "southwest": {"lat": 23.8193403697085, "lng": 86.46833586970848}}}, "icon": "https://maps.gstatic.com/mapfiles/place_api/icons/v1/png_71/school-71.png", "name": "L'OR\u00c9AL PROFESSIONAL ACADEMY", "photos": [{"height": 3264, "html_attributions": ["<a href=\"https://maps.google.com/maps/contrib/104574157564922634952\">RLAUNCH SALON AND ACADEMY</a>"], "photo_reference": "ATtYBwKSOLn6-LjWw_cYrLIIY7CDkgAsdK4l9nukEOyYiszpFjUWWxwoNScrQI2AKKtXpqtqG5DOS26wV2Mpxis-Hge54xFHzrLB0KntK_jqeJKQpsweIBRbtAay5PSKnJSLvm_ZQISSq35qriJsZEqwHLvw_s4nr1WmE0WbZRATuf3fWguI", "width": 4928}], "place_id": "ChIJYSj7KMq79jkRwdclJHVJUfI", "plus_code": {"compound_code": "RFC9+9V Dhanbad, Jharkhand, India", "global_code": "7MM8RFC9+9V"}, "rating": 5, "reference": "ChIJYSj7KMq79jkRwdclJHVJUfI", "scope": "GOOGLE", "types": ["school", "point_of_interest", "establishment"], "user_ratings_total": 1, "vicinity": "The Ozone Galleria Mall, NH 32, Sugiadih, Sahayogi Nagar Sector II, Dhanbad"}, {"business_status": "OPERATIONAL", "geometry": {"location": {"lat": 23.8180698, "lng": 86.46969630000001}, "viewport": {"northeast": {"lat": 23.8194154802915, "lng": 86.4710710802915}, "southwest": {"lat": 23.8167175197085, "lng": 86.46837311970849}}}, "icon": "https://maps.gstatic.com/mapfiles/place_api/icons/v1/png_71/school-71.png", "name": "Shiv Tara Bhawan", "place_id": "ChIJ6YbL_Xe89jkRXuyqdMs94ns", "plus_code": {"compound_code": "RF99+6V Dhanbad, Jharkhand, India", "global_code": "7MM8RF99+6V"}, "reference": "ChIJ6YbL_Xe89jkRXuyqdMs94ns", "scope": "GOOGLE", "types": ["school", "point_of_interest", "establishment"], "vicinity": "Nilanchal Colony, Chanakya Nagar, Dhanbad"}, {"business_status": "OPERATIONAL", "geometry": {"location": {"lat": 23.818991, "lng": 86.4675358}, "viewport": {"northeast": {"lat": 23.8203500802915, "lng": 86.46887508029153}, "southwest": {"lat": 23.8176521197085, "lng": 86.4661771197085}}}, "icon": "https://maps.gstatic.com/mapfiles/place_api/icons/v1/png_71/school-71.png", "name": "Coal Field Public School", "place_id": "ChIJgQI7kIe79jkRuS2r6IZ2Bsk", "plus_code": {"compound_code": "RF99+H2 Chhatabad, Jharkhand, India", "global_code": "7MM8RF99+H2"}, "reference": "ChIJgQI7kIe79jkRuS2r6IZ2Bsk", "scope": "GOOGLE", "types": ["school", "point_of_interest", "establishment"], "vicinity": "Katrasgarh, Chhatabad"}, {"business_status": "OPERATIONAL", "geometry": {"location": {"lat": 23.8225575, "lng": 86.4677198}, "viewport": {"northeast": {"lat": 23.8239804802915, "lng": 86.4690988802915}, "southwest": {"lat": 23.8212825197085, "lng": 86.46640091970848}}}, "icon": "https://maps.gstatic.com/mapfiles/place_api/icons/v1/png_71/school-71.png", "name": "N.P.S. Chhattand", "opening_hours": {"open_now": false}, "place_id": "ChIJ30jcHnC79jkR_NBdSLe2Zt8", "plus_code": {"compound_code": "RFF9+23 Saraidhella, Jharkhand, India", "global_code": "7MM8RFF9+23"}, "reference": "ChIJ30jcHnC79jkR_NBdSLe2Zt8", "scope": "GOOGLE", "types": ["school", "point_of_interest", "establishment"], "vicinity": "Sugiadih, Saraidhella"}, {"business_status": "OPERATIONAL", "geometry": {"location": {"lat": 23.8180175, "lng": 86.4667767}, "viewport": {"northeast": {"lat": 23.81940413029151, "lng": 86.4680802302915}, "southwest": {"lat": 23.8167061697085, "lng": 86.4653822697085}}}, "icon": "https://maps.gstatic.com/mapfiles/place_api/icons/v1/png_71/school-71.png", "name": "Mam Power Group", "place_id": "ChIJ-8nHQ6299jkRxszOAZqzTOU", "plus_code": {"compound_code": "RF98+6P Dhanbad, Jharkhand, India", "global_code": "7MM8RF98+6P"}, "reference": "ChIJ-8nHQ6299jkRxszOAZqzTOU", "scope": "GOOGLE", "types": ["school", "point_of_interest", "establishment"], "vicinity": "Chanakya Nagar, Dhanbad"}, {"business_status": "OPERATIONAL", "geometry": {"location": {"lat": 23.8162416, "lng": 86.46691679999999}, "viewport": {"northeast": {"lat": 23.81755178029151, "lng": 86.4682285802915}, "southwest": {"lat": 23.8148538197085, "lng": 86.46553061970849}}}, "icon": "https://maps.gstatic.com/mapfiles/place_api/icons/v1/png_71/school-71.png", "name": "Brilliant Residential School", "place_id": "ChIJc9ncWHi89jkRJJp-m_RYPu4", "plus_code": {"compound_code": "RF88+FQ Saraidhella, Jharkhand, India", "global_code": "7MM8RF88+FQ"}, "rating": 3, "reference": "ChIJc9ncWHi89jkRJJp-m_RYPu4", "scope": "GOOGLE", "types": ["school", "point_of_interest", "establishment"], "user_ratings_total": 4, "vicinity": "Brilliant School, Rajendra Nagar, Mahbubnagar"}, {"business_status": "OPERATIONAL", "geometry": {"location": {"lat": 23.8150908, "lng": 86.4698609}, "viewport": {"northeast": {"lat": 23.8164414302915, "lng": 86.47114478029151}, "southwest": {"lat": 23.81374346970849, "lng": 86.46844681970849}}}, "icon": "https://maps.gstatic.com/mapfiles/place_api/icons/v1/png_71/school-71.png", "name": "LIPIDIH", "place_id": "ChIJZ0lLeHe89jkRr1yrzOXidC0", "plus_code": {"compound_code": "RF89+2W Saraidhella, Jharkhand, India", "global_code": "7MM8RF89+2W"}, "rating": 5, "reference": "ChIJZ0lLeHe89jkRr1yrzOXidC0", "scope": "GOOGLE", "types": ["primary_school", "school", "point_of_interest", "establishment"], "user_ratings_total": 2, "vicinity": "Kola Kusma Road"}, {"business_status": "OPERATIONAL", "geometry": {"location": {"lat": 23.8159532, "lng": 86.46652449999999}, "viewport": {"northeast": {"lat": 23.8172531802915, "lng": 86.4678505802915}, "southwest": {"lat": 23.8145552197085, "lng": 86.46515261970849}}}, "icon": "https://maps.gstatic.com/mapfiles/place_api/icons/v1/png_71/school-71.png", "name": "Goutam Buddha High School", "opening_hours": {"open_now": false}, "place_id": "ChIJZzlf93i89jkRxArsbOVgnuc", "plus_code": {"compound_code": "RF88+9J Dhanbad, Jharkhand, India", "global_code": "7MM8RF88+9J"}, "reference": "ChIJZzlf93i89jkRxArsbOVgnuc", "scope": "GOOGLE", "types": ["school", "point_of_interest", "establishment"], "vicinity": "Chanakya Nagar, Dhanbad"}, {"business_status": "OPERATIONAL", "geometry": {"location": {"lat": 23.8156078, "lng": 86.4729737}, "viewport": {"northeast": {"lat": 23.8169844802915, "lng": 86.4743390802915}, "southwest": {"lat": 23.81428651970849, "lng": 86.47164111970848}}}, "icon": "https://maps.gstatic.com/mapfiles/place_api/icons/v1/png_71/school-71.png", "name": "Utkramit High School", "place_id": "ChIJFcbhMF699jkRA6o8-1ZguiI", "plus_code": {"compound_code": "RF8F+65 Dhanbad, Jharkhand, India", "global_code": "7MM8RF8F+65"}, "reference": "ChIJFcbhMF699jkRA6o8-1ZguiI", "scope": "GOOGLE", "types": ["school", "point_of_interest", "establishment"], "vicinity": "Kola Kusma Road, Chanakya Nagar, Dhanbad"}, {"business_status": "CLOSED_TEMPORARILY", "geometry": {"location": {"lat": 23.815062, "lng": 86.4682412}, "viewport": {"northeast": {"lat": 23.8163940802915, "lng": 86.4696317302915}, "southwest": {"lat": 23.8136961197085, "lng": 86.46693376970848}}}, "icon": "https://maps.gstatic.com/mapfiles/place_api/icons/v1/png_71/school-71.png", "name": "First Step Playschool", "permanently_closed": true, "photos": [{"height": 320, "html_attributions": ["<a href=\"https://maps.google.com/maps/contrib/109645065671149634282\">Bhakti sangeet</a>"], "photo_reference": "ATtYBwJ-uTYT3JeG66Krp2EE8Rx9-Jhp8Yhufmvk8_YT8giUIEU55NqbKBAifM_-iF_DARt3hHXX70pf-c8FKsZ7NHs4Nvh4Z_QkLn7QnRDqzVPeT-MiRBbYCiexpotvSwtIX8o_FB8-BURwHtKFQW5z2kFSRLCAdxw4Mvd5h0tokMCoq1Pp", "width": 320}], "place_id": "ChIJ6yABy3m89jkRUhCakPDgGeY", "plus_code": {"compound_code": "RF89+27 Dhanbad, Jharkhand, India", "global_code": "7MM8RF89+27"}, "rating": 5, "reference": "ChIJ6yABy3m89jkRUhCakPDgGeY", "scope": "GOOGLE", "types": ["school", "point_of_interest", "establishment"], "user_ratings_total": 4, "vicinity": "near Muskan Enclave, Kola Kusma Road, Shakti Vihar Colony, Chanakya Nagar, Dhanbad"}, {"business_status": "OPERATIONAL", "geometry": {"location": {"lat": 23.8155803, "lng": 86.4664957}, "viewport": {"northeast": {"lat": 23.8169028302915, "lng": 86.46794613029151}, "southwest": {"lat": 23.8142048697085, "lng": 86.4652481697085}}}, "icon": "https://maps.gstatic.com/mapfiles/place_api/icons/v1/png_71/school-71.png", "name": "Sharif", "place_id": "ChIJ0WbYE2C99jkR03NtzpdVMw0", "plus_code": {"compound_code": "RF88+6H Dhanbad, Jharkhand, India", "global_code": "7MM8RF88+6H"}, "reference": "ChIJ0WbYE2C99jkR03NtzpdVMw0", "scope": "GOOGLE", "types": ["school", "point_of_interest", "establishment"], "vicinity": "Unnamed Road, Chanakya Nagar, Dhanbad"}, {"business_status": "OPERATIONAL", "geometry": {"location": {"lat": 23.8250449, "lng": 86.4734332}, "viewport": {"northeast": {"lat": 23.82635748029151, "lng": 86.4747736302915}, "southwest": {"lat": 23.8236595197085, "lng": 86.47207566970849}}}, "icon": "https://maps.gstatic.com/mapfiles/place_api/icons/v1/png_71/school-71.png", "name": "New Kids Campus", "photos": [{"height": 3463, "html_attributions": ["<a href=\"https://maps.google.com/maps/contrib/114561565080808606392\">Sunil Kr Bansal</a>"], "photo_reference": "ATtYBwL_uXPt2ntNWqQioVDbVlyJKwCM_aBhqxW_3UxQeRmCQD1tey84eVPxKv1foZEtatTgLUsT2utafj5cTx268HGvLMazPvQDRGeFxXgRZ7gMgCgQdPHkLDL9cnGt2LGWr1XVooVmowbGoUVNYfuNr3d0dey7COSP0_OtDp1LwbVV0KkA", "width": 4618}], "place_id": "ChIJ1X0Cuo679jkRswRJ9OhvSQc", "plus_code": {"compound_code": "RFGF+29 Dhanbad, Jharkhand, India", "global_code": "7MM8RFGF+29"}, "rating": 5, "reference": "ChIJ1X0Cuo679jkRswRJ9OhvSQc", "scope": "GOOGLE", "types": ["school", "point_of_interest", "establishment"], "user_ratings_total": 1, "vicinity": "K.G. Ashram, Brindavan Colony, Dhanbad"}, {"business_status": "OPERATIONAL", "geometry": {"location": {"lat": 23.824584, "lng": 86.4742369}, "viewport": {"northeast": {"lat": 23.82594428029151, "lng": 86.47552733029151}, "southwest": {"lat": 23.8232463197085, "lng": 86.47282936970849}}}, "icon": "https://maps.gstatic.com/mapfiles/place_api/icons/v1/png_71/school-71.png", "name": "Kalyan Vidya Bharti", "opening_hours": {"open_now": false}, "place_id": "ChIJ5a17h3-79jkRJmCtdGkDjbE", "plus_code": {"compound_code": "RFFF+RM Dhanbad, Jharkhand, India", "global_code": "7MM8RFFF+RM"}, "reference": "ChIJ5a17h3-79jkRJmCtdGkDjbE", "scope": "GOOGLE", "types": ["school", "point_of_interest", "establishment"], "vicinity": "Road-3, Brindavan Colony, Dhanbad"}, {"business_status": "OPERATIONAL", "geometry": {"location": {"lat": 23.8259942, "lng": 86.472931}, "viewport": {"northeast": {"lat": 23.8273261802915, "lng": 86.47435393029151}, "southwest": {"lat": 23.8246282197085, "lng": 86.4716559697085}}}, "icon": "https://maps.gstatic.com/mapfiles/place_api/icons/v1/png_71/school-71.png", "name": "SHISHU VIDYA NIKETAN ENGLISH MEDIUM SCHOOL", "opening_hours": {"open_now": true}, "place_id": "ChIJWY_MotS79jkRs08uq1OjK8U", "plus_code": {"compound_code": "RFGF+95 Dhanbad, Jharkhand, India", "global_code": "7MM8RFGF+95"}, "rating": 4.5, "reference": "ChIJWY_MotS79jkRs08uq1OjK8U", "scope": "GOOGLE", "types": ["school", "point_of_interest", "establishment"], "user_ratings_total": 2, "vicinity": "Tapovan colony , Near CMPF Samudaik Bhawan, Tapowan colony, Dhanbad"}], "status": "OK"}