{"html_attributions": [], "next_page_token": "ATtYBwILAK4C_oHstlvwIZrXBEk2sfemEc6hrvH9aUiVuaHUuGacJrO47FCo_It3K46qFYfWgcIxButBJadxJrpZUhOa74bTn9ZFwWRWcnNnHvUXKGL4ju-YRQs3qmRQgpQ326Atiwqeej_rueG0f4lpyMgwCTJtnJWgep_tfn-ooTPFVYPBxLW555hiPSD21opuZ2T7PGL3YEjLS7vz3vyGqkzNz2hLEwiUGBvNKwr3zGKI4dj3D6hteU4W37HsyIpEIAVnBkc3nWiOgzdGOb7ON9D3Khb1i7dTFk6G7_S4Pp20Zhmq_jcksvfgEQoRkRw6sPFzpLqfgdKS5Nz-KLNYDqq6S_6_CLjGps3TPR26cbCUGQHFOp--YEOz55MybV7OqScoLElK6mBmbl9cF1azqzHqivdjR2cUMigGLs8GiZ3LzYnOArc", "results": [{"business_status": "OPERATIONAL", "geometry": {"location": {"lat": 23.821266, "lng": 86.48984170000001}, "viewport": {"northeast": {"lat": 23.8224433802915, "lng": 86.49092523029152}, "southwest": {"lat": 23.8197454197085, "lng": 86.4882272697085}}}, "icon": "https://maps.gstatic.com/mapfiles/place_api/icons/v1/png_71/school-71.png", "name": "Dhanbad Public School", "opening_hours": {"open_now": true}, "photos": [{"height": 3120, "html_attributions": ["<a href=\"https://maps.google.com/maps/contrib/101847132160878205956\">Pankaj Bhushan</a>"], "photo_reference": "ATtYBwKpWjbBQ1QhVlpVteu9WjFxKOT7zSvt66ZY5m05Gl0LaAhEIhMlTg4RZT5E03v3jWNIvFpgtskTq9C2eykMcFMlOQU6ZOCxaua3yDUeVmpEBJU89y6nIEl3peUQpzwccPfQZ5x1GD42ZSDvaJzpUi7JHxV1heyPJAmub8_VIbqYjDtV", "width": 4160}], "place_id": "ChIJr8ZVdve79jkRJPW-eV8NS_Y", "plus_code": {"compound_code": "RFCQ+GW Dhanbad, Jharkhand, India", "global_code": "7MM8RFCQ+GW"}, "rating": 3.8, "reference": "ChIJr8ZVdve79jkRJPW-eV8NS_Y", "scope": "GOOGLE", "types": ["school", "point_of_interest", "establishment"], "user_ratings_total": 97, "vicinity": "Govindpur Road, KG Ashram, Dhanbad"}, {"business_status": "OPERATIONAL", "geometry": {"location": {"lat": 23.8261567, "lng": 86.4878019}, "viewport": {"northeast": {"lat": 23.8273251302915, "lng": 86.4891867802915}, "southwest": {"lat": 23.8246271697085, "lng": 86.48648881970848}}}, "icon": "https://maps.gstatic.com/mapfiles/place_api/icons/v1/png_71/school-71.png", "name": "Dhanbad Public School", "photos": [{"height": 1920, "html_attributions": ["<a href=\"https://maps.google.com/maps/contrib/105225839505947383212\">Sanjeet Kumar</a>"], "photo_reference": "ATtYBwLsZWGHJGIUNe1qxmqiZiWae_S_4F0nAlnKAm4tuAsPOljRRAl75SghY9VyPg8kJgd-mnbJANI_rwofMT3BCPmni3yiOBiqzQTN2awTsqO15R9QvmvJovC7YvoRegtrStulejv_EICV-GY7QFkosfoIzRcaeAQkMvnvUUuZEQMpJctT", "width": 1088}], "place_id": "ChIJ0-006PC79jkR2leNYHVIakE", "plus_code": {"compound_code": "RFGQ+F4 Dhanbad, Jharkhand, India", "global_code": "7MM8RFGQ+F4"}, "rating": 2.6, "reference": "ChIJ0-006PC79jkR2leNYHVIakE", "scope": "GOOGLE", "types": ["school", "point_of_interest", "establishment"], "user_ratings_total": 5, "vicinity": "Jamtara - Dhanbad Road, Tapowan colony, Dhanbad"}, {"business_status": "OPERATIONAL", "geometry": {"location": {"lat": 23.8265489, "lng": 86.490084}, "viewport": {"northeast": {"lat": 23.82789018029151, "lng": 86.49126598029152}, "southwest": {"lat": 23.8251922197085, "lng": 86.4885680197085}}}, "icon": "https://maps.gstatic.com/mapfiles/place_api/icons/v1/png_71/school-71.png", "name": "Aparna Public School", "opening_hours": {"open_now": true}, "photos": [{"height": 720, "html_attributions": ["<a href=\"https://maps.google.com/maps/contrib/115315458017024082008\">Santosh Kumar</a>"], "photo_reference": "ATtYBwL1N3F6mcwMEtg3u8rGHpR5iVfHaokwuA77PGPsqnvD7mnj4KM8Y3WkwXWp-4BT0V_OVUYY3w8SmaESbkzxhUyX5E0w9B2U7KbGAIeCHMxSbAd2l5BNi_XBWKaMscfohRTov5sBRs4SLVGFTDh6i5nTciAAmjaEoHlaNt8d1-Typ-_V", "width": 1280}], "place_id": "ChIJsYLTo_C79jkRXwmNi06X1IA", "plus_code": {"compound_code": "RFGR+J2 Dhanbad, Jharkhand, India", "global_code": "7MM8RFGR+J2"}, "rating": 3.6, "reference": "ChIJsYLTo_C79jkRXwmNi06X1IA", "scope": "GOOGLE", "types": ["school", "point_of_interest", "establishment"], "user_ratings_total": 31, "vicinity": "Govindpur Road, Gosaindih, Dhanbad"}, {"business_status": "OPERATIONAL", "geometry": {"location": {"lat": 23.82106379999999, "lng": 86.4899714}, "viewport": {"northeast": {"lat": 23.8222471302915, "lng": 86.49106348029152}, "southwest": {"lat": 23.81954916970849, "lng": 86.4883655197085}}}, "icon": "https://maps.gstatic.com/mapfiles/place_api/icons/v1/png_71/school-71.png", "name": "Dhanbadpublicmainbranch", "place_id": "ChIJ018QL_i79jkRV5k4fRgg2YE", "plus_code": {"compound_code": "RFCQ+CX Gosaidi, Jharkhand, India", "global_code": "7MM8RFCQ+CX"}, "reference": "ChIJ018QL_i79jkRV5k4fRgg2YE", "scope": "GOOGLE", "types": ["school", "point_of_interest", "establishment"], "vicinity": "Ashok Nagar Sector-2, Gosaidi"}, {"business_status": "OPERATIONAL", "geometry": {"location": {"lat": 23.8202624, "lng": 86.4927103}, "viewport": {"northeast": {"lat": 23.8215314802915, "lng": 86.4940241802915}, "southwest": {"lat": 23.8188335197085, "lng": 86.4913262197085}}}, "icon": "https://maps.gstatic.com/mapfiles/place_api/icons/v1/png_71/school-71.png", "name": "Credos world school", "place_id": "ChIJe236_9u79jkR2fTUOAvr92c", "plus_code": {"compound_code": "RFCV+43 Amaghata, Jharkhand, India", "global_code": "7MM8RFCV+43"}, "reference": "ChIJe236_9u79jkR2fTUOAvr92c", "scope": "GOOGLE", "types": ["school", "point_of_interest", "establishment"], "vicinity": "Amaghata"}, {"business_status": "OPERATIONAL", "geometry": {"location": {"lat": 23.8233066, "lng": 86.4887543}, "viewport": {"northeast": {"lat": 23.8246411802915, "lng": 86.49009793029151}, "southwest": {"lat": 23.8219432197085, "lng": 86.4873999697085}}}, "icon": "https://maps.gstatic.com/mapfiles/place_api/icons/v1/png_71/school-71.png", "name": "Dhanbad Public School ( Boys Block)", "place_id": "ChIJEZi9rNa79jkRQrQinNnLJDU", "plus_code": {"compound_code": "RFFQ+8G Gosaidi, Jharkhand, India", "global_code": "7MM8RFFQ+8G"}, "reference": "ChIJEZi9rNa79jkRQrQinNnLJDU", "scope": "GOOGLE", "types": ["school", "point_of_interest", "establishment"], "vicinity": "Unnamed Road, Ashok Nagar Sector-2, Gosaidi"}, {"business_status": "OPERATIONAL", "geometry": {"location": {"lat": 23.8237052, "lng": 86.49257150000001}, "viewport": {"northeast": {"lat": 23.8250808302915, "lng": 86.4939276802915}, "southwest": {"lat": 23.8223828697085, "lng": 86.4912297197085}}}, "icon": "https://maps.gstatic.com/mapfiles/place_api/icons/v1/png_71/school-71.png", "name": "upgrade middle school jiramuri", "place_id": "ChIJ9Qqkcfm79jkRXV2fscrVmsA", "plus_code": {"compound_code": "RFFV+F2 Dhanbad, Jharkhand, India", "global_code": "7MM8RFFV+F2"}, "reference": "ChIJ9Qqkcfm79jkRXV2fscrVmsA", "scope": "GOOGLE", "types": ["school", "point_of_interest", "establishment"], "vicinity": "Ashok Nagar Sector-2, Dhanbad"}, {"business_status": "OPERATIONAL", "geometry": {"location": {"lat": 23.8251076, "lng": 86.4857692}, "viewport": {"northeast": {"lat": 23.8264460802915, "lng": 86.4870816802915}, "southwest": {"lat": 23.8237481197085, "lng": 86.48438371970849}}}, "icon": "https://maps.gstatic.com/mapfiles/place_api/icons/v1/png_71/school-71.png", "name": "Tej Study Circle", "photos": [{"height": 1920, "html_attributions": ["<a href=\"https://maps.google.com/maps/contrib/109420725104558492531\">SUBODH TIWARI</a>"], "photo_reference": "ATtYBwKS8GyEfJbhycY7SCkJxeHiGMAZSTwQj0HPv8tTK6_3GNf16ZdYiyB91uLT-Cpqzu8AIb_lhUMq_luUWyIuV9JpoUFQSUbBSeqgs_SP_j1_cIQ5Z032SVLi3I9I5Rc_zgoXpBIgoAlEwN7IFIuT46hH-vY9ZfTlz577DHB8SrOhxQn6", "width": 1080}], "place_id": "ChIJj3vVULG79jkR5yCpl1w3AHY", "plus_code": {"compound_code": "RFGP+28 Dhanbad, Jharkhand, India", "global_code": "7MM8RFGP+28"}, "rating": 5, "reference": "ChIJj3vVULG79jkR5yCpl1w3AHY", "scope": "GOOGLE", "types": ["school", "point_of_interest", "establishment"], "user_ratings_total": 2, "vicinity": "Govindpur Road, Ashok Nagar Sector-2, Dhanbad"}, {"business_status": "OPERATIONAL", "geometry": {"location": {"lat": 23.8226682, "lng": 86.48269119999999}, "viewport": {"northeast": {"lat": 23.8240400302915, "lng": 86.4840415802915}, "southwest": {"lat": 23.8213420697085, "lng": 86.4813436197085}}}, "icon": "https://maps.gstatic.com/mapfiles/place_api/icons/v1/png_71/school-71.png", "name": "Sister Nivedita Play School", "opening_hours": {"open_now": false}, "photos": [{"height": 480, "html_attributions": ["<a href=\"https://maps.google.com/maps/contrib/112586760257962233165\">Prem Chandra</a>"], "photo_reference": "ATtYBwIFPvz9drcwFkeVrMdrvB06x7pFSPqSAjuWACZCPSOSpFcYRw5qEL3GrG5cZnz90tsufnn1MyeYgkfdG2xjINoszPu2VPgO0CH1dHEu_qWBr8xyUsHDf6PGyQWz9yj5RQCZqpCadiaDD7YOcpSaM0JwFJmaRullCzY05Jw3es3p72zK", "width": 640}], "place_id": "ChIJ74RpQ_S79jkR9Xi3GBRqrrk", "plus_code": {"compound_code": "RFFM+33 Dhanbad, Jharkhand, India", "global_code": "7MM8RFFM+33"}, "rating": 3.5, "reference": "ChIJ74RpQ_S79jkR9Xi3GBRqrrk", "scope": "GOOGLE", "types": ["school", "point_of_interest", "establishment"], "user_ratings_total": 2, "vicinity": "Vanasthali Colony, Bhuiphor, Kolakusma, Dhanbad"}, {"business_status": "CLOSED_TEMPORARILY", "geometry": {"location": {"lat": 23.8251533, "lng": 86.48449409999999}, "viewport": {"northeast": {"lat": 23.8264690302915, "lng": 86.48585358029152}, "southwest": {"lat": 23.8237710697085, "lng": 86.48315561970851}}}, "icon": "https://maps.gstatic.com/mapfiles/place_api/icons/v1/png_71/school-71.png", "name": "Bachpan Play School, Acropolis", "permanently_closed": true, "photos": [{"height": 1599, "html_attributions": ["<a href=\"https://maps.google.com/maps/contrib/116696409905088741625\">Shory pratap Singh</a>"], "photo_reference": "ATtYBwIm2rymqtYI5mDYM5f8uk2b0gc-ET3YTq_YOPK7xwIOHcN2oIOFRJRYVAyYLXbDY_DiyFdd4TSHO2ros_40qBWFqBPaS5hh-Cl2u8qT6ku1Q4Axa6r5XMFkj_rM7L1OcbFvl5_MLfzFhcO35PkBr8fkReSJ6KQalyaoSQCLv_-a_BW3", "width": 1735}], "place_id": "ChIJG7p0YZO79jkRqwL5A1kqFbo", "plus_code": {"compound_code": "RFGM+3Q Dhanbad, Jharkhand, India", "global_code": "7MM8RFGM+3Q"}, "rating": 5, "reference": "ChIJG7p0YZO79jkRqwL5A1kqFbo", "scope": "GOOGLE", "types": ["school", "point_of_interest", "establishment"], "user_ratings_total": 1, "vicinity": "near Bhuiphore Mandir, F-015. The Acropolis, near Bhuiphore Mandir, Tundi - Govindpur - Dhanbad Road, Dhanbad"}, {"business_status": "OPERATIONAL", "geometry": {"location": {"lat": 23.8189165, "lng": 86.4986772}, "viewport": {"northeast": {"lat": 23.8205464302915, "lng": 86.5000682802915}, "southwest": {"lat": 23.81784846970849, "lng": 86.4973703197085}}}, "icon": "https://maps.gstatic.com/mapfiles/place_api/icons/v1/png_71/school-71.png", "name": "Jawaharlal Nehru Sr. Sec School", "place_id": "ChIJaaD59f-79jkRXQbi_D38QnM", "plus_code": {"compound_code": "RF9X+HF Amaghata, Jharkhand, India", "global_code": "7MM8RF9X+HF"}, "rating": 5, "reference": "ChIJaaD59f-79jkRXQbi_D38QnM", "scope": "GOOGLE", "types": ["school", "point_of_interest", "establishment"], "user_ratings_total": 1, "vicinity": "Amaghata"}, {"business_status": "OPERATIONAL", "geometry": {"location": {"lat": 23.8153824, "lng": 86.4824072}, "viewport": {"northeast": {"lat": 23.81668408029151, "lng": 86.48363793029151}, "southwest": {"lat": 23.8139861197085, "lng": 86.4809399697085}}}, "icon": "https://maps.gstatic.com/mapfiles/place_api/icons/v1/png_71/school-71.png", "name": "Gitanjali Public School", "place_id": "ChIJE1n4rAu89jkRkeBpOhXjtyQ", "plus_code": {"compound_code": "RF8J+5X Dhanbad, Jharkhand, India", "global_code": "7MM8RF8J+5X"}, "rating": 5, "reference": "ChIJE1n4rAu89jkRkeBpOhXjtyQ", "scope": "GOOGLE", "types": ["primary_school", "school", "point_of_interest", "establishment"], "user_ratings_total": 1, "vicinity": "near Hotel Mahanayak, Kalakusuma, Hirak Road, near Hotel Mahanayak, Dhanbad"}, {"business_status": "OPERATIONAL", "geometry": {"location": {"lat": 23.8189217, "lng": 86.49965460000001}, "viewport": {"northeast": {"lat": 23.8201950302915, "lng": 86.50104968029152}, "southwest": {"lat": 23.8174970697085, "lng": 86.49835171970851}}}, "icon": "https://maps.gstatic.com/mapfiles/place_api/icons/v1/png_71/school-71.png", "name": "Gyan Coaching Centre, Rathtand", "place_id": "ChIJ_Tj9iIW79jkRzbywmP7d6YQ", "plus_code": {"compound_code": "RF9X+HV Baghmara, Jharkhand, India", "global_code": "7MM8RF9X+HV"}, "reference": "ChIJ_Tj9iIW79jkRzbywmP7d6YQ", "scope": "GOOGLE", "types": ["school", "point_of_interest", "establishment"], "vicinity": "Rathtand, Baghmara"}, {"business_status": "OPERATIONAL", "geometry": {"location": {"lat": 23.8189217, "lng": 86.49965460000001}, "viewport": {"northeast": {"lat": 23.8201950302915, "lng": 86.50104968029152}, "southwest": {"lat": 23.8174970697085, "lng": 86.49835171970851}}}, "icon": "https://maps.gstatic.com/mapfiles/place_api/icons/v1/png_71/school-71.png", "name": "Burragarh Golai Govt. School", "place_id": "ChIJ______-79jkRXZ5Zfaa5Vt0", "plus_code": {"compound_code": "RF9X+HV Dhanbad, Jharkhand, India", "global_code": "7MM8RF9X+HV"}, "rating": 3, "reference": "ChIJ______-79jkRXZ5Zfaa5Vt0", "scope": "GOOGLE", "types": ["school", "point_of_interest", "establishment"], "user_ratings_total": 1, "vicinity": "Dhanbad"}, {"business_status": "OPERATIONAL", "geometry": {"location": {"lat": 23.827232, "lng": 86.4841281}, "viewport": {"northeast": {"lat": 23.8285537802915, "lng": 86.48546048029151}, "southwest": {"lat": 23.8258558197085, "lng": 86.4827625197085}}}, "icon": "https://maps.gstatic.com/mapfiles/place_api/icons/v1/png_71/school-71.png", "name": "Upgraded High School Goshaydih", "opening_hours": {"open_now": false}, "photos": [{"height": 1080, "html_attributions": ["<a href=\"https://maps.google.com/maps/contrib/100793847851300540115\">ROYAL SQUAD786</a>"], "photo_reference": "ATtYBwK3gNN1AVJbL1OppKDYgsZxBGNUTA5fH55Qy5n4yJRik1wuC2eDm261ANKO7NpdZo4Es6WeWMxbUnUk2up0ZhCgEVcZ5w_IrFsXfrN9XzRpBaKVY8XXzC_InP-TxV54D2dnt8GJJo_rmP2a80QQQlpuDyCLSsUjCs1N26AYcQH-ofjc", "width": 1920}], "place_id": "ChIJPYBoUEO79jkR2jazYKNaZSA", "plus_code": {"compound_code": "RFGM+VM Dhanbad, Jharkhand, India", "global_code": "7MM8RFGM+VM"}, "reference": "ChIJPYBoUEO79jkR2jazYKNaZSA", "scope": "GOOGLE", "types": ["school", "point_of_interest", "establishment"], "vicinity": "Sabalpur Road, Tapowan colony, Dhanbad"}, {"business_status": "OPERATIONAL", "geometry": {"location": {"lat": 23.8275018, "lng": 86.48444640000001}, "viewport": {"northeast": {"lat": 23.8288940802915, "lng": 86.48568593029151}, "southwest": {"lat": 23.8261961197085, "lng": 86.4829879697085}}}, "icon": "https://maps.gstatic.com/mapfiles/place_api/icons/v1/png_71/school-71.png", "name": "government H.S. School , Gosaidih", "photos": [{"height": 3120, "html_attributions": ["<a href=\"https://maps.google.com/maps/contrib/104818939348562885022\">binod Raut</a>"], "photo_reference": "ATtYBwLpeowIndayojBA_vTYd76AV50TY2CJgtVJ_WhYMgDkovQONwshgKFEjxsldUczTfFjUJvb8gUGKnJd3uaS1NB5njJLFQ6K8Dog_Bg7k3CaCX40tkJAeYTgkA4zxTnn6J3aaGivJqd_VF2JseO0DLWHHLeyVMbYsfL-dA5d_Qewvn4t", "width": 4160}], "place_id": "ChIJ3ZWzKvK79jkR9OOT_Lrb4r4", "plus_code": {"compound_code": "RFHM+2Q Dhanbad, Jharkhand, India", "global_code": "7MM8RFHM+2Q"}, "rating": 4.3, "reference": "ChIJ3ZWzKvK79jkR9OOT_Lrb4r4", "scope": "GOOGLE", "types": ["school", "point_of_interest", "establishment"], "user_ratings_total": 3, "vicinity": "Tapowan colony, Dhanbad"}, {"business_status": "OPERATIONAL", "geometry": {"location": {"lat": 23.82168, "lng": 86.4801643}, "viewport": {"northeast": {"lat": 23.8229705302915, "lng": 86.4814713302915}, "southwest": {"lat": 23.8202725697085, "lng": 86.47877336970849}}}, "icon": "https://maps.gstatic.com/mapfiles/place_api/icons/v1/png_71/school-71.png", "name": "Butterfly", "opening_hours": {"open_now": false}, "photos": [{"height": 2140, "html_attributions": ["<a href=\"https://maps.google.com/maps/contrib/104678288284916748045\">Butterfly</a>"], "photo_reference": "ATtYBwKfdtgiVEvtUtAGSjnCDY8400dRNAoFBnpjrJpvrKj0iERQRIqX9Myep6NOixwBgpr3cLIV9z2MmzfWdcnQVWnS5cwDtm18A1bPl2B9NxgPtHhV5qAMocgbhwIuCHGwDPEwMnU1-CDVYgAsE6-cfMnp0cWyr-O-VbgdJE7qKHMoy4Zm", "width": 4192}], "place_id": "ChIJBVC32fS79jkRsxfx4hfluX0", "plus_code": {"compound_code": "RFCJ+M3 Dhanbad, Jharkhand, India", "global_code": "7MM8RFCJ+M3"}, "rating": 5, "reference": "ChIJBVC32fS79jkRsxfx4hfluX0", "scope": "GOOGLE", "types": ["school", "point_of_interest", "establishment"], "user_ratings_total": 44, "vicinity": "Baliapur Hirak Road, Kusum Vihar, Dhanbad"}, {"business_status": "OPERATIONAL", "geometry": {"location": {"lat": 23.8300104, "lng": 86.489592}, "viewport": {"northeast": {"lat": 23.8314384802915, "lng": 86.4909499302915}, "southwest": {"lat": 23.8287405197085, "lng": 86.4882519697085}}}, "icon": "https://maps.gstatic.com/mapfiles/place_api/icons/v1/png_71/school-71.png", "name": "P.S.N. Public School", "place_id": "ChIJkaKsuIm79jkRAp_TlyE9nek", "plus_code": {"compound_code": "RFJQ+2R Dhanbad, Jharkhand, India", "global_code": "7MM8RFJQ+2R"}, "reference": "ChIJkaKsuIm79jkRAp_TlyE9nek", "scope": "GOOGLE", "types": ["school", "point_of_interest", "establishment"], "vicinity": "Lal Bangla, Kagalo, Tundi - Govindpur - Dhanbad Road, Dhanbad"}, {"business_status": "CLOSED_TEMPORARILY", "geometry": {"location": {"lat": 23.8217033, "lng": 86.4791285}, "viewport": {"northeast": {"lat": 23.8230921802915, "lng": 86.4805856802915}, "southwest": {"lat": 23.82039421970849, "lng": 86.47788771970849}}}, "icon": "https://maps.gstatic.com/mapfiles/place_api/icons/v1/png_71/school-71.png", "name": "PMKK Dhanbad", "permanently_closed": true, "photos": [{"height": 2000, "html_attributions": ["<a href=\"https://maps.google.com/maps/contrib/116696409905088741625\">Shory pratap Singh</a>"], "photo_reference": "ATtYBwI3iPjis7bdD_2mWGE9SOkWhHoNT8jTERCvqt6mjF0IA1myweURTwKz0ICd8XDyFJzBBjUTbME9wPG-YEBggd0H_vyUgpLRI6xD4U_oltfvSq1lrfmKUzJxmRxBj-xuQV0WJLYkTZGNPfcqiwU8f8E-VP4c84XGr4xU45tCJHlVBbjx", "width": 1553}], "place_id": "ChIJp3-TK4u79jkR9KbWlgW34rE", "plus_code": {"compound_code": "RFCH+MM Dhanbad, Jharkhand, India", "global_code": "7MM8RFCH+MM"}, "rating": 3.9, "reference": "ChIJp3-TK4u79jkR9KbWlgW34rE", "scope": "GOOGLE", "types": ["school", "point_of_interest", "establishment"], "user_ratings_total": 7, "vicinity": "Baliapur Hirak Road, Chanakya Nagar, Dhanbad"}, {"business_status": "OPERATIONAL", "geometry": {"location": {"lat": 23.82808900000001, "lng": 86.48333}, "viewport": {"northeast": {"lat": 23.8293284802915, "lng": 86.48447308029151}, "southwest": {"lat": 23.8266305197085, "lng": 86.48177511970849}}}, "icon": "https://maps.gstatic.com/mapfiles/place_api/icons/v1/png_71/school-71.png", "name": "High school gosaindih", "photos": [{"height": 3000, "html_attributions": ["<a href=\"https://maps.google.com/maps/contrib/105419705952837596561\">Ritesh Mahato</a>"], "photo_reference": "ATtYBwIoxq36mr6RQNDO7BM7sl52_pwnofe17ue5JotGpxaTTODrumombWM-sYO9r2ZO51f_bnrl7mkYpW210Fbk_zegLx4S17lq3K2rewELz0TifjbUSsWgeIoGUWMDUAkfAqxgllPgrajkVsqhKLZEQ4V29hou9mcPJ_qs2S2uOT-C24NA", "width": 4000}], "place_id": "ChIJMzn4GOi79jkRDa6dueFPa0I", "plus_code": {"compound_code": "RFHM+68 Dhanbad, Jharkhand, India", "global_code": "7MM8RFHM+68"}, "rating": 4.5, "reference": "ChIJMzn4GOi79jkRDa6dueFPa0I", "scope": "GOOGLE", "types": ["school", "point_of_interest", "establishment"], "user_ratings_total": 2, "vicinity": "Sabalpur Road, Tapowan colony, Dhanbad"}], "status": "OK"}