{"html_attributions": [], "results": [{"business_status": "OPERATIONAL", "geometry": {"location": {"lat": 23.9870123, "lng": 86.4880573}, "viewport": {"northeast": {"lat": 23.98822948029151, "lng": 86.4897952302915}, "southwest": {"lat": 23.9855315197085, "lng": 86.48709726970849}}}, "icon": "https://maps.gstatic.com/mapfiles/place_api/icons/v1/png_71/school-71.png", "name": "St. Xaviers High School Gadi Tundi", "photos": [{"height": 3096, "html_attributions": ["<a href=\"https://maps.google.com/maps/contrib/103123883853319410666\">Jaiprakash D&#39;Souza</a>"], "photo_reference": "ATtYBwJ603TU_BFLT1Q4mKoSUq__RAx3GKlU_yydnJEZhDZjB0y_8IeaIIK9ZyzscNMXcmOxEaHjDF1QCf1GNmMY6Mr4T4Wa-Zx5DFdScad-al9bi995VN9brvHIpFDDaRenVCJ89x2jxAH48e4JHRACjrvGCVZ44uNFMcFjC29oAOFROUY", "width": 4128}], "place_id": "ChIJkUDDuxax9jkR-iTVmgAf2Q8", "plus_code": {"compound_code": "XFPQ+R6 Ratanpur, Jharkhand, India", "global_code": "7MM8XFPQ+R6"}, "rating": 4.3, "reference": "ChIJkUDDuxax9jkR-iTVmgAf2Q8", "scope": "GOOGLE", "types": ["school", "point_of_interest", "establishment"], "user_ratings_total": 8, "vicinity": "Tundi - Govindpur - Dhanbad Road, Ratanpur"}, {"business_status": "OPERATIONAL", "geometry": {"location": {"lat": 23.9843304, "lng": 86.4972174}, "viewport": {"northeast": {"lat": 23.9857958302915, "lng": 86.49865203029151}, "southwest": {"lat": 23.98309786970849, "lng": 86.49595406970849}}}, "icon": "https://maps.gstatic.com/mapfiles/place_api/icons/v1/png_71/school-71.png", "name": "Primary school Bahadurpur", "place_id": "ChIJEQO5dzWx9jkRqrL336D_NZE", "plus_code": {"compound_code": "XFMW+PV Bahadurpur, Jharkhand, India", "global_code": "7MM8XFMW+PV"}, "rating": 2, "reference": "ChIJEQO5dzWx9jkRqrL336D_NZE", "scope": "GOOGLE", "types": ["school", "point_of_interest", "establishment"], "user_ratings_total": 1, "vicinity": "Bahadurpur"}, {"business_status": "CLOSED_TEMPORARILY", "geometry": {"location": {"lat": 23.969416, "lng": 86.4929839}, "viewport": {"northeast": {"lat": 23.9707942802915, "lng": 86.4942973802915}, "southwest": {"lat": 23.9680963197085, "lng": 86.49159941970849}}}, "icon": "https://maps.gstatic.com/mapfiles/place_api/icons/v1/png_71/school-71.png", "name": "Madhya vidyalya Lodhariya", "permanently_closed": true, "place_id": "ChIJ_RGyVi6x9jkRSBI92b2Pozo", "plus_code": {"compound_code": "XF9V+Q5 Ludhuria, Jharkhand, India", "global_code": "7MM8XF9V+Q5"}, "reference": "ChIJ_RGyVi6x9jkRSBI92b2Pozo", "scope": "GOOGLE", "types": ["school", "point_of_interest", "establishment"], "vicinity": "Ludhuria"}, {"business_status": "OPERATIONAL", "geometry": {"location": {"lat": 23.969348, "lng": 86.49292659999999}, "viewport": {"northeast": {"lat": 23.9707285302915, "lng": 86.4942373302915}, "southwest": {"lat": 23.9680305697085, "lng": 86.49153936970848}}}, "icon": "https://maps.gstatic.com/mapfiles/place_api/icons/v1/png_71/school-71.png", "name": "Middle School Loudhria", "photos": [{"height": 1920, "html_attributions": ["<a href=\"https://maps.google.com/maps/contrib/104743994444189830334\">B.K.MANDAL</a>"], "photo_reference": "ATtYBwIZwO3Yjdw85JSXRHa8x7nJhUxT37j4oriVtywCEWRlGd_grjzOYV-5Hhmhk7YP9iUFsFANr-D261-O2WyOl9SR3sGokAvit8vDZS0JLW84dYfrjFTeVrjBcCItF1Upm06esuM-29iA5ZGDavYBuYwS1dDdFkEitPY-USQy4m_Y5W-n", "width": 1080}], "place_id": "ChIJwR5c7i6x9jkR9UqRfgdm3gI", "plus_code": {"compound_code": "XF9V+P5 Ludhuria, Jharkhand, India", "global_code": "7MM8XF9V+P5"}, "rating": 3.5, "reference": "ChIJwR5c7i6x9jkR9UqRfgdm3gI", "scope": "GOOGLE", "types": ["school", "point_of_interest", "establishment"], "user_ratings_total": 2, "vicinity": "Ludhuria"}, {"business_status": "OPERATIONAL", "geometry": {"location": {"lat": 23.9863904, "lng": 86.47977639999999}, "viewport": {"northeast": {"lat": 23.9877729802915, "lng": 86.4813195802915}, "southwest": {"lat": 23.9850750197085, "lng": 86.47862161970849}}}, "icon": "https://maps.gstatic.com/mapfiles/place_api/icons/v1/png_71/school-71.png", "name": "S.S.V.M", "opening_hours": {"open_now": true}, "place_id": "ChIJicojIkCx9jkRsMmFuTUq7wk", "plus_code": {"compound_code": "XFPH+HW Ratanpur, Jharkhand, India", "global_code": "7MM8XFPH+HW"}, "rating": 5, "reference": "ChIJicojIkCx9jkRsMmFuTUq7wk", "scope": "GOOGLE", "types": ["school", "point_of_interest", "establishment"], "user_ratings_total": 2, "vicinity": "Ratanpur"}, {"business_status": "OPERATIONAL", "geometry": {"location": {"lat": 23.9869614, "lng": 86.4794572}, "viewport": {"northeast": {"lat": 23.9883554802915, "lng": 86.4811021802915}, "southwest": {"lat": 23.9856575197085, "lng": 86.4784042197085}}}, "icon": "https://maps.gstatic.com/mapfiles/place_api/icons/v1/png_71/school-71.png", "name": "swarup sarswati vidya mandir ratanpur tundi dhanbad", "photos": [{"height": 960, "html_attributions": ["<a href=\"https://maps.google.com/maps/contrib/105157058425149133435\">THE ART OF WAR</a>"], "photo_reference": "ATtYBwLSeGFb42nuAWyNZERWxmAJF85okp_PQ-OFnDvqW70j4J5yABkfxq0T8uzXIWLzXTPFikOFXgz_4PlA4TzGLAKSx9poUlxJzyvI4xULdka-D-foBp_z_D8VXF08GL66lSr1EYv6e9OK335IdQLKHCuz2JQKP42ujSfg8uD5KyCLyurC", "width": 1280}], "place_id": "ChIJaynxJ0Cx9jkRRrmdOSqwZaQ", "plus_code": {"compound_code": "XFPH+QQ Ratanpur, Jharkhand, India", "global_code": "7MM8XFPH+QQ"}, "rating": 4.6, "reference": "ChIJaynxJ0Cx9jkRRrmdOSqwZaQ", "scope": "GOOGLE", "types": ["school", "point_of_interest", "establishment"], "user_ratings_total": 7, "vicinity": "Ratanpur"}], "status": "OK"}