{"html_attributions": [], "results": [{"business_status": "OPERATIONAL", "geometry": {"location": {"lat": 24.0601415, "lng": 86.4890099}, "viewport": {"northeast": {"lat": 24.0615036302915, "lng": 86.4904555302915}, "southwest": {"lat": 24.0588056697085, "lng": 86.48775756970849}}}, "icon": "https://maps.gstatic.com/mapfiles/place_api/icons/v1/png_71/school-71.png", "name": "Iqra Public School", "place_id": "ChIJJwGfenez9jkR_YF2MxEmzZA", "plus_code": {"compound_code": "3F6Q+3J Ranitanr, Jharkhand, India", "global_code": "7MP83F6Q+3J"}, "rating": 5, "reference": "ChIJJwGfenez9jkR_YF2MxEmzZA", "scope": "GOOGLE", "types": ["school", "point_of_interest", "establishment"], "user_ratings_total": 1, "vicinity": "Ranitanr"}, {"business_status": "OPERATIONAL", "geometry": {"location": {"lat": 24.06123, "lng": 86.488635}, "viewport": {"northeast": {"lat": 24.0625215302915, "lng": 86.49021308029151}, "southwest": {"lat": 24.0598235697085, "lng": 86.48751511970849}}}, "icon": "https://maps.gstatic.com/mapfiles/place_api/icons/v1/png_71/school-71.png", "name": "Reyaz-ul-Hira Public School", "place_id": "ChIJ4UnXzeaz9jkRqRLOTMqIBkc", "plus_code": {"compound_code": "3F6Q+FF Ranitanr, Jharkhand, India", "global_code": "7MP83F6Q+FF"}, "reference": "ChIJ4UnXzeaz9jkRqRLOTMqIBkc", "scope": "GOOGLE", "types": ["school", "point_of_interest", "establishment"], "vicinity": "Ranitanr, Parwatpur, Gandey"}, {"business_status": "OPERATIONAL", "geometry": {"location": {"lat": 24.0637988, "lng": 86.4896522}, "viewport": {"northeast": {"lat": 24.0651503302915, "lng": 86.4910016802915}, "southwest": {"lat": 24.0624523697085, "lng": 86.4883037197085}}}, "icon": "https://maps.gstatic.com/mapfiles/place_api/icons/v1/png_71/school-71.png", "name": "CHANDAN VASTRALAY PANDARIYA&\u091a\u0902\u0926\u0928 \u0935\u0938\u094d\u0924\u094d\u0930\u093e\u0932\u092f \u092a\u0902\u0921\u0930\u093f\u092f\u093e", "place_id": "ChIJvbpY6v2z9jkRAUm56Ypm3GE", "plus_code": {"compound_code": "3F7Q+GV Pararia, Jharkhand, India", "global_code": "7MP83F7Q+GV"}, "reference": "ChIJvbpY6v2z9jkRAUm56Ypm3GE", "scope": "GOOGLE", "types": ["school", "point_of_interest", "establishment"], "vicinity": "Unnamed Road"}, {"business_status": "OPERATIONAL", "geometry": {"location": {"lat": 24.0646574, "lng": 86.48806669999999}, "viewport": {"northeast": {"lat": 24.0661156802915, "lng": 86.48922438029149}, "southwest": {"lat": 24.06341771970849, "lng": 86.48652641970848}}}, "icon": "https://maps.gstatic.com/mapfiles/place_api/icons/v1/png_71/school-71.png", "name": "iqra public school", "place_id": "ChIJYxu683Cz9jkRVHm1DJziow0", "plus_code": {"compound_code": "3F7Q+V6 Pandaria, Jharkhand, India", "global_code": "7MP83F7Q+V6"}, "reference": "ChIJYxu683Cz9jkRVHm1DJziow0", "scope": "GOOGLE", "types": ["school", "point_of_interest", "establishment"], "vicinity": "815312, Jharkhand State Highway 13, Pandaria"}, {"business_status": "OPERATIONAL", "geometry": {"location": {"lat": 24.056712, "lng": 86.4955923}, "viewport": {"northeast": {"lat": 24.0580032802915, "lng": 86.4969341802915}, "southwest": {"lat": 24.0553053197085, "lng": 86.49423621970848}}}, "icon": "https://maps.gstatic.com/mapfiles/place_api/icons/v1/png_71/school-71.png", "name": "Madrasa Islamia Yusufia Manakdiha", "photos": [{"height": 3264, "html_attributions": ["<a href=\"https://maps.google.com/maps/contrib/102174822567256349759\">Rock Star boy</a>"], "photo_reference": "ATtYBwLwIpOsyOBvHY8QYR4cGZ2XfvoNUrbB0oPfg5xwikV1j-mMnfaYGYh8tbxbhiDKg1un2tav4L7A6HbQMBypqm-U86plCO7eyt1WNz29_PphRdKQPYCq1XYS3ikxfZr40ohWd9LS7dfMzZ1MsDjX2qSU0vQV3EYaDCWApvq-hkBJgtg1", "width": 2448}], "place_id": "ChIJBRW4Xn-z9jkRhZsNo_xr1_g", "plus_code": {"compound_code": "3F4W+M6 Bani Khurd, Jharkhand, India", "global_code": "7MP83F4W+M6"}, "rating": 2.5, "reference": "ChIJBRW4Xn-z9jkRhZsNo_xr1_g", "scope": "GOOGLE", "types": ["school", "point_of_interest", "establishment"], "user_ratings_total": 2, "vicinity": "Manakdiha"}, {"business_status": "OPERATIONAL", "geometry": {"location": {"lat": 24.0533789, "lng": 86.49207360000001}, "viewport": {"northeast": {"lat": 24.0546715802915, "lng": 86.49347538029151}, "southwest": {"lat": 24.0519736197085, "lng": 86.4907774197085}}}, "icon": "https://maps.gstatic.com/mapfiles/place_api/icons/v1/png_71/school-71.png", "name": "Madrasa Islamia Yusufia Manakdiha", "place_id": "ChIJq6qqqoOz9jkRQz7Ck4Tew7U", "plus_code": {"compound_code": "3F3R+9R Bani Khurd, Jharkhand, India", "global_code": "7MP83F3R+9R"}, "rating": 5, "reference": "ChIJq6qqqoOz9jkRQz7Ck4Tew7U", "scope": "GOOGLE", "types": ["school", "point_of_interest", "establishment"], "user_ratings_total": 1, "vicinity": "Bani Khurd"}, {"business_status": "OPERATIONAL", "geometry": {"location": {"lat": 24.0533788, "lng": 86.49207360000001}, "viewport": {"northeast": {"lat": 24.0546715302915, "lng": 86.4934753302915}, "southwest": {"lat": 24.0519735697085, "lng": 86.4907773697085}}}, "icon": "https://maps.gstatic.com/mapfiles/place_api/icons/v1/png_71/school-71.png", "name": "Al Iqra Public High School", "place_id": "ChIJZRxeyVKz9jkR3YG7LUvotfs", "plus_code": {"compound_code": "3F3R+9R Bani Khurd, Jharkhand, India", "global_code": "7MP83F3R+9R"}, "reference": "ChIJZRxeyVKz9jkR3YG7LUvotfs", "scope": "GOOGLE", "types": ["school", "point_of_interest", "establishment"], "vicinity": "Bani Khurd"}, {"business_status": "OPERATIONAL", "geometry": {"location": {"lat": 24.06504069999999, "lng": 86.4830879}, "viewport": {"northeast": {"lat": 24.0663981802915, "lng": 86.48444013029149}, "southwest": {"lat": 24.0637002197085, "lng": 86.48174216970848}}}, "icon": "https://maps.gstatic.com/mapfiles/place_api/icons/v1/png_71/school-71.png", "name": "Jamia Yahyaululoom Ahlehadees", "place_id": "ChIJk3srtXOz9jkRQyp6LrC0dU8", "plus_code": {"compound_code": "3F8M+26 Jitjora, Jharkhand, India", "global_code": "7MP83F8M+26"}, "reference": "ChIJk3srtXOz9jkRQyp6LrC0dU8", "scope": "GOOGLE", "types": ["school", "point_of_interest", "establishment"], "vicinity": "Jitjora"}, {"business_status": "OPERATIONAL", "geometry": {"location": {"lat": 24.0535638, "lng": 86.5001936}, "viewport": {"northeast": {"lat": 24.0548966302915, "lng": 86.50157688029152}, "southwest": {"lat": 24.0521986697085, "lng": 86.4988789197085}}}, "icon": "https://maps.gstatic.com/mapfiles/place_api/icons/v1/png_71/school-71.png", "name": "Md Shamsuddin kirana store", "place_id": "ChIJNfWnLvy19jkRKbwLP2dKv_M", "plus_code": {"compound_code": "3G32+C3 Bani Khurd, Jharkhand, India", "global_code": "7MP83G32+C3"}, "reference": "ChIJNfWnLvy19jkRKbwLP2dKv_M", "scope": "GOOGLE", "types": ["school", "point_of_interest", "establishment"], "vicinity": "Mathaser, Giridih"}, {"business_status": "CLOSED_TEMPORARILY", "geometry": {"location": {"lat": 24.058131, "lng": 86.5035414}, "viewport": {"northeast": {"lat": 24.0592199802915, "lng": 86.5054445802915}, "southwest": {"lat": 24.0565220197085, "lng": 86.50274661970849}}}, "icon": "https://maps.gstatic.com/mapfiles/place_api/icons/v1/png_71/school-71.png", "name": "Aim Achiever Public School", "permanently_closed": true, "photos": [{"height": 422, "html_attributions": ["<a href=\"https://maps.google.com/maps/contrib/102538562094730550178\">Aim Achiever Public School</a>"], "photo_reference": "ATtYBwJewoowyEvBcx4VjG-2sBLMV3regURuM9YFFKtz-ER-yZfDRfLLXL55qbufo3miGY5drlVInPyYWv98sSgGs2iGYg16LwgdruJg8-vC1xYm_V3lkQBUB9PK_f7FiC561fpUmsT10a6v_lThg5WtZXT2DYZpqijIf0OWhZh5SH_W2-w", "width": 751}], "place_id": "ChIJ6x79tsm19jkR4pZkUKEwn1w", "plus_code": {"compound_code": "3G53+7C Bankikhurd, Jharkhand, India", "global_code": "7MP83G53+7C"}, "rating": 5, "reference": "ChIJ6x79tsm19jkR4pZkUKEwn1w", "scope": "GOOGLE", "types": ["school", "point_of_interest", "establishment"], "user_ratings_total": 5, "vicinity": "Bankikhurd"}], "status": "OK"}