{"html_attributions": [], "results": [{"business_status": "OPERATIONAL", "geometry": {"location": {"lat": 23.6603509, "lng": 86.50686329999999}, "viewport": {"northeast": {"lat": 23.6617331802915, "lng": 86.5083133302915}, "southwest": {"lat": 23.65903521970849, "lng": 86.5056153697085}}}, "icon": "https://maps.gstatic.com/mapfiles/place_api/icons/v1/png_71/school-71.png", "name": "Upgraded High School Chhatatand Sindri", "place_id": "ChIJCXH97ayV9jkRyn0eVeEww6g", "plus_code": {"compound_code": "MG64+4P Sindri, Jharkhand, India", "global_code": "7MM8MG64+4P"}, "reference": "ChIJCXH97ayV9jkRyn0eVeEww6g", "scope": "GOOGLE", "types": ["school", "point_of_interest", "establishment"], "vicinity": ""}, {"business_status": "OPERATIONAL", "geometry": {"location": {"lat": 23.6622366, "lng": 86.5015497}, "viewport": {"northeast": {"lat": 23.6639461802915, "lng": 86.5031869802915}, "southwest": {"lat": 23.6612482197085, "lng": 86.5004890197085}}}, "icon": "https://maps.gstatic.com/mapfiles/place_api/icons/v1/png_71/school-71.png", "name": "Acc jamadoba basti", "photos": [{"height": 493, "html_attributions": ["<a href=\"https://maps.google.com/maps/contrib/110543233300430173829\">Binod Chaudhary</a>"], "photo_reference": "ATtYBwLJp6nVUGkjwVDCwTc8-xU8wr5sLzjr6VDIlUiId1bW2O369PgBNjg1pOjIULE2V9qdrqzMSQguZ1SuU2mquRkftF5HeWEZi69cYNb7NZM8j382qgjo9DxX6Gql-ke0OZHdhLusUzTLdGFTNQGIJXax95yf15aS_66yQ4CSgfhYaSgO", "width": 1040}], "place_id": "ChIJY9nbt2CV9jkRVyxm6ha8oHE", "plus_code": {"compound_code": "MG62+VJ Sindri, Jharkhand, India", "global_code": "7MM8MG62+VJ"}, "reference": "ChIJY9nbt2CV9jkRVyxm6ha8oHE", "scope": "GOOGLE", "types": ["school", "point_of_interest", "establishment"], "vicinity": "ACC LTD, ACC Colony, Sindri"}, {"business_status": "OPERATIONAL", "geometry": {"location": {"lat": 23.6626633, "lng": 86.5192454}, "viewport": {"northeast": {"lat": 23.6640665802915, "lng": 86.5206603802915}, "southwest": {"lat": 23.6613686197085, "lng": 86.5179624197085}}}, "icon": "https://maps.gstatic.com/mapfiles/place_api/icons/v1/png_71/school-71.png", "name": "Upgrade middle school Kushberia", "photos": [{"height": 2340, "html_attributions": ["<a href=\"https://maps.google.com/maps/contrib/108755607744955538278\">Umesh Kisku</a>"], "photo_reference": "ATtYBwJ0Sgd4T_NtYWib0fAkc2-mzBDyEzzPmpQ8-uJygcCKqKxKK6shxza3mzfSeoa8kGWr0jbrBMRYEuyyWBrbrZNvFo8DtfpkOw1qtmpeZb3AMNOL17fbMEg5TsxLIpZ3eFzPa3CMKgJBdDnPIRFHBBTijJqB8frLT97cCwD_Jch8Z6-E", "width": 1080}], "place_id": "ChIJYwATTTGV9jkRo9fGcBHjtF8", "plus_code": {"compound_code": "MG79+3M Sindri, Jharkhand, India", "global_code": "7MM8MG79+3M"}, "rating": 3, "reference": "ChIJYwATTTGV9jkRo9fGcBHjtF8", "scope": "GOOGLE", "types": ["school", "point_of_interest", "establishment"], "user_ratings_total": 1, "vicinity": "Kushberia more, Deuli - Khairpal Road, Sindri"}, {"business_status": "OPERATIONAL", "geometry": {"location": {"lat": 23.6627525, "lng": 86.5210287}, "viewport": {"northeast": {"lat": 23.6641005802915, "lng": 86.5223759302915}, "southwest": {"lat": 23.6614026197085, "lng": 86.5196779697085}}}, "icon": "https://maps.gstatic.com/mapfiles/place_api/icons/v1/png_71/school-71.png", "name": "UMS KUSHBERIA", "place_id": "ChIJa4954WWV9jkRJgWNA5PC-fg", "plus_code": {"compound_code": "MG7C+4C Sitalpur, Jharkhand, India", "global_code": "7MM8MG7C+4C"}, "reference": "ChIJa4954WWV9jkRJgWNA5PC-fg", "scope": "GOOGLE", "types": ["school", "point_of_interest", "establishment"], "vicinity": "Kushberia"}, {"business_status": "OPERATIONAL", "geometry": {"location": {"lat": 23.6717389, "lng": 86.5091605}, "viewport": {"northeast": {"lat": 23.6730543302915, "lng": 86.5105040302915}, "southwest": {"lat": 23.6703563697085, "lng": 86.50780606970848}}}, "icon": "https://maps.gstatic.com/mapfiles/place_api/icons/v1/png_71/school-71.png", "name": "Simatand Govt. School", "place_id": "ChIJMQhJGWGV9jkR793MPVbvJ4U", "plus_code": {"compound_code": "MGC5+MM Dhanbad, Jharkhand, India", "global_code": "7MM8MGC5+MM"}, "reference": "ChIJMQhJGWGV9jkR793MPVbvJ4U", "scope": "GOOGLE", "types": ["school", "point_of_interest", "establishment"], "vicinity": "Dhanbad"}, {"business_status": "OPERATIONAL", "geometry": {"location": {"lat": 23.6717763, "lng": 86.50929529999999}, "viewport": {"northeast": {"lat": 23.6730644802915, "lng": 86.51063443029149}, "southwest": {"lat": 23.67036651970849, "lng": 86.50793646970848}}}, "icon": "https://maps.gstatic.com/mapfiles/place_api/icons/v1/png_71/school-71.png", "name": "Simatand PS School", "place_id": "ChIJL3BBq-WV9jkRLGFtBsyAXuQ", "plus_code": {"compound_code": "MGC5+PP Dhanbad, Jharkhand, India", "global_code": "7MM8MGC5+PP"}, "reference": "ChIJL3BBq-WV9jkRLGFtBsyAXuQ", "scope": "GOOGLE", "types": ["school", "point_of_interest", "establishment"], "vicinity": "Dhanbad"}], "status": "OK"}