{"html_attributions": [], "results": [{"business_status": "OPERATIONAL", "geometry": {"location": {"lat": 23.6791135, "lng": 86.4978655}, "viewport": {"northeast": {"lat": 23.6802904802915, "lng": 86.49918153029151}, "southwest": {"lat": 23.6775925197085, "lng": 86.4964835697085}}}, "icon": "https://maps.gstatic.com/mapfiles/place_api/icons/v1/png_71/school-71.png", "name": "D.A.V. Public School", "photos": [{"height": 774, "html_attributions": ["<a href=\"https://maps.google.com/maps/contrib/113732101928646322190\">Mrinal Kumar</a>"], "photo_reference": "ATtYBwIT085c1iTlkzFrkrO4IlyR3RnqogXiUITL1kE6UgtP1VkYa9BLGKa0rcpjgx-4d71VYonUsaQSKBuTsYiDlvGij1RPEaZkG2gzZwv_hByR18befvdvDRnKzrXnH6HS8GU_Zi_MrFIC5zkF7iPU63iAgLegVn2r7GyGEsMQIt8HB0Ix", "width": 1032}], "place_id": "ChIJD7K7p3-W9jkRxOGi-zASkyA", "plus_code": {"compound_code": "MFHX+J4 Dhanbad, Jharkhand, India", "global_code": "7MM8MFHX+J4"}, "rating": 3.9, "reference": "ChIJD7K7p3-W9jkRxOGi-zASkyA", "scope": "GOOGLE", "types": ["school", "point_of_interest", "establishment"], "user_ratings_total": 61, "vicinity": "Saharpura, Sindri, Dhanbad"}, {"business_status": "OPERATIONAL", "geometry": {"location": {"lat": 23.6798615, "lng": 86.4975479}, "viewport": {"northeast": {"lat": 23.6811989302915, "lng": 86.4987720302915}, "southwest": {"lat": 23.6785009697085, "lng": 86.4960740697085}}}, "icon": "https://maps.gstatic.com/mapfiles/place_api/icons/v1/png_71/school-71.png", "name": "Lions Public School", "photos": [{"height": 640, "html_attributions": ["<a href=\"https://maps.google.com/maps/contrib/118314414993248964334\">Uttam Choubey</a>"], "photo_reference": "ATtYBwLhdFxcP31mH7QU1Vj87reO17LxPpBD6Mc7Q3epkuWC-Q6aFgtY0qgqASN3ho2soryt1w0j9F0yXP_lbOwkaCm0lrbh2ETzSdyc1Zd8M7Ts4YmRYXQEYXu9cVRIUuCDQ92e-i-euEZfvMtqRz4JNrGaG_VTTmvhWtLVblWeFLE0NgrY", "width": 640}], "place_id": "ChIJ9TbpBH-W9jkRwV40lbhW8Y4", "plus_code": {"compound_code": "MFHX+W2 Dhanbad, Jharkhand, India", "global_code": "7MM8MFHX+W2"}, "rating": 4.4, "reference": "ChIJ9TbpBH-W9jkRwV40lbhW8Y4", "scope": "GOOGLE", "types": ["school", "point_of_interest", "establishment"], "user_ratings_total": 25, "vicinity": "Shaharpura, Sindri, Dhanbad"}, {"business_status": "OPERATIONAL", "geometry": {"location": {"lat": 23.6824961, "lng": 86.508547}, "viewport": {"northeast": {"lat": 23.6838821302915, "lng": 86.5099834802915}, "southwest": {"lat": 23.6811841697085, "lng": 86.50728551970849}}}, "icon": "https://maps.gstatic.com/mapfiles/place_api/icons/v1/png_71/school-71.png", "name": "Samlapur Govt. school", "place_id": "ChIJbWH_4zuV9jkRtY6cINoPWIk", "plus_code": {"compound_code": "MGJ5+XC Dhanbad, Jharkhand, India", "global_code": "7MM8MGJ5+XC"}, "reference": "ChIJbWH_4zuV9jkRtY6cINoPWIk", "scope": "GOOGLE", "types": ["school", "point_of_interest", "establishment"], "vicinity": "Dhanbad"}, {"business_status": "OPERATIONAL", "geometry": {"location": {"lat": 23.681194, "lng": 86.50524000000001}, "viewport": {"northeast": {"lat": 23.6824576802915, "lng": 86.50650133029151}, "southwest": {"lat": 23.67975971970849, "lng": 86.5038033697085}}}, "icon": "https://maps.gstatic.com/mapfiles/place_api/icons/v1/png_71/school-71.png", "name": "Baliapur Institute of Technology, North Campus", "place_id": "ChIJz7UWe4GV9jkRB5P3YGnUNuw", "plus_code": {"compound_code": "MGJ4+F3 Sindri, Jharkhand, India", "global_code": "7MM8MGJ4+F3"}, "reference": "ChIJz7UWe4GV9jkRB5P3YGnUNuw", "scope": "GOOGLE", "types": ["school", "point_of_interest", "establishment"], "vicinity": "Institute of Technology, Baliapur, North Campus, Sindri"}, {"business_status": "OPERATIONAL", "geometry": {"location": {"lat": 23.6778918, "lng": 86.50333719999999}, "viewport": {"northeast": {"lat": 23.6793716802915, "lng": 86.5046967302915}, "southwest": {"lat": 23.6766737197085, "lng": 86.50199876970848}}}, "icon": "https://maps.gstatic.com/mapfiles/place_api/icons/v1/png_71/school-71.png", "name": "Upgraded High School Rangamati", "opening_hours": {"open_now": true}, "photos": [{"height": 3456, "html_attributions": ["<a href=\"https://maps.google.com/maps/contrib/103836330957416076319\">Smart Sonu</a>"], "photo_reference": "ATtYBwJeNklrbDBpR-22h1Bg_tveKbw8ui2MpBrbM6q57lYkuwW65qURGxDRPbZQpYS7rYV1M2DNNcr9glVKcHRyoHnxh0kaUenmfKrBJIeajcer_mc6uMNapGA0CG33Z4t8dlhazPZcgOlHnFjOw9UMqR2BsztCngpGA6nleHG6X3VYppsT", "width": 4608}], "place_id": "ChIJWVec6tSV9jkRMy0zccdyNBY", "plus_code": {"compound_code": "MGH3+58 Sindri, Jharkhand, India", "global_code": "7MM8MGH3+58"}, "rating": 3.8, "reference": "ChIJWVec6tSV9jkRMy0zccdyNBY", "scope": "GOOGLE", "types": ["school", "point_of_interest", "establishment"], "user_ratings_total": 5, "vicinity": "Sindri"}, {"business_status": "OPERATIONAL", "geometry": {"location": {"lat": 23.6778377, "lng": 86.5033241}, "viewport": {"northeast": {"lat": 23.6793449302915, "lng": 86.5046858802915}, "southwest": {"lat": 23.6766469697085, "lng": 86.50198791970848}}}, "icon": "https://maps.gstatic.com/mapfiles/place_api/icons/v1/png_71/school-71.png", "name": "NAC School", "opening_hours": {"open_now": false}, "photos": [{"height": 2000, "html_attributions": ["<a href=\"https://maps.google.com/maps/contrib/104252574731706376839\">Arbind Kumar</a>"], "photo_reference": "ATtYBwIr6sT862EqLAFXONoRq3TXGxWRNKJa-p8Mpuq_MJMpIM2ynv3Je_tO86qhgrG7Zk6H1RFzLwrXM8DaJPQMazXpE3d0GyEIQC_Dy0DxYTzpGkTCa5Lqvzup3MWjBdq6CIGt6nDxrRHrTpOQlw8gGxG9U2JgeWm3XTzQWWnEMIpu6FCE", "width": 4000}], "place_id": "ChIJ540vwNSV9jkRsGi51KWQzHg", "plus_code": {"compound_code": "MGH3+48 Sindri, Jharkhand, India", "global_code": "7MM8MGH3+48"}, "rating": 3.3, "reference": "ChIJ540vwNSV9jkRsGi51KWQzHg", "scope": "GOOGLE", "types": ["school", "point_of_interest", "establishment"], "user_ratings_total": 4, "vicinity": "Sindri"}, {"business_status": "OPERATIONAL", "geometry": {"location": {"lat": 23.6778331, "lng": 86.5020524}, "viewport": {"northeast": {"lat": 23.6789929802915, "lng": 86.50339183029149}, "southwest": {"lat": 23.6762950197085, "lng": 86.50069386970848}}}, "icon": "https://maps.gstatic.com/mapfiles/place_api/icons/v1/png_71/school-71.png", "name": "D.A.V Public School (Senior Campus)", "place_id": "ChIJV3VfXJiV9jkRePskbp82h8E", "plus_code": {"compound_code": "MGH2+4R Sindri, Jharkhand, India", "global_code": "7MM8MGH2+4R"}, "reference": "ChIJV3VfXJiV9jkRePskbp82h8E", "scope": "GOOGLE", "types": ["secondary_school", "school", "point_of_interest", "establishment"], "vicinity": "Unnamed Road, Sindri"}, {"business_status": "OPERATIONAL", "geometry": {"location": {"lat": 23.6717763, "lng": 86.50929529999999}, "viewport": {"northeast": {"lat": 23.6730644802915, "lng": 86.51063443029149}, "southwest": {"lat": 23.67036651970849, "lng": 86.50793646970848}}}, "icon": "https://maps.gstatic.com/mapfiles/place_api/icons/v1/png_71/school-71.png", "name": "Simatand PS School", "place_id": "ChIJL3BBq-WV9jkRLGFtBsyAXuQ", "plus_code": {"compound_code": "MGC5+PP Dhanbad, Jharkhand, India", "global_code": "7MM8MGC5+PP"}, "reference": "ChIJL3BBq-WV9jkRLGFtBsyAXuQ", "scope": "GOOGLE", "types": ["school", "point_of_interest", "establishment"], "vicinity": "Dhanbad"}, {"business_status": "OPERATIONAL", "geometry": {"location": {"lat": 23.6717389, "lng": 86.5091605}, "viewport": {"northeast": {"lat": 23.6730543302915, "lng": 86.5105040302915}, "southwest": {"lat": 23.6703563697085, "lng": 86.50780606970848}}}, "icon": "https://maps.gstatic.com/mapfiles/place_api/icons/v1/png_71/school-71.png", "name": "Simatand Govt. School", "place_id": "ChIJMQhJGWGV9jkR793MPVbvJ4U", "plus_code": {"compound_code": "MGC5+MM Dhanbad, Jharkhand, India", "global_code": "7MM8MGC5+MM"}, "reference": "ChIJMQhJGWGV9jkR793MPVbvJ4U", "scope": "GOOGLE", "types": ["school", "point_of_interest", "establishment"], "vicinity": "Dhanbad"}, {"business_status": "OPERATIONAL", "geometry": {"location": {"lat": 23.6835425, "lng": 86.5207834}, "viewport": {"northeast": {"lat": 23.6848684302915, "lng": 86.5220973302915}, "southwest": {"lat": 23.6821704697085, "lng": 86.5193993697085}}}, "icon": "https://maps.gstatic.com/mapfiles/place_api/icons/v1/png_71/school-71.png", "name": "Guritatand Govt. school", "place_id": "ChIJKyk84_-V9jkRWkLYDZLJQGw", "plus_code": {"compound_code": "MGMC+C8 Sitalpur, Jharkhand, India", "global_code": "7MM8MGMC+C8"}, "reference": "ChIJKyk84_-V9jkRWkLYDZLJQGw", "scope": "GOOGLE", "types": ["school", "point_of_interest", "establishment"], "vicinity": "Sitalpur"}, {"geometry": {"location": {"lat": 23.6780264, "lng": 86.5017076}, "viewport": {"northeast": {"lat": 23.67918641113803, "lng": 86.50312884986742}, "southwest": {"lat": 23.67648845055503, "lng": 86.5004308892844}}}, "icon": "https://maps.gstatic.com/mapfiles/place_api/icons/v1/png_71/school-71.png", "name": "DAV Public School", "photos": [{"height": 480, "html_attributions": ["<a href=\"https://maps.google.com/maps/contrib/117374861882609571061\">Ranjan Kumar</a>"], "photo_reference": "ATtYBwJdTbscvWft-hVsrlaXegAHFRwgtVaG-EPwAw_XqhklOI2uv_sYItO7KOwcjqRO3X4MHmNFTZo11lb54yrQL4dCnjSFF4KSxxaVVZHMqrYaHACU3kkXnvB51ClbZdrBFdPuVB3fILeAMy61Qoq6-yp0IPZANYQpl8mrTSD1UUa7k_WA", "width": 640}], "place_id": "ChIJTWx1ItWV9jkRU0u-e3alcQU", "reference": "ChIJTWx1ItWV9jkRU0u-e3alcQU", "scope": "GOOGLE", "types": ["school", "premise", "establishment"], "vicinity": "Sindri"}], "status": "OK"}