{"html_attributions": [], "results": [{"business_status": "OPERATIONAL", "geometry": {"location": {"lat": 23.6991522, "lng": 86.5102228}, "viewport": {"northeast": {"lat": 23.70035483029151, "lng": 86.51152938029149}, "southwest": {"lat": 23.6976568697085, "lng": 86.50883141970849}}}, "icon": "https://maps.gstatic.com/mapfiles/place_api/icons/v1/png_71/school-71.png", "name": "Kasturba Gandhi Balika Vidyalay, Baliyapur", "photos": [{"height": 3120, "html_attributions": ["<a href=\"https://maps.google.com/maps/contrib/114823126080471109535\">Kishor Kumar</a>"], "photo_reference": "ATtYBwJu3Bad5x19IUnKChLjNfFv79VEmcdVWHKnU4hQwN_w-UiG0NTLoM9kT7PCR3w_DcLKE4UiDux4_EEbeFxDr4Q0Y7Z4LwGxgf6o9WvkfGvN0W1S5EXsDMzPk9HOJqcSrGhSK_F-RXm2JFJg-Gvb3NaAUPuYOnJMvY5ZuRajKUmBmboH", "width": 4160}], "place_id": "ChIJw6sfgBmV9jkRts6eCJPX29E", "plus_code": {"compound_code": "MGX6+M3 Baradaha, Jharkhand, India", "global_code": "7MM8MGX6+M3"}, "rating": 4, "reference": "ChIJw6sfgBmV9jkRts6eCJPX29E", "scope": "GOOGLE", "types": ["school", "point_of_interest", "establishment"], "user_ratings_total": 1, "vicinity": "Sindri Baliapur Road, Baradaha"}, {"business_status": "OPERATIONAL", "geometry": {"location": {"lat": 23.6984465, "lng": 86.5114799}, "viewport": {"northeast": {"lat": 23.6997856302915, "lng": 86.51287588029152}, "southwest": {"lat": 23.6970876697085, "lng": 86.51017791970851}}}, "icon": "https://maps.gstatic.com/mapfiles/place_api/icons/v1/png_71/school-71.png", "name": "Shine Education Academy", "place_id": "ChIJM7QZ1mWV9jkRypjAEbBEVQ8", "plus_code": {"compound_code": "MGX6+9H Baradaha, Jharkhand, India", "global_code": "7MM8MGX6+9H"}, "reference": "ChIJM7QZ1mWV9jkRypjAEbBEVQ8", "scope": "GOOGLE", "types": ["school", "point_of_interest", "establishment"], "vicinity": "Baradaha"}, {"business_status": "OPERATIONAL", "geometry": {"location": {"lat": 23.7033355, "lng": 86.5122871}, "viewport": {"northeast": {"lat": 23.7050331802915, "lng": 86.5135112302915}, "southwest": {"lat": 23.7023352197085, "lng": 86.51081326970849}}}, "icon": "https://maps.gstatic.com/mapfiles/place_api/icons/v1/png_71/school-71.png", "name": "SSHS Baradaha", "place_id": "ChIJ_____-iV9jkRsKGFYOn6vso", "plus_code": {"compound_code": "PG36+8W Baradaha, Jharkhand, India", "global_code": "7MM8PG36+8W"}, "reference": "ChIJ_____-iV9jkRsKGFYOn6vso", "scope": "GOOGLE", "types": ["school", "point_of_interest", "establishment"], "vicinity": "Baradaha"}, {"business_status": "OPERATIONAL", "geometry": {"location": {"lat": 23.6986791, "lng": 86.5056285}, "viewport": {"northeast": {"lat": 23.7001178302915, "lng": 86.5067422802915}, "southwest": {"lat": 23.69741986970849, "lng": 86.50404431970848}}}, "icon": "https://maps.gstatic.com/mapfiles/place_api/icons/v1/png_71/school-71.png", "name": "High School Badadaha", "photos": [{"height": 3120, "html_attributions": ["<a href=\"https://maps.google.com/maps/contrib/114922233038911687876\">Rajiv creation</a>"], "photo_reference": "ATtYBwJADdm_ytny0ucEwXn4eeny5Q8cpQzDcA6NcNIEOLsjEWUf23pXSVM_D5XYLQ25QYt8ENQcftKGFUo1d0W2MiILv6HUhjVI1ixtNi9IU61kuTlau372D9IbS7SShiqJKHHgP8ps1lcP3eaR3zBERF4m6cxmexz5pHCDhMxvOqxqn2X2", "width": 4160}], "place_id": "ChIJxTobwt2V9jkRj4PuPZR-XuY", "plus_code": {"compound_code": "MGX4+F7 Baradaha, Jharkhand, India", "global_code": "7MM8MGX4+F7"}, "rating": 4, "reference": "ChIJxTobwt2V9jkRj4PuPZR-XuY", "scope": "GOOGLE", "types": ["secondary_school", "school", "point_of_interest", "establishment"], "user_ratings_total": 1, "vicinity": "Baradaha"}, {"business_status": "OPERATIONAL", "geometry": {"location": {"lat": 23.698563, "lng": 86.5054974}, "viewport": {"northeast": {"lat": 23.6999889302915, "lng": 86.5066444802915}, "southwest": {"lat": 23.69729096970849, "lng": 86.50394651970849}}}, "icon": "https://maps.gstatic.com/mapfiles/place_api/icons/v1/png_71/school-71.png", "name": "SHAHID SMARK VIDALAY (Baradaha)", "photos": [{"height": 1032, "html_attributions": ["<a href=\"https://maps.google.com/maps/contrib/105759339363808135366\">Saurav Mahato</a>"], "photo_reference": "ATtYBwKi3t1A-BbPTXehcqc-5HZNJJlhKRpC0voPcwIMFMFuqt__uEQTXsb21VwlnWTcAiGbOFPZ-i5qILK9R1yZQDxIl0LLRjXoS5YCV29VSLBoNR701WK4Xmxdmg_TDqwKb-c7o_dnCZVSdzfmT68gtxIItlec3ZLFeS2D0AQ8wFL85yEo", "width": 774}], "place_id": "ChIJHzyMPa-V9jkRvtdJzaZPtY8", "plus_code": {"compound_code": "MGX4+C5 Raghunathpur, Jharkhand, India", "global_code": "7MM8MGX4+C5"}, "rating": 3.5, "reference": "ChIJHzyMPa-V9jkRvtdJzaZPtY8", "scope": "GOOGLE", "types": ["school", "point_of_interest", "establishment"], "user_ratings_total": 2, "vicinity": "Raghunathpur"}, {"business_status": "OPERATIONAL", "geometry": {"location": {"lat": 23.6982756, "lng": 86.5055952}, "viewport": {"northeast": {"lat": 23.6996429802915, "lng": 86.5066416302915}, "southwest": {"lat": 23.6969450197085, "lng": 86.50394366970849}}}, "icon": "https://maps.gstatic.com/mapfiles/place_api/icons/v1/png_71/school-71.png", "name": "Sahid Smarak Vidalaya Baradha", "place_id": "ChIJbfIXxN2V9jkR6TV9YoScRvs", "plus_code": {"compound_code": "MGX4+86 Baradaha, Jharkhand, India", "global_code": "7MM8MGX4+86"}, "rating": 4, "reference": "ChIJbfIXxN2V9jkR6TV9YoScRvs", "scope": "GOOGLE", "types": ["school", "point_of_interest", "establishment"], "user_ratings_total": 1, "vicinity": "Baradaha"}, {"business_status": "OPERATIONAL", "geometry": {"location": {"lat": 23.7050434, "lng": 86.5094822}, "viewport": {"northeast": {"lat": 23.7064002802915, "lng": 86.5109596802915}, "southwest": {"lat": 23.70370231970849, "lng": 86.50826171970849}}}, "icon": "https://maps.gstatic.com/mapfiles/place_api/icons/v1/png_71/school-71.png", "name": "Middle School, Baradaha", "place_id": "ChIJ2w6DD-OV9jkREykGxTnU-ZE", "plus_code": {"compound_code": "PG45+2Q Baradaha, Jharkhand, India", "global_code": "7MM8PG45+2Q"}, "reference": "ChIJ2w6DD-OV9jkREykGxTnU-ZE", "scope": "GOOGLE", "types": ["school", "point_of_interest", "establishment"], "vicinity": "Baradaha"}, {"business_status": "OPERATIONAL", "geometry": {"location": {"lat": 23.7040291, "lng": 86.5139531}, "viewport": {"northeast": {"lat": 23.7053187802915, "lng": 86.5152303802915}, "southwest": {"lat": 23.7026208197085, "lng": 86.51253241970849}}}, "icon": "https://maps.gstatic.com/mapfiles/place_api/icons/v1/png_71/school-71.png", "name": "BARADAHA 2 ANANGBARI KENDRA", "place_id": "ChIJ0avUtBKV9jkRlHhx5m6wAtQ", "plus_code": {"compound_code": "PG37+JH Baradaha, Jharkhand, India", "global_code": "7MM8PG37+JH"}, "reference": "ChIJ0avUtBKV9jkRlHhx5m6wAtQ", "scope": "GOOGLE", "types": ["school", "point_of_interest", "establishment"], "vicinity": "Baradaha"}, {"business_status": "OPERATIONAL", "geometry": {"location": {"lat": 23.7041522, "lng": 86.51382029999999}, "viewport": {"northeast": {"lat": 23.7054338302915, "lng": 86.51510528029151}, "southwest": {"lat": 23.70273586970849, "lng": 86.51240731970849}}}, "icon": "https://maps.gstatic.com/mapfiles/place_api/icons/v1/png_71/school-71.png", "name": "Baradaha 2 near hari mandir", "photos": [{"height": 720, "html_attributions": ["<a href=\"https://maps.google.com/maps/contrib/106717195319222876883\">manjeet mahato</a>"], "photo_reference": "ATtYBwKSYwJgaSMDNyDNVx4ZyLZHVxjaMmp7r5btpTLW7VOh8nC_arUoNmPIO5l1vzSUe3V19ph1AC4wE5VTwgwSPVdxalrazUpXWVPDgHUE3ni5xRx-LnsOdmPFhkGstudzbGUpkYeLTJOp12ATqHMURerp4QXIWsGiohbRT_oyKcrsAQQI", "width": 1280}], "place_id": "ChIJIaL_m_SV9jkRM7TixwC91qU", "plus_code": {"compound_code": "PG37+MG Baradaha, Jharkhand, India", "global_code": "7MM8PG37+MG"}, "reference": "ChIJIaL_m_SV9jkRM7TixwC91qU", "scope": "GOOGLE", "types": ["school", "point_of_interest", "establishment"], "vicinity": "Baradaha"}, {"business_status": "OPERATIONAL", "geometry": {"location": {"lat": 23.7087521, "lng": 86.50893459999999}, "viewport": {"northeast": {"lat": 23.7101955302915, "lng": 86.51031353029151}, "southwest": {"lat": 23.70749756970849, "lng": 86.50761556970849}}}, "icon": "https://maps.gstatic.com/mapfiles/place_api/icons/v1/png_71/school-71.png", "name": "BBM AJSU \u091b\u093e\u0924\u094d\u0930 \u0938\u0918\u0902 PRADUM MAHATO", "place_id": "ChIJ0dwLq7GV9jkR-JSWnXDjdFk", "plus_code": {"compound_code": "PG55+GH Baradaha, Jharkhand, India", "global_code": "7MM8PG55+GH"}, "rating": 5, "reference": "ChIJ0dwLq7GV9jkR-JSWnXDjdFk", "scope": "GOOGLE", "types": ["school", "point_of_interest", "establishment"], "user_ratings_total": 11, "vicinity": "Baradaha"}, {"business_status": "OPERATIONAL", "geometry": {"location": {"lat": 23.704783, "lng": 86.500586}, "viewport": {"northeast": {"lat": 23.7061649802915, "lng": 86.50192033029151}, "southwest": {"lat": 23.7034670197085, "lng": 86.49922236970849}}}, "icon": "https://maps.gstatic.com/mapfiles/place_api/icons/v1/png_71/school-71.png", "name": "Gortaand", "photos": [{"height": 3000, "html_attributions": ["<a href=\"https://maps.google.com/maps/contrib/114922233038911687876\">Rajiv creation</a>"], "photo_reference": "ATtYBwL43wkkMooxqWU7smC7-t9t9a6QMAWDrZk8GzSDIa6EY-mrtI0su-8P2SaDeCDwhTApO-cLGjrc_EloSOfF-BSJFy8D_g1f7c9Mf8SMR2nEb6pzHPiSWILFwa66mO0BczfsgRj5RBamfgGxWWt7HHfUFsdKJCNlpO5dET1vCOBVMTJz", "width": 4000}], "place_id": "ChIJsQgGUGCV9jkRdLYbGSdFAAc", "plus_code": {"compound_code": "PG32+W6 Raghunathpur, Jharkhand, India", "global_code": "7MM8PG32+W6"}, "rating": 4, "reference": "ChIJsQgGUGCV9jkRdLYbGSdFAAc", "scope": "GOOGLE", "types": ["school", "point_of_interest", "establishment"], "user_ratings_total": 1, "vicinity": "Raghunathpur"}, {"business_status": "OPERATIONAL", "geometry": {"location": {"lat": 23.7048576, "lng": 86.50028089999999}, "viewport": {"northeast": {"lat": 23.7061229802915, "lng": 86.5016999302915}, "southwest": {"lat": 23.7034250197085, "lng": 86.49900196970849}}}, "icon": "https://maps.gstatic.com/mapfiles/place_api/icons/v1/png_71/school-71.png", "name": "Middle School Raghunathpur", "photos": [{"height": 2000, "html_attributions": ["<a href=\"https://maps.google.com/maps/contrib/114922233038911687876\">Rajiv creation</a>"], "photo_reference": "ATtYBwJsiJCknxGuarU90ukVlSyCphLyOqpeYQDnsFpDUXvU0T6PDR19LOLazCZFq49ERQ2OPz3CVujE2FurKKzqGWE_E18i_VkPzKaRau2gcvhEsK4RoJTCfPvGTKdPiXBVEDBVWWFoyJmFAw-INcmDMl_OV-jjHUK-qM1RjpXIF95MO4dG", "width": 4000}], "place_id": "ChIJ70Ad5uGV9jkRcbi5xgSWyno", "plus_code": {"compound_code": "PG32+W4 Raghunathpur, Jharkhand, India", "global_code": "7MM8PG32+W4"}, "rating": 4, "reference": "ChIJ70Ad5uGV9jkRcbi5xgSWyno", "scope": "GOOGLE", "types": ["school", "point_of_interest", "establishment"], "user_ratings_total": 2, "vicinity": "Raghunathpur"}, {"business_status": "OPERATIONAL", "geometry": {"location": {"lat": 23.7048417, "lng": 86.5002698}, "viewport": {"northeast": {"lat": 23.7061108302915, "lng": 86.50168843029151}, "southwest": {"lat": 23.7034128697085, "lng": 86.4989904697085}}}, "icon": "https://maps.gstatic.com/mapfiles/place_api/icons/v1/png_71/school-71.png", "name": "\u092e\u0927\u094d\u092f \u0935\u093f\u0926\u094d\u092f\u093e\u0932\u092f \u0930\u0918\u0941\u0928\u093e\u0925\u092a\u0941\u0930", "place_id": "ChIJ89ge5uGV9jkRTc4BLNPEHEk", "plus_code": {"compound_code": "PG32+W4 Raghunathpur, Jharkhand, India", "global_code": "7MM8PG32+W4"}, "reference": "ChIJ89ge5uGV9jkRTc4BLNPEHEk", "scope": "GOOGLE", "types": ["school", "point_of_interest", "establishment"], "vicinity": "Raghunathpur"}], "status": "OK"}