{"html_attributions": [], "results": [{"business_status": "OPERATIONAL", "geometry": {"location": {"lat": 23.6750528, "lng": 86.53314089999999}, "viewport": {"northeast": {"lat": 23.6764314302915, "lng": 86.53455743029151}, "southwest": {"lat": 23.6737334697085, "lng": 86.5318594697085}}}, "icon": "https://maps.gstatic.com/mapfiles/place_api/icons/v1/png_71/school-71.png", "name": "Angan badi kendra Baliabad", "photos": [{"height": 1080, "html_attributions": ["<a href=\"https://maps.google.com/maps/contrib/100898947410797767986\">Kishan Kumar Murmu</a>"], "photo_reference": "ATtYBwIDdPpKFN8phg0H-h4DMUYmBVi8fkUjA5rqkDqp2nvZZC4HR-tmxKmNJW_6_w1Q0ykZPmGP76-PYzaD4zlt6NcCCuPzqLwrxVELpVqbYPl-8IyVouFcq6X0Xy2gEqhPG67fA6Aa4dBhBQhWQMnR0kk_N0FODI0n1q912AGvjfpz1ZPg", "width": 1920}], "place_id": "ChIJP84VNbCV9jkRNsWAKBrQoKk", "plus_code": {"compound_code": "MGGM+27 Sitalpur, Jharkhand, India", "global_code": "7MM8MGGM+27"}, "rating": 5, "reference": "ChIJP84VNbCV9jkRNsWAKBrQoKk", "scope": "GOOGLE", "types": ["school", "point_of_interest", "establishment"], "user_ratings_total": 1, "vicinity": "Village Shitalpur Tola"}, {"business_status": "OPERATIONAL", "geometry": {"location": {"lat": 23.6835425, "lng": 86.5207834}, "viewport": {"northeast": {"lat": 23.6848684302915, "lng": 86.5220973302915}, "southwest": {"lat": 23.6821704697085, "lng": 86.5193993697085}}}, "icon": "https://maps.gstatic.com/mapfiles/place_api/icons/v1/png_71/school-71.png", "name": "Guritatand Govt. school", "place_id": "ChIJKyk84_-V9jkRWkLYDZLJQGw", "plus_code": {"compound_code": "MGMC+C8 Sitalpur, Jharkhand, India", "global_code": "7MM8MGMC+C8"}, "reference": "ChIJKyk84_-V9jkRWkLYDZLJQGw", "scope": "GOOGLE", "types": ["school", "point_of_interest", "establishment"], "vicinity": "Sitalpur"}, {"business_status": "OPERATIONAL", "geometry": {"location": {"lat": 23.6891935, "lng": 86.5326194}, "viewport": {"northeast": {"lat": 23.6905302802915, "lng": 86.53401468029149}, "southwest": {"lat": 23.68783231970849, "lng": 86.53131671970849}}}, "icon": "https://maps.gstatic.com/mapfiles/place_api/icons/v1/png_71/school-71.png", "name": "\u0909\u0924\u094d\u0915\u094d\u0930\u092e\u093f\u0924 \u092a\u094d\u0930\u093e\u0925\u092e\u093f\u0915 \u0935\u093f\u0926\u094d\u092f\u093e\u0932\u092f \u0939\u0930\u0939\u0930\u0940(UPS Harhari)", "photos": [{"height": 3264, "html_attributions": ["<a href=\"https://maps.google.com/maps/contrib/106018436263607614430\">Masti Kittu babu</a>"], "photo_reference": "ATtYBwLvzBrzdCgsJyuyS7gessjHxJbwisTekE36MHuJCLmTDxcf5iUvlP5Rjnw5lB7XM4pHyuIUSH1Baxl9h_wzDhFcjk3vdQ2X7d9iknuZxRJQpRLcsOdviLID2O2YBp7vRSz4nAb_voEQH3VOPJStprc2RvAJyDBah1WKvfcbtIla90al", "width": 1836}], "place_id": "ChIJbQBEan-V9jkRcr3mrM0KS-0", "plus_code": {"compound_code": "MGQM+M2 Hariaria, Jharkhand, India", "global_code": "7MM8MGQM+M2"}, "reference": "ChIJbQBEan-V9jkRcr3mrM0KS-0", "scope": "GOOGLE", "types": ["school", "point_of_interest", "establishment"], "vicinity": "Shivpur Road, Hariaria"}, {"business_status": "OPERATIONAL", "geometry": {"location": {"lat": 23.6896762, "lng": 86.5327188}, "viewport": {"northeast": {"lat": 23.6909973802915, "lng": 86.53405918029151}, "southwest": {"lat": 23.6882994197085, "lng": 86.53136121970849}}}, "icon": "https://maps.gstatic.com/mapfiles/place_api/icons/v1/png_71/school-71.png", "name": "\u090f\u0915\u0932 \u0938\u093f\u0932\u093e\u0908 \u0915\u0947\u0902\u0926\u094d\u0930", "place_id": "ChIJQcqdHm2V9jkRcHIvt3_wEhg", "plus_code": {"compound_code": "MGQM+V3 Hariaria, Jharkhand, India", "global_code": "7MM8MGQM+V3"}, "reference": "ChIJQcqdHm2V9jkRcHIvt3_wEhg", "scope": "GOOGLE", "types": ["school", "point_of_interest", "establishment"], "vicinity": "Hariaria"}], "status": "OK"}