{"html_attributions": [], "results": [{"business_status": "OPERATIONAL", "geometry": {"location": {"lat": 23.9183263, "lng": 86.5265313}, "viewport": {"northeast": {"lat": 23.9195763802915, "lng": 86.52800118029151}, "southwest": {"lat": 23.9168784197085, "lng": 86.52530321970849}}}, "icon": "https://maps.gstatic.com/mapfiles/place_api/icons/v1/png_71/school-71.png", "name": "Primary School Bandarchua", "place_id": "ChIJgT4NHxq39jkR4czOaAnqCXI", "plus_code": {"compound_code": "WG9G+8J Bandarchua, Jharkhand, India", "global_code": "7MM8WG9G+8J"}, "rating": 4, "reference": "ChIJgT4NHxq39jkR4czOaAnqCXI", "scope": "GOOGLE", "types": ["school", "point_of_interest", "establishment"], "user_ratings_total": 1, "vicinity": "Bandarchua"}, {"business_status": "OPERATIONAL", "geometry": {"location": {"lat": 23.9170496, "lng": 86.526141}, "viewport": {"northeast": {"lat": 23.9184027302915, "lng": 86.52749283029151}, "southwest": {"lat": 23.9157047697085, "lng": 86.52479486970849}}}, "icon": "https://maps.gstatic.com/mapfiles/place_api/icons/v1/png_71/school-71.png", "name": "Bandarchua K2", "opening_hours": {"open_now": true}, "place_id": "ChIJKYUrfgG39jkRK2WDfLfDJOw", "plus_code": {"compound_code": "WG8G+RF Bandarchua, Jharkhand, India", "global_code": "7MM8WG8G+RF"}, "reference": "ChIJKYUrfgG39jkRK2WDfLfDJOw", "scope": "GOOGLE", "types": ["school", "point_of_interest", "establishment"], "vicinity": "Bandarchua"}, {"business_status": "OPERATIONAL", "geometry": {"location": {"lat": 23.9158886, "lng": 86.51860219999999}, "viewport": {"northeast": {"lat": 23.9169645302915, "lng": 86.5196221802915}, "southwest": {"lat": 23.9142665697085, "lng": 86.5169242197085}}}, "icon": "https://maps.gstatic.com/mapfiles/place_api/icons/v1/png_71/school-71.png", "name": "Middle School", "place_id": "ChIJq6qq6l-39jkRZ3Eq08XgnYk", "plus_code": {"compound_code": "WG89+9C Badalpur, Jharkhand, India", "global_code": "7MM8WG89+9C"}, "rating": 2.5, "reference": "ChIJq6qq6l-39jkRZ3Eq08XgnYk", "scope": "GOOGLE", "types": ["school", "point_of_interest", "establishment"], "user_ratings_total": 2, "vicinity": "badalpur, Badlapur"}, {"business_status": "OPERATIONAL", "geometry": {"location": {"lat": 23.9292609, "lng": 86.5226917}, "viewport": {"northeast": {"lat": 23.9306148802915, "lng": 86.52408573029149}, "southwest": {"lat": 23.92791691970849, "lng": 86.52138776970848}}}, "icon": "https://maps.gstatic.com/mapfiles/place_api/icons/v1/png_71/school-71.png", "name": "Hirapur Middle School", "photos": [{"height": 1080, "html_attributions": ["<a href=\"https://maps.google.com/maps/contrib/104176889777069059178\">Soren Entrepreneur</a>"], "photo_reference": "ATtYBwI3ntxoIhgM6fU-RsIJkxTMB_oQNpqRxPpk_mTQjocLpGKKld2qtT3jhVzsn-kIqBnceZvZKIBlZmCfRjt8T17d93ey6scZLcZ65Sd2hfQ4oVfe3-0qb_vHaobnQAxMJG06Ncz5AZ3Xl37wrMxOaStXum_ifsAyvFZrsUAGprj9pQDu", "width": 1920}], "place_id": "ChIJE_pG_Gi39jkR3R82EutsmgE", "plus_code": {"compound_code": "WGHF+P3 Hirapur, Jharkhand, India", "global_code": "7MM8WGHF+P3"}, "rating": 5, "reference": "ChIJE_pG_Gi39jkR3R82EutsmgE", "scope": "GOOGLE", "types": ["school", "point_of_interest", "establishment"], "user_ratings_total": 1, "vicinity": "Hirapur"}, {"business_status": "OPERATIONAL", "geometry": {"location": {"lat": 23.9296087, "lng": 86.5226655}, "viewport": {"northeast": {"lat": 23.93096158029151, "lng": 86.52404968029151}, "southwest": {"lat": 23.9282636197085, "lng": 86.52135171970849}}}, "icon": "https://maps.gstatic.com/mapfiles/place_api/icons/v1/png_71/school-71.png", "name": "Aangan Badi Hirapur", "photos": [{"height": 1080, "html_attributions": ["<a href=\"https://maps.google.com/maps/contrib/104176889777069059178\">Soren Entrepreneur</a>"], "photo_reference": "ATtYBwIGzOwWqVSFMwRAiAbzUjRL04TXQ2MmV_wyU731ZhrwYUHyu3IwG9GNSqteL14z1db64B-6VCthLcBWkDQGlVPWUFgaVLdcUDY4NZ50RG3lOVVqOuAatoJGToNs4s5Bz3HXJjOLnbHe2d4mucevwM2kR1BIwr1ehAbqd5qmeysJMVJS", "width": 1920}], "place_id": "ChIJF2mGn1u39jkRsSVpkYM83dA", "plus_code": {"compound_code": "WGHF+R3 Hirapur, Jharkhand, India", "global_code": "7MM8WGHF+R3"}, "rating": 4, "reference": "ChIJF2mGn1u39jkRsSVpkYM83dA", "scope": "GOOGLE", "types": ["school", "point_of_interest", "establishment"], "user_ratings_total": 1, "vicinity": "Hirapur"}], "status": "OK"}