{"html_attributions": [], "results": [{"business_status": "OPERATIONAL", "geometry": {"location": {"lat": 23.8957767, "lng": 86.54890329999999}, "viewport": {"northeast": {"lat": 23.8970732802915, "lng": 86.55022848029151}, "southwest": {"lat": 23.8943753197085, "lng": 86.5475305197085}}}, "icon": "https://maps.gstatic.com/mapfiles/place_api/icons/v1/png_71/school-71.png", "name": "VILLEGE GETHIBERA PURVI TUNDI", "opening_hours": {"open_now": true}, "photos": [{"height": 720, "html_attributions": ["<a href=\"https://maps.google.com/maps/contrib/107052116020930963036\">Prem Kumar murmu 24</a>"], "photo_reference": "ATtYBwI3OmtTAIDql5JKj0KOfb8lV0mAIPSQKPn5uOtPrMK9FBmxObQVKXloawJI5Dt7hKxgUhq_Vkhkf1GWF3h8Bxu53sUeMCeia2F0DdzhzE-hvYnfn9XHPfBpUpr8_zjAxuWpyK_VEFapy01ZUV2tsQNrlsR6UrKkyXwza_1BXijFy2cX", "width": 1280}], "place_id": "ChIJS71FCXi59jkRb7fCiZFRhCg", "plus_code": {"compound_code": "VGWX+8H Gethibera, Jharkhand, India", "global_code": "7MM8VGWX+8H"}, "rating": 3.7, "reference": "ChIJS71FCXi59jkRb7fCiZFRhCg", "scope": "GOOGLE", "types": ["school", "point_of_interest", "establishment"], "user_ratings_total": 3, "vicinity": "Unnamed Road, Gethibera"}, {"business_status": "OPERATIONAL", "geometry": {"location": {"lat": 23.8947729, "lng": 86.54816869999999}, "viewport": {"northeast": {"lat": 23.8961635802915, "lng": 86.5493500802915}, "southwest": {"lat": 23.8934656197085, "lng": 86.54665211970848}}}, "icon": "https://maps.gstatic.com/mapfiles/place_api/icons/v1/png_71/school-71.png", "name": "primary school gethibera", "photos": [{"height": 2322, "html_attributions": ["<a href=\"https://maps.google.com/maps/contrib/112740508010102078614\">Bijay Kisku</a>"], "photo_reference": "ATtYBwJfJDA_cLsj5qeDf_ieuLibwmB_TiD1h6ryh_604D_-5PkIwXjnbrWYZHkZBSbLFmta1iq4ITi54IqNpKCM1iqpxXW9TtQmM_ic73bDs9g560T8JQGtaAGDyNXmXpN7pYq-Dpq65cpsIhxX7ieTjHVsGCthZ7e3YtKtUaLFv6CdkZNw", "width": 4128}], "place_id": "ChIJcaE3Hf-59jkRhOpZpG6YSzc", "plus_code": {"compound_code": "VGVX+W7 Gethibera, Jharkhand, India", "global_code": "7MM8VGVX+W7"}, "reference": "ChIJcaE3Hf-59jkRhOpZpG6YSzc", "scope": "GOOGLE", "types": ["school", "point_of_interest", "establishment"], "vicinity": "Gethibera purvi, Tundi"}, {"business_status": "OPERATIONAL", "geometry": {"location": {"lat": 23.89440609999999, "lng": 86.5483819}, "viewport": {"northeast": {"lat": 23.8958640302915, "lng": 86.54941038029152}, "southwest": {"lat": 23.89316606970849, "lng": 86.5467124197085}}}, "icon": "https://maps.gstatic.com/mapfiles/place_api/icons/v1/png_71/school-71.png", "name": "Primar School Gethibera Purvi Tundi Dhanbad", "place_id": "ChIJ9a-I-tK59jkRfPtenO-xcG8", "plus_code": {"compound_code": "VGVX+Q9 Gethibera, Jharkhand, India", "global_code": "7MM8VGVX+Q9"}, "reference": "ChIJ9a-I-tK59jkRfPtenO-xcG8", "scope": "GOOGLE", "types": ["school", "point_of_interest", "establishment"], "vicinity": "Gethibera purvi, Tundi"}, {"business_status": "OPERATIONAL", "geometry": {"location": {"lat": 23.8909832, "lng": 86.5515496}, "viewport": {"northeast": {"lat": 23.8923279802915, "lng": 86.55290428029151}, "southwest": {"lat": 23.8896300197085, "lng": 86.55020631970851}}}, "icon": "https://maps.gstatic.com/mapfiles/place_api/icons/v1/png_71/school-71.png", "name": "N P S Khairtand P. Tundi Dhanbad", "place_id": "ChIJxdiwQNa59jkRkNwK18yzvRA", "plus_code": {"compound_code": "VHR2+9J Gethibera, Jharkhand, India", "global_code": "7MM8VHR2+9J"}, "reference": "ChIJxdiwQNa59jkRkNwK18yzvRA", "scope": "GOOGLE", "types": ["school", "point_of_interest", "establishment"], "vicinity": "Gethibera"}], "status": "OK"}