{"html_attributions": [], "results": [{"business_status": "OPERATIONAL", "geometry": {"location": {"lat": 23.7755223, "lng": 86.5640363}, "viewport": {"northeast": {"lat": 23.7768273302915, "lng": 86.56537928029151}, "southwest": {"lat": 23.7741293697085, "lng": 86.56268131970849}}}, "icon": "https://maps.gstatic.com/mapfiles/place_api/icons/v1/png_71/school-71.png", "name": "Sewta school", "place_id": "ChIJj3vCqKq_9jkRjoqrEC1lB7Q", "plus_code": {"compound_code": "QHG7+6J Bara Bagmara, Jharkhand, India", "global_code": "7MM8QHG7+6J"}, "reference": "ChIJj3vCqKq_9jkRjoqrEC1lB7Q", "scope": "GOOGLE", "types": ["school", "point_of_interest", "establishment"], "vicinity": "Unnamed Road, Bara Bagmara"}, {"business_status": "OPERATIONAL", "geometry": {"location": {"lat": 23.7752262, "lng": 86.5630905}, "viewport": {"northeast": {"lat": 23.7765725302915, "lng": 86.5644669802915}, "southwest": {"lat": 23.7738745697085, "lng": 86.56176901970849}}}, "icon": "https://maps.gstatic.com/mapfiles/place_api/icons/v1/png_71/school-71.png", "name": "Mohubani Middle School", "photos": [{"height": 960, "html_attributions": ["<a href=\"https://maps.google.com/maps/contrib/106402003083066486051\">Tengo Charli</a>"], "photo_reference": "ATtYBwIIqPY3lV2JgT52KzVP3T88TbRvUJR917w63MeUvttYz8m5-a92rD7iaja_wjtrF5SI4gmqki3p22Da_FgjLtdTCWNVtaaf7j3PCXenRTMj8t3E1UM9DOCE9S_aGfkCmyFpQprXUhWIXmbPPRIvIo-5GRqb3hbgdz9AHBYwv_zdQAbE", "width": 720}], "place_id": "ChIJFWAqqXW_9jkRxNkyZUWYS2k", "plus_code": {"compound_code": "QHG7+36 Mahubani, Jharkhand, India", "global_code": "7MM8QHG7+36"}, "rating": 5, "reference": "ChIJFWAqqXW_9jkRxNkyZUWYS2k", "scope": "GOOGLE", "types": ["school", "point_of_interest", "establishment"], "user_ratings_total": 5, "vicinity": "Mahubani"}, {"business_status": "OPERATIONAL", "geometry": {"location": {"lat": 23.7754302, "lng": 86.57753579999999}, "viewport": {"northeast": {"lat": 23.7767723302915, "lng": 86.57889508029149}, "southwest": {"lat": 23.7740743697085, "lng": 86.57619711970848}}}, "icon": "https://maps.gstatic.com/mapfiles/place_api/icons/v1/png_71/school-71.png", "name": "Aadarsh Uchcha Vidyalaya Jamkudar", "photos": [{"height": 3096, "html_attributions": ["<a href=\"https://maps.google.com/maps/contrib/100075557203470861393\">KISHORE MAHATO</a>"], "photo_reference": "ATtYBwKagnE_ysAgkZsabHkwoDjMyueWgRbFPEbeJHmDmXSMe5and3ydi_NAwebI1e3XLz2DWVmnm__nGLGZhdV9U_vqOmjIACnSDnopbHSOv7y4RNy2_1N4x7CHONS7oz-C0LvqU6S34SWwEXvO5JQ5yEisnWoNx2ff-urdTxJ8NWBi7lPf", "width": 4128}], "place_id": "ChIJIRXrBX-_9jkRBvbaaI0Xqbc", "plus_code": {"compound_code": "QHGH+52 Dhanbad, Jharkhand, India", "global_code": "7MM8QHGH+52"}, "rating": 4.8, "reference": "ChIJIRXrBX-_9jkRBvbaaI0Xqbc", "scope": "GOOGLE", "types": ["school", "point_of_interest", "establishment"], "user_ratings_total": 6, "vicinity": "Jamkuder More Nirsha, Dhanbad"}, {"business_status": "OPERATIONAL", "geometry": {"location": {"lat": 23.7751047, "lng": 86.5781504}, "viewport": {"northeast": {"lat": 23.77635708029151, "lng": 86.5794164302915}, "southwest": {"lat": 23.7736591197085, "lng": 86.5767184697085}}}, "icon": "https://maps.gstatic.com/mapfiles/place_api/icons/v1/png_71/school-71.png", "name": "Jamkudar high school", "place_id": "ChIJV7JxQrq_9jkRSsMpH56I904", "plus_code": {"compound_code": "QHGH+27 Jamkudar, Jharkhand, India", "global_code": "7MM8QHGH+27"}, "reference": "ChIJV7JxQrq_9jkRSsMpH56I904", "scope": "GOOGLE", "types": ["school", "point_of_interest", "establishment"], "vicinity": "Unnamed Road"}, {"business_status": "OPERATIONAL", "geometry": {"location": {"lat": 23.7751989, "lng": 86.5782624}, "viewport": {"northeast": {"lat": 23.7764856302915, "lng": 86.57972893029151}, "southwest": {"lat": 23.7737876697085, "lng": 86.5770309697085}}}, "icon": "https://maps.gstatic.com/mapfiles/place_api/icons/v1/png_71/school-71.png", "name": "Adarsh Uchcha Vidyalaya Jamkudar", "opening_hours": {"open_now": false}, "photos": [{"height": 720, "html_attributions": ["<a href=\"https://maps.google.com/maps/contrib/109744355660534847361\">Kumar Tech</a>"], "photo_reference": "ATtYBwLs8HD48trE8amx6Pbw4O6Srdpe49ckGAyxkXAXZR3u3jIrL6Cc1MCXxuC-hBaGTvX_NLEKtPe2dfnO2az1I4GZw25-bhgyAMsoNyBeHFGKHkvLLCzXpmLst4YX2QlwfzMP5EYcIbwgpZFTFXb48p7os5Qy0-c4SsOAXesF55DcSjQi", "width": 1280}], "place_id": "ChIJlzla5FG_9jkRWuCfb5C7qdI", "plus_code": {"compound_code": "QHGH+38 Jamkudar, Jharkhand, India", "global_code": "7MM8QHGH+38"}, "rating": 4.3, "reference": "ChIJlzla5FG_9jkRWuCfb5C7qdI", "scope": "GOOGLE", "types": ["school", "point_of_interest", "establishment"], "user_ratings_total": 6, "vicinity": "Jamkudar"}, {"business_status": "OPERATIONAL", "geometry": {"location": {"lat": 23.7892248, "lng": 86.5715817}, "viewport": {"northeast": {"lat": 23.7925356, "lng": 86.57301153029152}, "southwest": {"lat": 23.7881212, "lng": 86.57031356970852}}}, "icon": "https://maps.gstatic.com/mapfiles/place_api/icons/v1/png_71/school-71.png", "name": "U.H.S PABIA", "place_id": "ChIJdxtJBFe_9jkRAMtR-FUp5kY", "plus_code": {"compound_code": "QHQC+MJ Morang, Jharkhand, India", "global_code": "7MM8QHQC+MJ"}, "reference": "ChIJdxtJBFe_9jkRAMtR-FUp5kY", "scope": "GOOGLE", "types": ["school", "point_of_interest", "establishment"], "vicinity": "pabia, narayanpur"}, {"business_status": "OPERATIONAL", "geometry": {"location": {"lat": 23.7842765, "lng": 86.5797862}, "viewport": {"northeast": {"lat": 23.7857353302915, "lng": 86.58131613029151}, "southwest": {"lat": 23.7830373697085, "lng": 86.57861816970849}}}, "icon": "https://maps.gstatic.com/mapfiles/place_api/icons/v1/png_71/school-71.png", "name": "Upgrade Middle School Moranga", "photos": [{"height": 3456, "html_attributions": ["<a href=\"https://maps.google.com/maps/contrib/116278135406643720838\">KRD POWER</a>"], "photo_reference": "ATtYBwK9WhrIPG4DzuNR3BHDtdhu_qdvKPUbUYCTU9Jguj9W4nfLud_Wrs8Hcrauv4tFMc9cn_W5thfhM1UP9oM_mS46cMEU30ExeGv7sQMWCplYOfE-aQTY32fI7hp395eS2b5XYlcF96bBTuSV85zSFykhHSc2cuxKxBalX-8Hbq1z7CUz", "width": 7872}], "place_id": "ChIJORUHx6W_9jkR5SuV0kCtTu0", "plus_code": {"compound_code": "QHMH+PW Morang, Jharkhand, India", "global_code": "7MM8QHMH+PW"}, "reference": "ChIJORUHx6W_9jkR5SuV0kCtTu0", "scope": "GOOGLE", "types": ["school", "point_of_interest", "establishment"], "vicinity": "Unnamed Road, Morang"}, {"business_status": "OPERATIONAL", "geometry": {"location": {"lat": 23.7695106, "lng": 86.57158299999999}, "viewport": {"northeast": {"lat": 23.7708455302915, "lng": 86.5729310802915}, "southwest": {"lat": 23.76814756970849, "lng": 86.57023311970849}}}, "icon": "https://maps.gstatic.com/mapfiles/place_api/icons/v1/png_71/school-71.png", "name": "\u0930\u093e\u091c\u0915\u0940\u092f \u092a\u094d\u0930\u093e\u0925\u092e\u093f\u0915 \u0935\u093f\u0926\u094d\u092f\u093e\u0932\u092f \u0928\u093e\u0930\u094b\u0921\u0940\u0939", "place_id": "ChIJV5h6IoO_9jkReiMfB2AwFCI", "plus_code": {"compound_code": "QH9C+RJ Norodih alias Narohir, Jharkhand, India", "global_code": "7MM8QH9C+RJ"}, "rating": 5, "reference": "ChIJV5h6IoO_9jkReiMfB2AwFCI", "scope": "GOOGLE", "types": ["primary_school", "school", "point_of_interest", "establishment"], "user_ratings_total": 3, "vicinity": "Norodih alias Narohir"}, {"business_status": "OPERATIONAL", "geometry": {"location": {"lat": 23.76889, "lng": 86.570467}, "viewport": {"northeast": {"lat": 23.7702062302915, "lng": 86.5718159802915}, "southwest": {"lat": 23.7675082697085, "lng": 86.5691180197085}}}, "icon": "https://maps.gstatic.com/mapfiles/place_api/icons/v1/png_71/school-71.png", "name": "Middle school narodih", "place_id": "ChIJw54jJsC_9jkR64GHkItHVu0", "plus_code": {"compound_code": "QH9C+H5 Norodih alias Narohir, Jharkhand, India", "global_code": "7MM8QH9C+H5"}, "reference": "ChIJw54jJsC_9jkR64GHkItHVu0", "scope": "GOOGLE", "types": ["school", "point_of_interest", "establishment"], "vicinity": "Norodih alias Narohir"}, {"business_status": "OPERATIONAL", "geometry": {"location": {"lat": 23.7688779, "lng": 86.5704592}, "viewport": {"northeast": {"lat": 23.7702049802915, "lng": 86.57180818029151}, "southwest": {"lat": 23.7675070197085, "lng": 86.56911021970849}}}, "icon": "https://maps.gstatic.com/mapfiles/place_api/icons/v1/png_71/school-71.png", "name": "Utkarmit madhay vidyalay Narodih", "place_id": "ChIJxWvIgge_9jkReCr3MLI1RTw", "plus_code": {"compound_code": "QH9C+H5 Norodih alias Narohir, Jharkhand, India", "global_code": "7MM8QH9C+H5"}, "reference": "ChIJxWvIgge_9jkReCr3MLI1RTw", "scope": "GOOGLE", "types": ["school", "point_of_interest", "establishment"], "vicinity": "Norodih alias Narohir"}], "status": "OK"}