{"html_attributions": [], "results": [{"business_status": "OPERATIONAL", "geometry": {"location": {"lat": 23.8141514, "lng": 86.57264169999999}, "viewport": {"northeast": {"lat": 23.8159000802915, "lng": 86.5744201802915}, "southwest": {"lat": 23.8132021197085, "lng": 86.57172221970849}}}, "icon": "https://maps.gstatic.com/mapfiles/place_api/icons/v1/png_71/school-71.png", "name": "K K SCHOOL OF NURSING", "opening_hours": {"open_now": true}, "photos": [{"height": 1543, "html_attributions": ["<a href=\"https://maps.google.com/maps/contrib/103465108300038911748\">Gandhi Kumar Shaw</a>"], "photo_reference": "ATtYBwLLf-N3nWGgaY0GOGikuFThoxqK_ZF8hz4Hj1WZDxGsJIHQ5Me2l9-ZDjLAlNtIJVSatR4hjr7i25rpIMsbN7eZeQayyu5qhGzfw5RL6K2739e5VIzXIw-WLvkc5NSXVWrI_XDvJHklEXQnvKDGz6AhTC05edmIzG1ZtumMfV9040iv", "width": 3120}], "place_id": "ChIJF4935Ru_9jkRk2XQrCmMURo", "plus_code": {"compound_code": "RH7F+M3 Gobindpur, Jharkhand, India", "global_code": "7MM8RH7F+M3"}, "rating": 3, "reference": "ChIJF4935Ru_9jkRk2XQrCmMURo", "scope": "GOOGLE", "types": ["university", "school", "point_of_interest", "establishment"], "user_ratings_total": 1, "vicinity": "Deoli , Jangalpur, Gobindpur"}, {"business_status": "OPERATIONAL", "geometry": {"location": {"lat": 23.8124486, "lng": 86.5671263}, "viewport": {"northeast": {"lat": 23.8143445802915, "lng": 86.5686302302915}, "southwest": {"lat": 23.8116466197085, "lng": 86.5659322697085}}}, "icon": "https://maps.gstatic.com/mapfiles/place_api/icons/v1/png_71/school-71.png", "name": "Carmel School Deoli Govindpur", "photos": [{"height": 1080, "html_attributions": ["<a href=\"https://maps.google.com/maps/contrib/113693130244373873331\">Shubhankar Mitra</a>"], "photo_reference": "ATtYBwJ-MNWAQRLNLCv5SBUZKYMRs93XgxqShccM2CIPOdIhoGBIkfwaeJz5-UWkarkoTAS1wIGXB9QtM3yiS-FG_3lOYZ-zGr3Q51_LaFF0xILQbcdkiaDPNEvacR_Gf7LrPfhGNz86syLwT7LABFi8Zvh521hkQ1eXH7IOrAC_tJOq5mm1", "width": 1920}], "place_id": "ChIJA-S_YOO_9jkRmwWC4WOWmls", "plus_code": {"compound_code": "RH68+XV Bagsuma, Jharkhand, India", "global_code": "7MM8RH68+XV"}, "rating": 4.7, "reference": "ChIJA-S_YOO_9jkRmwWC4WOWmls", "scope": "GOOGLE", "types": ["school", "point_of_interest", "establishment"], "user_ratings_total": 3, "vicinity": "National Highway 19, Bagsuma"}, {"business_status": "OPERATIONAL", "geometry": {"location": {"lat": 23.81229579999999, "lng": 86.5750467}, "viewport": {"northeast": {"lat": 23.8134435802915, "lng": 86.5763408302915}, "southwest": {"lat": 23.81074561970849, "lng": 86.5736428697085}}}, "icon": "https://maps.gstatic.com/mapfiles/place_api/icons/v1/png_71/school-71.png", "name": "\u0909\u0924\u0915\u094d\u0930\u092e\u093f\u0924 \u092e\u0927\u094d\u092f \u0935\u093f\u0927\u093e\u0932\u092f, \u0926\u0947\u0935\u0932\u0940", "place_id": "ChIJJeBHfeW_9jkRVkgENEIXgRg", "plus_code": {"compound_code": "RH6G+W2 Tola Deoli alias Bargidih, Jharkhand, India", "global_code": "7MM8RH6G+W2"}, "reference": "ChIJJeBHfeW_9jkRVkgENEIXgRg", "scope": "GOOGLE", "types": ["school", "point_of_interest", "establishment"], "vicinity": "Tola Deoli alias Bargidih"}, {"business_status": "OPERATIONAL", "geometry": {"location": {"lat": 23.8122317, "lng": 86.5752512}, "viewport": {"northeast": {"lat": 23.8133876802915, "lng": 86.57654758029149}, "southwest": {"lat": 23.8106897197085, "lng": 86.57384961970848}}}, "icon": "https://maps.gstatic.com/mapfiles/place_api/icons/v1/png_71/school-71.png", "name": "Utkramit Madhya Vidyalaya Deoli", "place_id": "ChIJ8834LFG_9jkRmGoVhJv3ngo", "plus_code": {"compound_code": "RH6G+V4 Tola Deoli alias Bargidih, Jharkhand, India", "global_code": "7MM8RH6G+V4"}, "rating": 3.5, "reference": "ChIJ8834LFG_9jkRmGoVhJv3ngo", "scope": "GOOGLE", "types": ["school", "point_of_interest", "establishment"], "user_ratings_total": 2, "vicinity": "G.T. Road, Deoli, Dhanbad"}, {"business_status": "OPERATIONAL", "geometry": {"location": {"lat": 23.812067, "lng": 86.575333}, "viewport": {"northeast": {"lat": 23.8132920802915, "lng": 86.5766464802915}, "southwest": {"lat": 23.8105941197085, "lng": 86.5739485197085}}}, "icon": "https://maps.gstatic.com/mapfiles/place_api/icons/v1/png_71/school-71.png", "name": "UM School", "opening_hours": {"open_now": true}, "place_id": "ChIJCXVfK1G_9jkR14H1bZmSvrQ", "plus_code": {"compound_code": "RH6G+R4 Deuli, Jharkhand, India", "global_code": "7MM8RH6G+R4"}, "reference": "ChIJCXVfK1G_9jkR14H1bZmSvrQ", "scope": "GOOGLE", "types": ["school", "point_of_interest", "establishment"], "vicinity": "Dhanbad, NH-2, Delhi Kolata Highway, Dhanbad, Dhanbad"}, {"business_status": "OPERATIONAL", "geometry": {"location": {"lat": 23.8120452, "lng": 86.5754132}, "viewport": {"northeast": {"lat": 23.81327148029151, "lng": 86.5767270302915}, "southwest": {"lat": 23.8105735197085, "lng": 86.57402906970849}}}, "icon": "https://maps.gstatic.com/mapfiles/place_api/icons/v1/png_71/school-71.png", "name": "Middle School", "place_id": "ChIJlw1tbya_9jkRDUDYaW_LIRM", "plus_code": {"compound_code": "RH6G+R5 Deuli, Jharkhand, India", "global_code": "7MM8RH6G+R5"}, "rating": 5, "reference": "ChIJlw1tbya_9jkRDUDYaW_LIRM", "scope": "GOOGLE", "types": ["school", "point_of_interest", "establishment"], "user_ratings_total": 1, "vicinity": "Deuli"}, {"business_status": "OPERATIONAL", "geometry": {"location": {"lat": 23.8118724, "lng": 86.5754661}, "viewport": {"northeast": {"lat": 23.8131735802915, "lng": 86.5768013802915}, "southwest": {"lat": 23.8104756197085, "lng": 86.57410341970849}}}, "icon": "https://maps.gstatic.com/mapfiles/place_api/icons/v1/png_71/school-71.png", "name": "UPGRADED MIDDLE SCHOOL DEOLI", "opening_hours": {"open_now": false}, "photos": [{"height": 1080, "html_attributions": ["<a href=\"https://maps.google.com/maps/contrib/117712273239371528307\">Arbind Kumar</a>"], "photo_reference": "ATtYBwKH6dT15ehN6qrGEiIfZtuTLOGm4i6iIqd8qKRrhZgtlg0Ff3D6EVcUfuAtF78E70_-dCYK9XMDop2X2LXAjhAjaaRYBDV0j1-ZJGK_aVYkag_auazDpPpCmIGMuIat8AxBr_6hxV8R6SJwJdQtcYf_ZHBk4JMliUOwfLNGRb6oBlnj", "width": 1920}], "place_id": "ChIJKdb7EZq_9jkR-3QyzfFKa4Y", "plus_code": {"compound_code": "RH6G+P5 Deuli, Jharkhand, India", "global_code": "7MM8RH6G+P5"}, "rating": 4, "reference": "ChIJKdb7EZq_9jkR-3QyzfFKa4Y", "scope": "GOOGLE", "types": ["school", "point_of_interest", "establishment"], "user_ratings_total": 2, "vicinity": "National Highway 19, Deuli"}, {"business_status": "OPERATIONAL", "geometry": {"location": {"lat": 23.8264972, "lng": 86.5781343}, "viewport": {"northeast": {"lat": 23.8278816802915, "lng": 86.57950128029151}, "southwest": {"lat": 23.8251837197085, "lng": 86.57680331970849}}}, "icon": "https://maps.gstatic.com/mapfiles/place_api/icons/v1/png_71/school-71.png", "name": "Urdu Middle school", "place_id": "ChIJEW9EKqq49jkRJ86hzYtJndo", "plus_code": {"compound_code": "RHGH+H7 Jangalpur, Jharkhand, India", "global_code": "7MM8RHGH+H7"}, "rating": 5, "reference": "ChIJEW9EKqq49jkRJ86hzYtJndo", "scope": "GOOGLE", "types": ["school", "point_of_interest", "establishment"], "user_ratings_total": 1, "vicinity": "Jangalpur"}, {"business_status": "OPERATIONAL", "geometry": {"location": {"lat": 23.8265726, "lng": 86.578087}, "viewport": {"northeast": {"lat": 23.82793308029151, "lng": 86.57941193029151}, "southwest": {"lat": 23.8252351197085, "lng": 86.5767139697085}}}, "icon": "https://maps.gstatic.com/mapfiles/place_api/icons/v1/png_71/school-71.png", "name": "Middle school", "photos": [{"height": 3232, "html_attributions": ["<a href=\"https://maps.google.com/maps/contrib/110352742273426806879\">Mistr Md Abdul Sattar</a>"], "photo_reference": "ATtYBwIF-xMr7-lPHeNJFMJaFpNsCu2fLwvxvYRhMa-JyNlYjiRwAsBG8_5KO_fHNfeQt5VNeNVGwpg2H6_3phzprYFXx_-zPhuvFfbUb0cjL3ee8oSLDYqWOUD6XktYuChOjeJyEZF5Z0aI-pGiGH3lDzpalZgfMb7ElpomStHT4-8u6pk", "width": 1536}], "place_id": "ChIJ-0d9Kqq49jkR8SzmMX5_8mg", "plus_code": {"compound_code": "RHGH+J6 Jangalpur, Jharkhand, India", "global_code": "7MM8RHGH+J6"}, "reference": "ChIJ-0d9Kqq49jkR8SzmMX5_8mg", "scope": "GOOGLE", "types": ["school", "point_of_interest", "establishment"], "vicinity": "Jangalpur"}], "status": "OK"}