{"html_attributions": [], "results": [{"business_status": "OPERATIONAL", "geometry": {"location": {"lat": 23.862536, "lng": 86.5644715}, "viewport": {"northeast": {"lat": 23.86391628029151, "lng": 86.5658528302915}, "southwest": {"lat": 23.8612183197085, "lng": 86.5631548697085}}}, "icon": "https://maps.gstatic.com/mapfiles/place_api/icons/v1/png_71/school-71.png", "name": "H mustaqe center", "opening_hours": {"open_now": false}, "photos": [{"height": 563, "html_attributions": ["<a href=\"https://maps.google.com/maps/contrib/117334645786060059832\">khalid qasmi</a>"], "photo_reference": "ATtYBwIPIZ7-MCaHWiEuuLMgXRl57ByJs_xTok0e5jyQeYnVWC4xomKKh7-iWFiC2d5xxNLfUmqU1sRKCU1HVJKCdaXhnIZp9QVmei2MegUzHvRZ6LgAB4X_lDDUKzbKdgCo3ivFdLPSe7ef4CrlwnYRb-VAzlM_Cj5h5LtaHh7Yj_xMJ4-p", "width": 1000}], "place_id": "ChIJM6b7dT259jkROUSF99hAylI", "plus_code": {"compound_code": "VH77+2Q Sarkardih, Jharkhand, India", "global_code": "7MM8VH77+2Q"}, "reference": "ChIJM6b7dT259jkROUSF99hAylI", "scope": "GOOGLE", "types": ["primary_school", "school", "point_of_interest", "establishment"], "vicinity": "Sarkardih"}, {"business_status": "OPERATIONAL", "geometry": {"location": {"lat": 23.8636604, "lng": 86.561466}, "viewport": {"northeast": {"lat": 23.8651259802915, "lng": 86.5628404802915}, "southwest": {"lat": 23.8624280197085, "lng": 86.56014251970849}}}, "icon": "https://maps.gstatic.com/mapfiles/place_api/icons/v1/png_71/school-71.png", "name": "U.M.V. School Sarkardih", "opening_hours": {"open_now": false}, "place_id": "ChIJr_Ayakm59jkRGsc_flOOJ4M", "plus_code": {"compound_code": "VH76+FH Sarkardih, Jharkhand, India", "global_code": "7MM8VH76+FH"}, "rating": 3, "reference": "ChIJr_Ayakm59jkRGsc_flOOJ4M", "scope": "GOOGLE", "types": ["school", "point_of_interest", "establishment"], "user_ratings_total": 1, "vicinity": "Sarkardih"}, {"business_status": "OPERATIONAL", "geometry": {"location": {"lat": 23.8671432, "lng": 86.5752644}, "viewport": {"northeast": {"lat": 23.86848678029151, "lng": 86.5766134302915}, "southwest": {"lat": 23.8657888197085, "lng": 86.5739154697085}}}, "icon": "https://maps.gstatic.com/mapfiles/place_api/icons/v1/png_71/school-71.png", "name": "MIDDLE SCHOOL MOHANPUR", "place_id": "ChIJyQ4ShnS59jkRQsH-_WqqYjM", "plus_code": {"compound_code": "VH8G+V4 Mohanpur, Jharkhand, India", "global_code": "7MM8VH8G+V4"}, "reference": "ChIJyQ4ShnS59jkRQsH-_WqqYjM", "scope": "GOOGLE", "types": ["school", "point_of_interest", "establishment"], "vicinity": "Unnamed Road"}, {"business_status": "OPERATIONAL", "geometry": {"location": {"lat": 23.8675365, "lng": 86.57860099999999}, "viewport": {"northeast": {"lat": 23.8688483302915, "lng": 86.5799548802915}, "southwest": {"lat": 23.8661503697085, "lng": 86.57725691970849}}}, "icon": "https://maps.gstatic.com/mapfiles/place_api/icons/v1/png_71/school-71.png", "name": "U.M.S Mohanpur School", "place_id": "ChIJq2Ak2gK59jkRllF1SU0OKQ0", "plus_code": {"compound_code": "VH9H+2C Mohanpur, Jharkhand, India", "global_code": "7MM8VH9H+2C"}, "reference": "ChIJq2Ak2gK59jkRllF1SU0OKQ0", "scope": "GOOGLE", "types": ["school", "point_of_interest", "establishment"], "vicinity": "Mohanpur"}, {"business_status": "OPERATIONAL", "geometry": {"location": {"lat": 23.8712446, "lng": 86.566574}, "viewport": {"northeast": {"lat": 23.8725854802915, "lng": 86.5679831302915}, "southwest": {"lat": 23.8698875197085, "lng": 86.56528516970849}}}, "icon": "https://maps.gstatic.com/mapfiles/place_api/icons/v1/png_71/school-71.png", "name": "UPG High School Fatehpur", "place_id": "ChIJnzy6G3659jkR3TfkKtvibnM", "plus_code": {"compound_code": "VHC8+FJ Fatepur, Jharkhand, India", "global_code": "7MM8VHC8+FJ"}, "reference": "ChIJnzy6G3659jkR3TfkKtvibnM", "scope": "GOOGLE", "types": ["school", "point_of_interest", "establishment"], "vicinity": "Unnamed Road, Fatepur"}, {"business_status": "OPERATIONAL", "geometry": {"location": {"lat": 23.8688212, "lng": 86.5783951}, "viewport": {"northeast": {"lat": 23.8701479302915, "lng": 86.57973963029151}, "southwest": {"lat": 23.8674499697085, "lng": 86.57704166970849}}}, "icon": "https://maps.gstatic.com/mapfiles/place_api/icons/v1/png_71/school-71.png", "name": "Armaan mallik ke big fan ka ghar", "place_id": "ChIJl7UX_Xe59jkRvNtOzBSMCio", "plus_code": {"compound_code": "VH9H+G9 Mohanpur, Jharkhand, India", "global_code": "7MM8VH9H+G9"}, "reference": "ChIJl7UX_Xe59jkRvNtOzBSMCio", "scope": "GOOGLE", "types": ["school", "point_of_interest", "establishment"], "vicinity": "Unnamed Road, Mohanpur"}, {"business_status": "OPERATIONAL", "geometry": {"location": {"lat": 23.87219409999999, "lng": 86.56932019999999}, "viewport": {"northeast": {"lat": 23.8735047302915, "lng": 86.5706307802915}, "southwest": {"lat": 23.8708067697085, "lng": 86.56793281970847}}}, "icon": "https://maps.gstatic.com/mapfiles/place_api/icons/v1/png_71/school-71.png", "name": "High school fatehpur", "place_id": "ChIJzWQyylK59jkRZqjfTXaW1Ng", "plus_code": {"compound_code": "VHC9+VP Fatepur, Jharkhand, India", "global_code": "7MM8VHC9+VP"}, "reference": "ChIJzWQyylK59jkRZqjfTXaW1Ng", "scope": "GOOGLE", "types": ["school", "point_of_interest", "establishment"], "vicinity": "Fatepur"}, {"business_status": "OPERATIONAL", "geometry": {"location": {"lat": 23.8722085, "lng": 86.5692924}, "viewport": {"northeast": {"lat": 23.8735215302915, "lng": 86.57060543029151}, "southwest": {"lat": 23.8708235697085, "lng": 86.56790746970849}}}, "icon": "https://maps.gstatic.com/mapfiles/place_api/icons/v1/png_71/school-71.png", "name": "upgraded middle school fatehpur", "place_id": "ChIJvfDtPmO49jkRutD5u5uFHsQ", "plus_code": {"compound_code": "VHC9+VP Fatepur, Jharkhand, India", "global_code": "7MM8VHC9+VP"}, "rating": 4, "reference": "ChIJvfDtPmO49jkRutD5u5uFHsQ", "scope": "GOOGLE", "types": ["school", "point_of_interest", "establishment"], "user_ratings_total": 1, "vicinity": "Fatepur"}, {"business_status": "OPERATIONAL", "geometry": {"location": {"lat": 23.8724342, "lng": 86.5697849}, "viewport": {"northeast": {"lat": 23.8739027302915, "lng": 86.57111833029151}, "southwest": {"lat": 23.8712047697085, "lng": 86.5684203697085}}}, "icon": "https://maps.gstatic.com/mapfiles/place_api/icons/v1/png_71/school-71.png", "name": "Jharkhand Aawasiya school", "place_id": "ChIJAz1BUwq59jkRNJ5FQUF0ZVk", "plus_code": {"compound_code": "VHC9+XW Fatepur, Jharkhand, India", "global_code": "7MM8VHC9+XW"}, "reference": "ChIJAz1BUwq59jkRNJ5FQUF0ZVk", "scope": "GOOGLE", "types": ["school", "point_of_interest", "establishment"], "vicinity": "Unnamed Road, Fatepur"}], "status": "OK"}