{"html_attributions": [], "results": [{"business_status": "OPERATIONAL", "geometry": {"location": {"lat": 24.0146483, "lng": 86.57175029999999}, "viewport": {"northeast": {"lat": 24.0160495802915, "lng": 86.5730397302915}, "southwest": {"lat": 24.0133516197085, "lng": 86.57034176970849}}}, "icon": "https://maps.gstatic.com/mapfiles/place_api/icons/v1/png_71/school-71.png", "name": "Uttkarmit middle school ghati shimla", "place_id": "ChIJv2aQdRq19jkR2AruRNRDeeo", "plus_code": {"compound_code": "2H7C+VP Narainpur, Jharkhand, India", "global_code": "7MP82H7C+VP"}, "reference": "ChIJv2aQdRq19jkR2AruRNRDeeo", "scope": "GOOGLE", "types": ["school", "point_of_interest", "establishment"], "vicinity": "Shimla, Narainpur"}, {"business_status": "OPERATIONAL", "geometry": {"location": {"lat": 24.0182547, "lng": 86.5803153}, "viewport": {"northeast": {"lat": 24.0194996802915, "lng": 86.5816633302915}, "southwest": {"lat": 24.0168017197085, "lng": 86.57896536970848}}}, "icon": "https://maps.gstatic.com/mapfiles/place_api/icons/v1/png_71/school-71.png", "name": "U High school sabanpur", "photos": [{"height": 1520, "html_attributions": ["<a href=\"https://maps.google.com/maps/contrib/115621683937924855086\">AR Gaming</a>"], "photo_reference": "ATtYBwLHiw2V1IhWE97x-iqHxvzFHmJi9IFMdEO2Y3x5f97UW_Xut-etbdMazkwPeGieGHUfxUGV-rP-M3Nn9BplkVfOns_2YFhnVkuNkHMkHXykUJCAaEAQx_CxBOBhVNDMtEMYyWUj1ZR8GfEC1Wa0xV2qJoUxewqv7VIqr_p1uFZX3SoS", "width": 3264}], "place_id": "ChIJixZ5l1C19jkRNKR7nAF9qD8", "plus_code": {"compound_code": "2H9J+84 Sabanpur, Jharkhand, India", "global_code": "7MP82H9J+84"}, "rating": 5, "reference": "ChIJixZ5l1C19jkRNKR7nAF9qD8", "scope": "GOOGLE", "types": ["secondary_school", "school", "point_of_interest", "establishment"], "user_ratings_total": 1, "vicinity": "Sabanpur"}, {"business_status": "OPERATIONAL", "geometry": {"location": {"lat": 24.0182404, "lng": 86.5803414}, "viewport": {"northeast": {"lat": 24.01949243029151, "lng": 86.58168948029152}, "southwest": {"lat": 24.0167944697085, "lng": 86.5789915197085}}}, "icon": "https://maps.gstatic.com/mapfiles/place_api/icons/v1/png_71/school-71.png", "name": "\u0909\u0924\u094d\u0915\u094d\u0930\u092e\u093f\u0924 \u0909\u091a\u094d\u091a \u0935\u093f\u0926\u094d\u092f\u093e\u0932\u092f \u0938\u092c\u0928\u092a\u0941\u0930", "place_id": "ChIJhb88lhW19jkRLLWPSX2x3C4", "plus_code": {"compound_code": "2H9J+74 Sabanpur, Jharkhand, India", "global_code": "7MP82H9J+74"}, "rating": 2.7, "reference": "ChIJhb88lhW19jkRLLWPSX2x3C4", "scope": "GOOGLE", "types": ["school", "point_of_interest", "establishment"], "user_ratings_total": 3, "vicinity": "Sabanpur"}, {"business_status": "OPERATIONAL", "geometry": {"location": {"lat": 24.018259, "lng": 86.58035319999999}, "viewport": {"northeast": {"lat": 24.0195016802915, "lng": 86.58170118029149}, "southwest": {"lat": 24.0168037197085, "lng": 86.57900321970848}}}, "icon": "https://maps.gstatic.com/mapfiles/place_api/icons/v1/png_71/school-71.png", "name": "USH Sabanpur", "photos": [{"height": 596, "html_attributions": ["<a href=\"https://maps.google.com/maps/contrib/103181873590960162106\">Rohit Kumar</a>"], "photo_reference": "ATtYBwI0ynwcfRugb26TDzTGV0SxbUS3e6g4YGkjQ6lzrByFueSwHajYrfRBlccAdnYubTKgbMC232vyOCBHEulCZA6-RtBVhXLzosxCr_Dyp_UifIt0PHBF2lGt4dyHn8nBciDM3ePaYW3zSf77IjvrV-mrTdjvpGMsQhIbxw257EB1nPx5", "width": 1280}], "place_id": "ChIJa1X4Hey19jkR0HzznPmBvvg", "plus_code": {"compound_code": "2H9J+84 Sabanpur, Jharkhand, India", "global_code": "7MP82H9J+84"}, "rating": 5, "reference": "ChIJa1X4Hey19jkR0HzznPmBvvg", "scope": "GOOGLE", "types": ["secondary_school", "school", "point_of_interest", "establishment"], "user_ratings_total": 2, "vicinity": "Sabanpur"}, {"business_status": "OPERATIONAL", "geometry": {"location": {"lat": 24.0155132, "lng": 86.58091739999999}, "viewport": {"northeast": {"lat": 24.01681823029151, "lng": 86.5822513802915}, "southwest": {"lat": 24.0141202697085, "lng": 86.57955341970849}}}, "icon": "https://maps.gstatic.com/mapfiles/place_api/icons/v1/png_71/school-71.png", "name": "Jai shree krishna", "photos": [{"height": 1302, "html_attributions": ["<a href=\"https://maps.google.com/maps/contrib/110354616948712719412\">Bahadur Kumar</a>"], "photo_reference": "ATtYBwJyFN5kEBncDqgXuiiAsXxeI4Z3D8OQY5EWZTNvy0vS43wzGAtjvktDE2oRyusvBUPPj5HMZ3pSsk0pba0nWiJGvPQtYeDv7c24KqBuLGecFl-reNdcktvSrr7fM-77pYi8OcAPSCDzIeT1satKiSaQE_fUejJC1N-rnbBC-7hle93b", "width": 1080}], "place_id": "ChIJkZjuO83L9jkRIv4hookDwq4", "plus_code": {"compound_code": "2H8J+69 Sabanpur, Jharkhand, India", "global_code": "7MP82H8J+69"}, "rating": 1, "reference": "ChIJkZjuO83L9jkRIv4hookDwq4", "scope": "GOOGLE", "types": ["school", "point_of_interest", "establishment"], "user_ratings_total": 1, "vicinity": "Sabanpur"}], "status": "OK"}