{"html_attributions": [], "results": [{"business_status": "OPERATIONAL", "geometry": {"location": {"lat": 24.0356848, "lng": 86.57611159999999}, "viewport": {"northeast": {"lat": 24.0371349302915, "lng": 86.57753928029149}, "southwest": {"lat": 24.0344369697085, "lng": 86.57484131970848}}}, "icon": "https://maps.gstatic.com/mapfiles/place_api/icons/v1/png_71/school-71.png", "name": "Utakalamit Madhey Vidyalay", "place_id": "ChIJkTIXcXS19jkR8I0_IOPFdWY", "plus_code": {"compound_code": "2HPG+7C Barowa, Jharkhand, India", "global_code": "7MP82HPG+7C"}, "reference": "ChIJkTIXcXS19jkR8I0_IOPFdWY", "scope": "GOOGLE", "types": ["school", "point_of_interest", "establishment"], "vicinity": "Unnamed Road, Barowa"}, {"business_status": "OPERATIONAL", "geometry": {"location": {"lat": 24.0356848, "lng": 86.57611159999999}, "viewport": {"northeast": {"lat": 24.0371349302915, "lng": 86.57753928029149}, "southwest": {"lat": 24.0344369697085, "lng": 86.57484131970848}}}, "icon": "https://maps.gstatic.com/mapfiles/place_api/icons/v1/png_71/school-71.png", "name": "Uttkarmit Middle school Barowa", "place_id": "ChIJL1MxF1e19jkROHgqcjpquRw", "plus_code": {"compound_code": "2HPG+7C Barowa, Jharkhand, India", "global_code": "7MP82HPG+7C"}, "reference": "ChIJL1MxF1e19jkROHgqcjpquRw", "scope": "GOOGLE", "types": ["school", "point_of_interest", "establishment"], "vicinity": "Unnamed Road, Barowa"}, {"business_status": "OPERATIONAL", "geometry": {"location": {"lat": 24.035754, "lng": 86.57622959999999}, "viewport": {"northeast": {"lat": 24.0371556802915, "lng": 86.5776195802915}, "southwest": {"lat": 24.0344577197085, "lng": 86.57492161970849}}}, "icon": "https://maps.gstatic.com/mapfiles/place_api/icons/v1/png_71/school-71.png", "name": "Utkramit Madhya Vidhalaya", "place_id": "ChIJf2AqBO219jkRuh5bMs3S0is", "plus_code": {"compound_code": "2HPG+8F Barowa, Jharkhand, India", "global_code": "7MP82HPG+8F"}, "reference": "ChIJf2AqBO219jkRuh5bMs3S0is", "scope": "GOOGLE", "types": ["school", "point_of_interest", "establishment"], "vicinity": "Unnamed Road, Barowa"}, {"business_status": "OPERATIONAL", "geometry": {"location": {"lat": 24.03390079999999, "lng": 86.56146369999999}, "viewport": {"northeast": {"lat": 24.0352456302915, "lng": 86.5629906302915}, "southwest": {"lat": 24.0325476697085, "lng": 86.56029266970847}}}, "icon": "https://maps.gstatic.com/mapfiles/place_api/icons/v1/png_71/school-71.png", "name": "Masjid Purnadih", "photos": [{"height": 668, "html_attributions": ["<a href=\"https://maps.google.com/maps/contrib/104809047613407174004\">Md Irfan Ansari</a>"], "photo_reference": "ATtYBwLJxs7xDvYg14TXxlavTYffNvQiZvomdGd37oHRwf9DTNoq2qLiZMtudsH-O8WllpqlEd8dyf6pVkJ0fFhvtmU_pj15wpocw_p3vkoH1ID-daoF93t1qfw8UBcpEWtJ5HteD3DXNvrL1efRGhUCNEGMNwXjyogYBkxSb6O5YeHYvub3", "width": 1043}], "place_id": "ChIJ05vv_rm19jkRaJ3gRKbuyWA", "plus_code": {"compound_code": "2HM6+HH Palta, Jharkhand, India", "global_code": "7MP82HM6+HH"}, "reference": "ChIJ05vv_rm19jkRaJ3gRKbuyWA", "scope": "GOOGLE", "types": ["school", "point_of_interest", "establishment"], "vicinity": "purnadih, Palta"}, {"business_status": "OPERATIONAL", "geometry": {"location": {"lat": 24.0314199, "lng": 86.56327750000001}, "viewport": {"northeast": {"lat": 24.0327708302915, "lng": 86.56457783029151}, "southwest": {"lat": 24.0300728697085, "lng": 86.5618798697085}}}, "icon": "https://maps.gstatic.com/mapfiles/place_api/icons/v1/png_71/school-71.png", "name": "palta School", "photos": [{"height": 1717, "html_attributions": ["<a href=\"https://maps.google.com/maps/contrib/100996017550724362508\">Sunil Murmu Vlogs</a>"], "photo_reference": "ATtYBwKN46xktcQ0s0U4qkFdUfRr1y__jRLLzP4a7cmFXMUL7zeeKaPgYOzq0MkrD36AmwAxilQhEBn5PgxLHePc11qMnGU6FSAjJwhUDzRglD2TIfI_pBKSFtgKECgGNXIIAogh3KYqCaCd51M79GdaAHWrJgfWGWOkcwuAS0CNciYMDH-l", "width": 3052}], "place_id": "ChIJz6dUBuu19jkRWKfgXBIK-K0", "plus_code": {"compound_code": "2HJ7+H8 Palta, Jharkhand, India", "global_code": "7MP82HJ7+H8"}, "rating": 1, "reference": "ChIJz6dUBuu19jkRWKfgXBIK-K0", "scope": "GOOGLE", "types": ["school", "point_of_interest", "establishment"], "user_ratings_total": 1, "vicinity": "Palta"}], "status": "OK"}