{"html_attributions": [], "results": [{"business_status": "OPERATIONAL", "geometry": {"location": {"lat": 23.8341237, "lng": 86.58486429999999}, "viewport": {"northeast": {"lat": 23.83549328029151, "lng": 86.5862716302915}, "southwest": {"lat": 23.8327953197085, "lng": 86.5835736697085}}}, "icon": "https://maps.gstatic.com/mapfiles/place_api/icons/v1/png_71/school-71.png", "name": "Nutandih School", "photos": [{"height": 1080, "html_attributions": ["<a href=\"https://maps.google.com/maps/contrib/104717800011416571580\">Saddam Ansari Saddam Ansari</a>"], "photo_reference": "ATtYBwL8s0snnB-1KurhH7fgSYoFVXFUFBmwS_HzxsdUftAqgEikuuL71s0Zxvj-ZiFgdQaOtwi4fIYV7abCSLAY8oiG53kYZVx11Ay5V5QRU17wTY4CPAbXTZJ2yiPTRrI322Sf_V_qmxqRX-Qv5Wo1ENwdzsQOAl1Oy7WPxe0bjtGqmLQh", "width": 1920}], "place_id": "ChIJf02n8lnH9jkRTCqJxv0j_yM", "plus_code": {"compound_code": "RHMM+JW Jangalpur, Jharkhand, India", "global_code": "7MM8RHMM+JW"}, "reference": "ChIJf02n8lnH9jkRTCqJxv0j_yM", "scope": "GOOGLE", "types": ["school", "point_of_interest", "establishment"], "vicinity": "Jangalpur"}, {"business_status": "OPERATIONAL", "geometry": {"location": {"lat": 23.8458787, "lng": 86.58187319999999}, "viewport": {"northeast": {"lat": 23.8472821302915, "lng": 86.58320283029151}, "southwest": {"lat": 23.8445841697085, "lng": 86.58050486970849}}}, "icon": "https://maps.gstatic.com/mapfiles/place_api/icons/v1/png_71/school-71.png", "name": "High School Matiyala", "opening_hours": {"open_now": false}, "place_id": "ChIJt2OJhvnH9jkRHJSemncgrRg", "plus_code": {"compound_code": "RHWJ+9P Metayala, Jharkhand, India", "global_code": "7MM8RHWJ+9P"}, "reference": "ChIJt2OJhvnH9jkRHJSemncgrRg", "scope": "GOOGLE", "types": ["school", "point_of_interest", "establishment"], "vicinity": "Metayala"}, {"business_status": "OPERATIONAL", "geometry": {"location": {"lat": 23.8414663, "lng": 86.5779245}, "viewport": {"northeast": {"lat": 23.8433659302915, "lng": 86.5795991802915}, "southwest": {"lat": 23.8406679697085, "lng": 86.57690121970849}}}, "icon": "https://maps.gstatic.com/mapfiles/place_api/icons/v1/png_71/school-71.png", "name": "Govindpur Matiala", "opening_hours": {"open_now": false}, "photos": [{"height": 4160, "html_attributions": ["<a href=\"https://maps.google.com/maps/contrib/115410087827103456049\">Ajhar Ansari</a>"], "photo_reference": "ATtYBwLERysMJLyUM0D-ytGm8-HEl82yxm3aHvg5Vwy4gMXum0ZFUZk2vSLfnj8C6eka2O73GbLNnMaHUmALlTjGPRMyPqIOT8ZKJRa1CyqKo8mNtJUDuOPSrzOIvQ1D_FcYZ6snheTwyE1M3Qn3GJb566may0338Nv_wuYwuQlFzfExqWcw", "width": 3120}], "place_id": "ChIJnd1aIhO59jkRPTmEBV09ZeM", "plus_code": {"compound_code": "RHRH+H5 Metayala, Jharkhand, India", "global_code": "7MM8RHRH+H5"}, "rating": 5, "reference": "ChIJnd1aIhO59jkRPTmEBV09ZeM", "scope": "GOOGLE", "types": ["school", "point_of_interest", "establishment"], "user_ratings_total": 1, "vicinity": "Metayala"}, {"business_status": "OPERATIONAL", "geometry": {"location": {"lat": 23.8471345, "lng": 86.57864939999999}, "viewport": {"northeast": {"lat": 23.8481640802915, "lng": 86.5805929802915}, "southwest": {"lat": 23.8454661197085, "lng": 86.57789501970849}}}, "icon": "https://maps.gstatic.com/mapfiles/place_api/icons/v1/png_71/school-71.png", "name": "U.U.Middle school Matiyala", "photos": [{"height": 720, "html_attributions": ["<a href=\"https://maps.google.com/maps/contrib/105611749592883479150\">U.U.Middle school Matiyala</a>"], "photo_reference": "ATtYBwKstuqTg0Lj7gBK-ypbRrBuIWWd8g2SECsFkp0U5yDEy6czr6pe9ZxEAwKBxhC4X1eJ3bTKxk4sskLdPyCEaX5VbNsY4Zvfr4LKHOnMyrsUVcsf_j3dZICP9iNo-VU5xWsPEFGxwSRkmwrsKoBLp9ZrEx5SDKXVXwIMyJObPPNY7JLx", "width": 720}], "place_id": "ChIJXacGexe59jkRwczqbu4DP3w", "plus_code": {"compound_code": "RHWH+VF Metayala, Jharkhand, India", "global_code": "7MM8RHWH+VF"}, "rating": 3.7, "reference": "ChIJXacGexe59jkRwczqbu4DP3w", "scope": "GOOGLE", "types": ["school", "point_of_interest", "establishment"], "user_ratings_total": 3, "vicinity": "High.school, Matiala, Metayala"}], "status": "OK"}