{"html_attributions": [], "results": [{"business_status": "OPERATIONAL", "geometry": {"location": {"lat": 23.6603128, "lng": 86.65529339999999}, "viewport": {"northeast": {"lat": 23.6616006802915, "lng": 86.6565834802915}, "southwest": {"lat": 23.6589027197085, "lng": 86.65388551970848}}}, "icon": "https://maps.gstatic.com/mapfiles/place_api/icons/v1/png_71/school-71.png", "name": "Ajmeri Masjid", "photos": [{"height": 4000, "html_attributions": ["<a href=\"https://maps.google.com/maps/contrib/117565210692294132135\">giasuddin ansary</a>"], "photo_reference": "ATtYBwKaCbRMLGRu4gmva43AKij90aouiGpihC8x44jD7YEaQ7nvG3mHnrVOqWJ3lBCyK_QogXGVUOPQ-OLb_TalDJEz7Zr-QHj8lxG06jSt3Bvj6bsmhhIr_EYvGajsJ6_2L6HtLtguzloGuRAKnnZoW24sVZnoQJ2HScwTDGO_y7yLAkPH", "width": 1800}], "place_id": "ChIJgVafusLr9jkRWP-cN6QspX0", "plus_code": {"compound_code": "MM64+44 Lakhyabad, West Bengal, India", "global_code": "7MM8MM64+44"}, "rating": 5, "reference": "ChIJgVafusLr9jkRWP-cN6QspX0", "scope": "GOOGLE", "types": ["school", "point_of_interest", "establishment"], "user_ratings_total": 2, "vicinity": "Lakhyabad"}, {"business_status": "OPERATIONAL", "geometry": {"location": {"lat": 23.6577, "lng": 86.65615609999999}, "viewport": {"northeast": {"lat": 23.6590798302915, "lng": 86.6575707802915}, "southwest": {"lat": 23.6563818697085, "lng": 86.65487281970849}}}, "icon": "https://maps.gstatic.com/mapfiles/place_api/icons/v1/png_71/school-71.png", "name": "Upardih Primary School", "photos": [{"height": 400, "html_attributions": ["<a href=\"https://maps.google.com/maps/contrib/109711771820340733240\">Bishnu Pada</a>"], "photo_reference": "ATtYBwI_NCyJwQCkLYCW9lUBOX1JKqQksEJkz_iSA1zfn-liFhfR5949fpAlnmqXX6p9kXbNBkW2AqgUq91OlbyM04DYzUzPKfDbh1xKMrmv5zqLELxxq7ybOwKaFEhk4KZeLXgKHTf6mLTGIABvv5duR-VGH7j4zYij7Dt5IDrk6NXD5Xhn", "width": 712}], "place_id": "ChIJHY3j52zr9jkRYjDVDXhAmPY", "plus_code": {"compound_code": "MM54+3F Lakhyabad, West Bengal, India", "global_code": "7MM8MM54+3F"}, "rating": 3.5, "reference": "ChIJHY3j52zr9jkRYjDVDXhAmPY", "scope": "GOOGLE", "types": ["school", "point_of_interest", "establishment"], "user_ratings_total": 2, "vicinity": "Lakhyabad"}, {"business_status": "OPERATIONAL", "geometry": {"location": {"lat": 23.6549723, "lng": 86.6618829}, "viewport": {"northeast": {"lat": 23.65641228029151, "lng": 86.66315463029152}, "southwest": {"lat": 23.6537143197085, "lng": 86.66045666970851}}}, "icon": "https://maps.gstatic.com/mapfiles/place_api/icons/v1/png_71/school-71.png", "name": "Bindas Biplab Dance School", "opening_hours": {"open_now": true}, "photos": [{"height": 1080, "html_attributions": ["<a href=\"https://maps.google.com/maps/contrib/118371397870929763217\">Bipad taran Mahato</a>"], "photo_reference": "ATtYBwJxzc5eUxMjiPW5yQJ75IC1rms-G8AJ8fLNA2Zemf9uE8lHEceKBdg4yLrJ4gMUjBLVXO5iBGA-1UTTb1ZU6fIlLePefCPC7Q-IXJStChBjLtngHyhAKpAjnSJL9wXteA_cnBnSGtTz0TdNSprUP8TsS6yqeddrgaHKaTEy4V2kybPK", "width": 1920}], "place_id": "ChIJdfd-V7Xp9jkRV0K7Kg7umCE", "plus_code": {"compound_code": "MM36+XQ Sulanga, West Bengal, India", "global_code": "7MM8MM36+XQ"}, "rating": 5, "reference": "ChIJdfd-V7Xp9jkRV0K7Kg7umCE", "scope": "GOOGLE", "types": ["school", "point_of_interest", "establishment"], "user_ratings_total": 1, "vicinity": "Sulanga"}], "status": "OK"}