{"html_attributions": [], "results": [{"business_status": "OPERATIONAL", "geometry": {"location": {"lat": 23.7919622, "lng": 86.6692928}, "viewport": {"northeast": {"lat": 23.7935977802915, "lng": 86.6711140802915}, "southwest": {"lat": 23.7908998197085, "lng": 86.6684161197085}}}, "icon": "https://maps.gstatic.com/mapfiles/place_api/icons/v1/png_71/school-71.png", "name": "Cambridge International School", "photos": [{"height": 2448, "html_attributions": ["<a href=\"https://maps.google.com/maps/contrib/114472614466481963422\">Md. Gauhar Ali</a>"], "photo_reference": "ATtYBwL24sCFCtRQL83p9D7OrVKqvjkizHvslnIWlTM6lqSAzsd0N0Ot5RrJyAUpxe8OHieer52sTDKh2VP1b5at59y8hqkgofVC4gveVNXeOLFA_C4T0rznjW9dwZrbvDymjKKFBUWFhp_iaSgycbdiDeAZAyQe4DQxhFO0ZS6ElfDQPWae", "width": 3264}], "place_id": "ChIJi4LYcdvD9jkRF1NyE9-PA_I", "plus_code": {"compound_code": "QMR9+QP Dhanbad, Jharkhand, India", "global_code": "7MM8QMR9+QP"}, "rating": 4, "reference": "ChIJi4LYcdvD9jkRF1NyE9-PA_I", "scope": "GOOGLE", "types": ["school", "point_of_interest", "establishment"], "user_ratings_total": 22, "vicinity": "Gopalganj, Nirsa, Dhanbad"}, {"business_status": "OPERATIONAL", "geometry": {"location": {"lat": 23.78241479999999, "lng": 86.6645085}, "viewport": {"northeast": {"lat": 23.7837084802915, "lng": 86.6658417302915}, "southwest": {"lat": 23.7810105197085, "lng": 86.6631437697085}}}, "icon": "https://maps.gstatic.com/mapfiles/place_api/icons/v1/png_71/school-71.png", "name": "PRIMARY SCHOOL BELKUPA,NIRSHA", "place_id": "ChIJtzvB37fD9jkR9aS8e698VIY", "plus_code": {"compound_code": "QMJ7+XR Belkupa, Jharkhand, India", "global_code": "7MM8QMJ7+XR"}, "rating": 5, "reference": "ChIJtzvB37fD9jkR9aS8e698VIY", "scope": "GOOGLE", "types": ["school", "point_of_interest", "establishment"], "user_ratings_total": 1, "vicinity": "Belkupa"}, {"business_status": "OPERATIONAL", "geometry": {"location": {"lat": 23.7723025, "lng": 86.66631}, "viewport": {"northeast": {"lat": 23.7735775802915, "lng": 86.6675932802915}, "southwest": {"lat": 23.7708796197085, "lng": 86.66489531970849}}}, "icon": "https://maps.gstatic.com/mapfiles/place_api/icons/v1/png_71/school-71.png", "name": "Primary School", "photos": [{"height": 1836, "html_attributions": ["<a href=\"https://maps.google.com/maps/contrib/115598246727308378247\">Tapan Gorai</a>"], "photo_reference": "ATtYBwKjU01esjhMDIjDyE-dxYW5kKUuHMQAQ-kSPqEmi50xNG1cbCBexI4iuq25W2Rgxz0sZduWPIXKnxR8-wNfqJ21_hWN9RB1RqT23xmxtOr-8BJ-NxZQOrbRqxDY98xrlpArpk8HfLQ7Xjz3AudDjlJX1gEF_bAX8OzLi9YGREDQ97v5", "width": 3264}], "place_id": "ChIJqccGgSzC9jkRqrTdArRvliU", "plus_code": {"compound_code": "QMC8+WG Jitpur, Jharkhand, India", "global_code": "7MM8QMC8+WG"}, "reference": "ChIJqccGgSzC9jkRqrTdArRvliU", "scope": "GOOGLE", "types": ["school", "point_of_interest", "establishment"], "vicinity": "Jitpur"}, {"business_status": "OPERATIONAL", "geometry": {"location": {"lat": 23.771821, "lng": 86.677013}, "viewport": {"northeast": {"lat": 23.7735144302915, "lng": 86.6786352802915}, "southwest": {"lat": 23.7708164697085, "lng": 86.67593731970848}}}, "icon": "https://maps.gstatic.com/mapfiles/place_api/icons/v1/png_71/school-71.png", "name": "Aangan Badi Kendra 513 Kadam Kanali", "photos": [{"height": 2322, "html_attributions": ["<a href=\"https://maps.google.com/maps/contrib/111633299888170633744\">M K MARANDI</a>"], "photo_reference": "ATtYBwJsz-7MODSOBnMpLN3MOm9Ia8-hC6RDaKSlF3QRMOVb178Ej9LTs4jRUeuXXNHa2YsDpsd_-T7gKdNnrISSzT6HtinPpH2D-mO7SVE76NIZg_itWH3_e0NlNLA1PuWi-OpwoBmb4PFcT_q37SuJSK4uk2HdAqTQ0Et4oK1gD2KU5NPs", "width": 4128}], "place_id": "ChIJEyTWtzLD9jkRJeVZ6JeB3fw", "plus_code": {"compound_code": "QMCG+PR Kadam Kanali, Jharkhand, India", "global_code": "7MM8QMCG+PR"}, "reference": "ChIJEyTWtzLD9jkRJeVZ6JeB3fw", "scope": "GOOGLE", "types": ["school", "point_of_interest", "establishment"], "vicinity": "Kadam Kanali"}, {"business_status": "OPERATIONAL", "geometry": {"location": {"lat": 23.7900744, "lng": 86.6736997}, "viewport": {"northeast": {"lat": 23.79145388029151, "lng": 86.6753927302915}, "southwest": {"lat": 23.7887559197085, "lng": 86.67269476970849}}}, "icon": "https://maps.gstatic.com/mapfiles/place_api/icons/v1/png_71/school-71.png", "name": "PRIMARY SCHOOL GOPALGANJ", "place_id": "ChIJMT73n-DD9jkRHmLoVAYQRI4", "plus_code": {"compound_code": "QMRF+2F Gopalganj, Jharkhand, India", "global_code": "7MM8QMRF+2F"}, "rating": 5, "reference": "ChIJMT73n-DD9jkRHmLoVAYQRI4", "scope": "GOOGLE", "types": ["school", "point_of_interest", "establishment"], "user_ratings_total": 1, "vicinity": "Jharkhand"}, {"business_status": "OPERATIONAL", "geometry": {"location": {"lat": 23.788688, "lng": 86.6772979}, "viewport": {"northeast": {"lat": 23.7898966302915, "lng": 86.6784498302915}, "southwest": {"lat": 23.7871986697085, "lng": 86.67575186970849}}}, "icon": "https://maps.gstatic.com/mapfiles/place_api/icons/v1/png_71/school-71.png", "name": "KGBV NIRSA", "photos": [{"height": 1872, "html_attributions": ["<a href=\"https://maps.google.com/maps/contrib/105968476797803678743\">Ramesh Rajwar</a>"], "photo_reference": "ATtYBwIe83WiW9Y5uNHSbSO2sAWjYQtfdruVQtRWrajb-zyPZ_fjLkjxzJZ1CHQbd17btG0ghirivUzOwc57v0x9VFaVXScatIStVxzUQIk6oYZYK92iRNX4YVdDBu3iKm15O5xGW8H4fVVDUjRYr4gurHM4ZI5RmuApnBvv1hvqxdcy8ylJ", "width": 3328}], "place_id": "ChIJlQMsa8bD9jkR1N2J8CYiglU", "plus_code": {"compound_code": "QMQG+FW Gopalganj, Jharkhand, India", "global_code": "7MM8QMQG+FW"}, "rating": 3.6, "reference": "ChIJlQMsa8bD9jkR1N2J8CYiglU", "scope": "GOOGLE", "types": ["school", "point_of_interest", "establishment"], "user_ratings_total": 7, "vicinity": "Gopalganj"}, {"business_status": "OPERATIONAL", "geometry": {"location": {"lat": 23.788888, "lng": 86.67700959999999}, "viewport": {"northeast": {"lat": 23.7901895302915, "lng": 86.67818163029152}, "southwest": {"lat": 23.7874915697085, "lng": 86.6754836697085}}}, "icon": "https://maps.gstatic.com/mapfiles/place_api/icons/v1/png_71/school-71.png", "name": "Kasturba Gandhi School", "photos": [{"height": 2322, "html_attributions": ["<a href=\"https://maps.google.com/maps/contrib/107577141097340225841\">youtube youtube</a>"], "photo_reference": "ATtYBwLQ8mGWn4b0nUzP5vyMM5Y5u4VmUc1A6LabdMP98QlbCkowRmYBL0jaeJFvITMJf_sPeDR5llEG64YDq58uai_otgJEIdTYU7Tn4VUOAHg-MeQbXEs6Yj5Rjk2fAcWyzOum8xymqDrSCfesNnsMMBGo1Fa7-V3TOYrEQcZ19DaojwRu", "width": 4128}], "place_id": "ChIJOZZSbMbD9jkRgnL5FNqPgTg", "plus_code": {"compound_code": "QMQG+HR Gopalganj, Jharkhand, India", "global_code": "7MM8QMQG+HR"}, "rating": 4.5, "reference": "ChIJOZZSbMbD9jkRgnL5FNqPgTg", "scope": "GOOGLE", "types": ["school", "point_of_interest", "establishment"], "user_ratings_total": 2, "vicinity": "Gopalganj"}, {"business_status": "OPERATIONAL", "geometry": {"location": {"lat": 23.773746, "lng": 86.6596076}, "viewport": {"northeast": {"lat": 23.7750437302915, "lng": 86.66100813029149}, "southwest": {"lat": 23.7723457697085, "lng": 86.65831016970849}}}, "icon": "https://maps.gstatic.com/mapfiles/place_api/icons/v1/png_71/school-71.png", "name": "Primary school", "photos": [{"height": 1440, "html_attributions": ["<a href=\"https://maps.google.com/maps/contrib/115864851204334764403\">Meghnath Modi</a>"], "photo_reference": "ATtYBwLZJRrof64qSRqprC4N8UULyN9oR1IYoNOeo3rukazMGQhc5RhYj549_uSxccMTbH3V5-mklFzn-JDG9sFQdpO4ulYq28upAWZa_JtHCNZzte-zq6RgGfqVgdvbWYxeTPE7gWGFIJkXBt97vW9J37kCboG8HLzL1vscALkb7W7uWti-", "width": 2560}], "place_id": "ChIJ6cy9PoDB9jkRUxTklPkQBYs", "plus_code": {"compound_code": "QMF5+FR Jhirka, Jharkhand, India", "global_code": "7MM8QMF5+FR"}, "rating": 5, "reference": "ChIJ6cy9PoDB9jkRUxTklPkQBYs", "scope": "GOOGLE", "types": ["school", "point_of_interest", "establishment"], "user_ratings_total": 3, "vicinity": "Jhirka"}, {"business_status": "OPERATIONAL", "geometry": {"location": {"lat": 23.773746, "lng": 86.6596076}, "viewport": {"northeast": {"lat": 23.7750437302915, "lng": 86.66100813029149}, "southwest": {"lat": 23.7723457697085, "lng": 86.65831016970849}}}, "icon": "https://maps.gstatic.com/mapfiles/place_api/icons/v1/png_71/school-71.png", "name": "Primary School Jhirka", "place_id": "ChIJKYItwanB9jkRKgw_0UEd1sk", "plus_code": {"compound_code": "QMF5+FR Jhirka, Jharkhand, India", "global_code": "7MM8QMF5+FR"}, "reference": "ChIJKYItwanB9jkRKgw_0UEd1sk", "scope": "GOOGLE", "types": ["school", "point_of_interest", "establishment"], "vicinity": "Jhirka"}, {"business_status": "OPERATIONAL", "geometry": {"location": {"lat": 23.7920857, "lng": 86.67326349999999}, "viewport": {"northeast": {"lat": 23.7935467302915, "lng": 86.67445963029151}, "southwest": {"lat": 23.7908487697085, "lng": 86.6717616697085}}}, "icon": "https://maps.gstatic.com/mapfiles/place_api/icons/v1/png_71/school-71.png", "name": "DHANBA POLYTECHNIC COLLEGE", "photos": [{"height": 524, "html_attributions": ["<a href=\"https://maps.google.com/maps/contrib/109119620061926411883\">Sapan Tudu</a>"], "photo_reference": "ATtYBwLRH9F-7fBWkPgs4rZ2dJwYYhpFUkkKFkwYuGedbwUVFxcCx1jLZkDvBYnhn428OUzH1lEKsvFodjirAi_jwsukBGsrGlBQQx086h0GvLHi-xCOLaP2PQGelEODbigzLoIkF_26volrc9XYiVmtppwv4aTqLte_px_2Fr3rdIo3QoM9", "width": 524}], "place_id": "ChIJv6b8jsTD9jkRFpAOLfr8UQ8", "plus_code": {"compound_code": "QMRF+R8 Gopalganj, Jharkhand, India", "global_code": "7MM8QMRF+R8"}, "rating": 3, "reference": "ChIJv6b8jsTD9jkRFpAOLfr8UQ8", "scope": "GOOGLE", "types": ["school", "point_of_interest", "establishment"], "user_ratings_total": 1, "vicinity": "Gopalganj"}], "status": "OK"}