{"html_attributions": [], "results": [{"business_status": "OPERATIONAL", "geometry": {"location": {"lat": 23.6780002, "lng": 86.7112087}, "viewport": {"northeast": {"lat": 23.6793055302915, "lng": 86.71256008029151}, "southwest": {"lat": 23.67660756970849, "lng": 86.7098621197085}}}, "icon": "https://maps.gstatic.com/mapfiles/place_api/icons/v1/png_71/school-71.png", "name": "Bhurkundabari (I.C.D.S) Sentar", "place_id": "ChIJXyjVzRrp9jkR3HmULRllBh0", "plus_code": {"compound_code": "MPH6+6F Bhurkunrabari, West Bengal, India", "global_code": "7MM8MPH6+6F"}, "reference": "ChIJXyjVzRrp9jkR3HmULRllBh0", "scope": "GOOGLE", "types": ["school", "point_of_interest", "establishment"], "vicinity": "Bhurkunrabari"}, {"business_status": "OPERATIONAL", "geometry": {"location": {"lat": 23.6802226, "lng": 86.7045552}, "viewport": {"northeast": {"lat": 23.6815641802915, "lng": 86.70589423029149}, "southwest": {"lat": 23.6788662197085, "lng": 86.70319626970849}}}, "icon": "https://maps.gstatic.com/mapfiles/place_api/icons/v1/png_71/school-71.png", "name": "ICDS MALANCHA", "place_id": "ChIJW1cWWhLp9jkRWrQmiKos38w", "plus_code": {"compound_code": "MPJ3+3R Malancha, West Bengal, India", "global_code": "7MM8MPJ3+3R"}, "reference": "ChIJW1cWWhLp9jkRWrQmiKos38w", "scope": "GOOGLE", "types": ["school", "point_of_interest", "establishment"], "vicinity": "Unnamed Road"}, {"business_status": "OPERATIONAL", "geometry": {"location": {"lat": 23.6804357, "lng": 86.7027008}, "viewport": {"northeast": {"lat": 23.68126148029151, "lng": 86.7045298302915}, "southwest": {"lat": 23.6785635197085, "lng": 86.7018318697085}}}, "icon": "https://maps.gstatic.com/mapfiles/place_api/icons/v1/png_71/school-71.png", "name": "Primary School Malancha", "place_id": "ChIJ18uXR2Dp9jkR_V5zIenzCh0", "plus_code": {"compound_code": "MPJ3+53 Malancha, West Bengal, India", "global_code": "7MM8MPJ3+53"}, "rating": 4, "reference": "ChIJ18uXR2Dp9jkR_V5zIenzCh0", "scope": "GOOGLE", "types": ["school", "point_of_interest", "establishment"], "user_ratings_total": 1, "vicinity": "Unnamed Road"}, {"business_status": "OPERATIONAL", "geometry": {"location": {"lat": 23.6843529, "lng": 86.7174134}, "viewport": {"northeast": {"lat": 23.6856474802915, "lng": 86.71883933029152}, "southwest": {"lat": 23.6829495197085, "lng": 86.7161413697085}}}, "icon": "https://maps.gstatic.com/mapfiles/place_api/icons/v1/png_71/school-71.png", "name": "Primary School Ghatkul", "place_id": "ChIJEyugCQHp9jkRIiDBNA6X6kc", "plus_code": {"compound_code": "MPM8+PX Ghatkul, West Bengal, India", "global_code": "7MM8MPM8+PX"}, "reference": "ChIJEyugCQHp9jkRIiDBNA6X6kc", "scope": "GOOGLE", "types": ["school", "point_of_interest", "establishment"], "vicinity": "Ghatkul"}, {"business_status": "OPERATIONAL", "geometry": {"location": {"lat": 23.6721977, "lng": 86.717871}, "viewport": {"northeast": {"lat": 23.6735015802915, "lng": 86.7191760302915}, "southwest": {"lat": 23.6708036197085, "lng": 86.71647806970849}}}, "icon": "https://maps.gstatic.com/mapfiles/place_api/icons/v1/png_71/school-71.png", "name": "Bhurkundabari Pry School", "opening_hours": {"open_now": true}, "photos": [{"height": 1152, "html_attributions": ["<a href=\"https://maps.google.com/maps/contrib/117800424986723885614\">PRABIR MANDAL</a>"], "photo_reference": "ATtYBwJ1O7wafbZRnc2uRf_9WVRjcwvzfuiz--6MSE_L3xJY9-JOscph_u2L4hMEDDl3Wb0fLZFZV6SFvcQZ4lYzb-55HCtyHCvu2KK4iY0l2AaIvPUqNiUT3wPGL1INs_wWj_iQ99mg8KfMaoeuGUyDkWhYzpihB4EE2Gsn5i_p2pv62bLf", "width": 2048}], "place_id": "ChIJtQtnLGbp9jkRdCsCBzVggos", "plus_code": {"compound_code": "MPC9+V4 Bhurkunrabari, West Bengal, India", "global_code": "7MM8MPC9+V4"}, "rating": 4.7, "reference": "ChIJtQtnLGbp9jkRdCsCBzVggos", "scope": "GOOGLE", "types": ["school", "point_of_interest", "establishment"], "user_ratings_total": 3, "vicinity": "Bhurkunrabari"}, {"business_status": "OPERATIONAL", "geometry": {"location": {"lat": 23.6735551, "lng": 86.7008164}, "viewport": {"northeast": {"lat": 23.6748557802915, "lng": 86.7021076802915}, "southwest": {"lat": 23.6721578197085, "lng": 86.69940971970848}}}, "icon": "https://maps.gstatic.com/mapfiles/place_api/icons/v1/png_71/school-71.png", "name": "Primary School Kalipather Neturia Purulia Wb", "place_id": "ChIJF9gufPTp9jkR0giaaXvoIvw", "plus_code": {"compound_code": "MPF2+C8 Kalipathar, West Bengal, India", "global_code": "7MM8MPF2+C8"}, "reference": "ChIJF9gufPTp9jkR0giaaXvoIvw", "scope": "GOOGLE", "types": ["school", "point_of_interest", "establishment"], "vicinity": "Unnamed Road, Kalipathar"}, {"business_status": "OPERATIONAL", "geometry": {"location": {"lat": 23.6720498, "lng": 86.717911}, "viewport": {"northeast": {"lat": 23.6733961802915, "lng": 86.7192574802915}, "southwest": {"lat": 23.67069821970849, "lng": 86.7165595197085}}}, "icon": "https://maps.gstatic.com/mapfiles/place_api/icons/v1/png_71/school-71.png", "name": "\u30c4ZOM \u300e\u026e\u300f", "place_id": "ChIJ5akJdqjp9jkR5qHSKEWayfg", "plus_code": {"compound_code": "MPC9+R5 Bhurkunrabari, West Bengal, India", "global_code": "7MM8MPC9+R5"}, "reference": "ChIJ5akJdqjp9jkR5qHSKEWayfg", "scope": "GOOGLE", "types": ["school", "point_of_interest", "establishment"], "vicinity": "Unnamed Road, Bhurkunrabari"}], "status": "OK"}