{"html_attributions": [], "results": [{"business_status": "OPERATIONAL", "geometry": {"location": {"lat": 24.0405704, "lng": 86.71900199999999}, "viewport": {"northeast": {"lat": 24.0419984302915, "lng": 86.7204115802915}, "southwest": {"lat": 24.0393004697085, "lng": 86.71771361970849}}}, "icon": "https://maps.gstatic.com/mapfiles/place_api/icons/v1/png_71/school-71.png", "name": "YOGKRATE", "place_id": "ChIJHXEAucbN9jkRjTZmP7tdFPo", "plus_code": {"compound_code": "2PR9+6J Mattanr, Jharkhand, India", "global_code": "7MP82PR9+6J"}, "reference": "ChIJHXEAucbN9jkRjTZmP7tdFPo", "scope": "GOOGLE", "types": ["school", "point_of_interest", "establishment"], "vicinity": "near SHIVMANDIR, \u092e\u0924\u094d\u0924\u093e\u0928\u094d\u0930"}, {"business_status": "CLOSED_TEMPORARILY", "geometry": {"location": {"lat": 24.0405704, "lng": 86.71900199999999}, "viewport": {"northeast": {"lat": 24.0419984302915, "lng": 86.7204115802915}, "southwest": {"lat": 24.0393004697085, "lng": 86.71771361970849}}}, "icon": "https://maps.gstatic.com/mapfiles/place_api/icons/v1/png_71/school-71.png", "name": "Guitar guru", "permanently_closed": true, "photos": [{"height": 381, "html_attributions": ["<a href=\"https://maps.google.com/maps/contrib/112897427136329478017\">Guitar guru</a>"], "photo_reference": "ATtYBwLV_SwPMpdTrlIuIu7hCzk2dVfEMCrj2nx4eXcr0wk-P12S-m74-PWj9I0y7iDFtlDRFzeQP7wTQ_GCS0AEEWfahXQLGnD5WbsPguLFc7gpjQOVIGj43y5IXCWe-ajfp9v16QOjB1EZOBAqSKCHhji1EYN-bYqpvF3xqBekaSYLJgbu", "width": 678}], "place_id": "ChIJ9-ro2SvN9jkRfDcBatKlQJE", "plus_code": {"compound_code": "2PR9+6J Karmatar, Jharkhand, India", "global_code": "7MP82PR9+6J"}, "reference": "ChIJ9-ro2SvN9jkRfDcBatKlQJE", "scope": "GOOGLE", "types": ["school", "point_of_interest", "establishment"], "vicinity": "Post deulwari, Near shiv mandir mattanr, Karmatar"}, {"business_status": "OPERATIONAL", "geometry": {"location": {"lat": 24.0305101, "lng": 86.7155755}, "viewport": {"northeast": {"lat": 24.0318404802915, "lng": 86.7169789802915}, "southwest": {"lat": 24.0291425197085, "lng": 86.7142810197085}}}, "icon": "https://maps.gstatic.com/mapfiles/place_api/icons/v1/png_71/school-71.png", "name": "Shishu Coaching Centre Dudhani", "photos": [{"height": 3264, "html_attributions": ["<a href=\"https://maps.google.com/maps/contrib/109211994049650327323\">Harikishor Mandal</a>"], "photo_reference": "ATtYBwJaZ-EKRrL1zIhQs_rE3MvFQK4gFnqOnYIthd55_4Is8jDJGzG5P-FqehnC_ciqBnfNRkXuTWTDi8E5NSgTte3nS0FzNTHV7ubSjgi23GxALtRab6hQ86usB5ZrbCXxPDFq8epCB2oy2_PyajVisc_NirmRnL6Li-igmJICyM0zuXb2", "width": 1504}], "place_id": "ChIJl_V8EcTN9jkRFYYYc3M39Ws", "plus_code": {"compound_code": "2PJ8+66 Deolbari, Jharkhand, India", "global_code": "7MP82PJ8+66"}, "reference": "ChIJl_V8EcTN9jkRFYYYc3M39Ws", "scope": "GOOGLE", "types": ["school", "point_of_interest", "establishment"], "vicinity": "Irb Camp Dudhani Road Pabiyajharkhand"}, {"business_status": "OPERATIONAL", "geometry": {"location": {"lat": 24.0274495, "lng": 86.7090564}, "viewport": {"northeast": {"lat": 24.0287585802915, "lng": 86.71056673029152}, "southwest": {"lat": 24.0260606197085, "lng": 86.7078687697085}}}, "icon": "https://maps.gstatic.com/mapfiles/place_api/icons/v1/png_71/school-71.png", "name": "IRB 01 JAMTARA TRAINING CENTER", "photos": [{"height": 1080, "html_attributions": ["<a href=\"https://maps.google.com/maps/contrib/103149411036257008607\">RK SAKSENA</a>"], "photo_reference": "ATtYBwJJJWSqm92WHftIAHGlywWXKjT96tLlY6g1zWZPs2DtDtDGhs2WZO498FaDHboxzCZKkJkVb33dTFHh7n9EVQPmKAhFey38U1Xr2wfs9KnUlK54kjlOOYWltwyRi8ZuVtlyZJBhhyr4avSVV4su9cM1VUnVW6Ru5eB5CjMqh1_Hn4LR", "width": 1920}], "place_id": "ChIJdTivUlnN9jkRROZzo5lEZ-c", "plus_code": {"compound_code": "2PG5+XJ Jhilua, Jharkhand, India", "global_code": "7MP82PG5+XJ"}, "rating": 5, "reference": "ChIJdTivUlnN9jkRROZzo5lEZ-c", "scope": "GOOGLE", "types": ["school", "point_of_interest", "establishment"], "user_ratings_total": 3, "vicinity": "Jhilua"}], "status": "OK"}