{"html_attributions": [], "next_page_token": "ATtYBwJZKyv7Tr24soQOlEo7gsckWjFvcuYlnRZo5VQJN-8rVX3B1EmSVOCI7FEoASywAv2EN9T8fhFeWC31QjH3pWDUw3zG80mwj3jrA33U6uVsFuS28Rj3u_fwctkImn751SNTrfGH2DnLCUSEziQ-1IJgElJUZbLmobA_Fj8St_ECsvLl-KqXUZob-pOUgdSlyaLphSRDtYmbZssFf_oI7CCG0tsTcRHctkEmhSgR6itiEwbmuEJa1JqfQ1UsAFZEtr0PKrqYZVk1PuzHkK_TVxlTzm9W18PLwKPKVxdIUUFofS5HMPG19JErCmz9071350fJJSS8yUuIWWsTT9vEgSBeHhZ--XbNCihYyY4InUsQygaWxpZU0QHSPWR0aRGPZ-bkryQVgJDU_VIZnuPGusSAJJlK8kiRzVlAxrfrpSfzgGbSTv4", "results": [{"business_status": "OPERATIONAL", "geometry": {"location": {"lat": 23.797375, "lng": 86.33353199999999}, "viewport": {"northeast": {"lat": 23.7986899802915, "lng": 86.3348778302915}, "southwest": {"lat": 23.7959920197085, "lng": 86.3321798697085}}}, "icon": "https://maps.gstatic.com/mapfiles/place_api/icons/v1/png_71/school-71.png", "name": "Merry Land Gyan Mandir, Nursery School", "opening_hours": {"open_now": false}, "photos": [{"height": 780, "html_attributions": ["<a href=\"https://maps.google.com/maps/contrib/102414541667824013727\">Merry Land Gyan Mandir, Nursery School</a>"], "photo_reference": "ATtYBwISS5_tR2US3XJo7FcengtlYN9cDKhL5Cjqjii8qVNdcwrwb-5m4toNfjcc3mh4NMFXqusbOIS-sD8aeozzGfCLiusxSM9H-1_56FrC0sgs3fTw6ktELTFjNeKw8tQPvY3Oqxdm4CEnOseDwhQDmZ9Dt60q8hA3OqA5CTliKNmM5t40", "width": 1040}], "place_id": "ChIJJZJyS1mh9jkRPf2U-pWpBGc", "plus_code": {"compound_code": "Q8WM+XC Dhanbad, Jharkhand, India", "global_code": "7MM8Q8WM+XC"}, "rating": 4.9, "reference": "ChIJJZJyS1mh9jkRPf2U-pWpBGc", "scope": "GOOGLE", "types": ["school", "point_of_interest", "establishment"], "user_ratings_total": 11, "vicinity": "near DeNobili School, Dhanbad, Jharkhand, near DeNobili School, Dhanbad"}, {"business_status": "OPERATIONAL", "geometry": {"location": {"lat": 23.8040487, "lng": 86.3346792}, "viewport": {"northeast": {"lat": 23.8053307302915, "lng": 86.3361071302915}, "southwest": {"lat": 23.8026327697085, "lng": 86.33340916970849}}}, "icon": "https://maps.gstatic.com/mapfiles/place_api/icons/v1/png_71/school-71.png", "name": "Rajkamal School", "place_id": "ChIJeQmLcFeh9jkRAI5A6NwI2aE", "plus_code": {"compound_code": "R83M+JV Chandaur, Jharkhand, India", "global_code": "7MM8R83M+JV"}, "rating": 4, "reference": "ChIJeQmLcFeh9jkRAI5A6NwI2aE", "scope": "GOOGLE", "types": ["school", "point_of_interest", "establishment"], "user_ratings_total": 5, "vicinity": "Chandaur"}, {"business_status": "OPERATIONAL", "geometry": {"location": {"lat": 23.8011162, "lng": 86.3314822}, "viewport": {"northeast": {"lat": 23.8024758802915, "lng": 86.33286358029152}, "southwest": {"lat": 23.7997779197085, "lng": 86.3301656197085}}}, "icon": "https://maps.gstatic.com/mapfiles/place_api/icons/v1/png_71/school-71.png", "name": "Dhanbad st Xavier school Tetulmari", "opening_hours": {"open_now": true}, "photos": [{"height": 720, "html_attributions": ["<a href=\"https://maps.google.com/maps/contrib/104359459692308852885\">DILIP SIR</a>"], "photo_reference": "ATtYBwJourhGmgTClSqGkVF5CSYtpN1u_qk-pUIYeO7MvEvZPoPcDAdnDNLc9I8dj5sfv_ZLkigixz7p2BsTM2ydJYzm_xreIFIUii1djd5KFjmoz1S1RnWE98NQp0D4Y-G5vMhy0IaAGXWw1dEiSMPXJUdZJG3RITmuCIRoV3W6VoV6vY41", "width": 1280}], "place_id": "ChIJ96Ivzdyh9jkRj-4Z6tIQjGQ", "plus_code": {"compound_code": "R82J+CH Dhanbad, Jharkhand, India", "global_code": "7MM8R82J+CH"}, "rating": 4.1, "reference": "ChIJ96Ivzdyh9jkRj-4Z6tIQjGQ", "scope": "GOOGLE", "types": ["school", "point_of_interest", "establishment"], "user_ratings_total": 12, "vicinity": "Tetulmari near chandor bandh, Dhanbad"}, {"business_status": "OPERATIONAL", "geometry": {"location": {"lat": 23.7952019, "lng": 86.32671839999999}, "viewport": {"northeast": {"lat": 23.79641868029151, "lng": 86.3281989302915}, "southwest": {"lat": 23.7937207197085, "lng": 86.3255009697085}}}, "icon": "https://maps.gstatic.com/mapfiles/place_api/icons/v1/png_71/school-71.png", "name": "G.S.H.School Sijua", "place_id": "ChIJzZjRO0Oh9jkRStYxhjTLPXA", "plus_code": {"compound_code": "Q8WG+3M Dhanbad, Jharkhand, India", "global_code": "7MM8Q8WG+3M"}, "rating": 4.7, "reference": "ChIJzZjRO0Oh9jkRStYxhjTLPXA", "scope": "GOOGLE", "types": ["school", "point_of_interest", "establishment"], "user_ratings_total": 3, "vicinity": "Dhanbad"}, {"business_status": "OPERATIONAL", "geometry": {"location": {"lat": 23.7957694, "lng": 86.3256687}, "viewport": {"northeast": {"lat": 23.7971120802915, "lng": 86.32701133029153}, "southwest": {"lat": 23.7944141197085, "lng": 86.3243133697085}}}, "icon": "https://maps.gstatic.com/mapfiles/place_api/icons/v1/png_71/school-71.png", "name": "B IJETA", "place_id": "ChIJ2U9auMOh9jkRbX4Pu96X_S8", "plus_code": {"compound_code": "Q8WG+87 Kantapahari, Jharkhand, India", "global_code": "7MM8Q8WG+87"}, "reference": "ChIJ2U9auMOh9jkRbX4Pu96X_S8", "scope": "GOOGLE", "types": ["school", "point_of_interest", "establishment"], "vicinity": "Dhanbad Road, Kantapahari"}, {"business_status": "OPERATIONAL", "geometry": {"location": {"lat": 23.7931824, "lng": 86.33110219999999}, "viewport": {"northeast": {"lat": 23.7945469802915, "lng": 86.33249638029149}, "southwest": {"lat": 23.7918490197085, "lng": 86.32979841970848}}}, "icon": "https://maps.gstatic.com/mapfiles/place_api/icons/v1/png_71/school-71.png", "name": "Madhya Vidyalay Sijua Urdu", "place_id": "ChIJsfSRjr6h9jkRncC6zGt45l8", "plus_code": {"compound_code": "Q8VJ+7C Chandaur, Jharkhand, India", "global_code": "7MM8Q8VJ+7C"}, "rating": 3, "reference": "ChIJsfSRjr6h9jkRncC6zGt45l8", "scope": "GOOGLE", "types": ["school", "point_of_interest", "establishment"], "user_ratings_total": 1, "vicinity": "Unnamed Road"}, {"business_status": "OPERATIONAL", "geometry": {"location": {"lat": 23.7929124, "lng": 86.3276532}, "viewport": {"northeast": {"lat": 23.7942791802915, "lng": 86.3290846802915}, "southwest": {"lat": 23.7915812197085, "lng": 86.3263867197085}}}, "icon": "https://maps.gstatic.com/mapfiles/place_api/icons/v1/png_71/school-71.png", "name": "Balika uchcha vidyalaya & Progressives Public School", "place_id": "ChIJAQYF7bGh9jkRQTPBY8YtqRE", "plus_code": {"compound_code": "Q8VH+53 Sijua, Jharkhand, India", "global_code": "7MM8Q8VH+53"}, "reference": "ChIJAQYF7bGh9jkRQTPBY8YtqRE", "scope": "GOOGLE", "types": ["school", "point_of_interest", "establishment"], "vicinity": "stadium, p.o, beside sijua, Sijua"}, {"business_status": "OPERATIONAL", "geometry": {"location": {"lat": 23.791546, "lng": 86.33214919999999}, "viewport": {"northeast": {"lat": 23.7931291802915, "lng": 86.33329663029149}, "southwest": {"lat": 23.7904312197085, "lng": 86.33059866970848}}}, "icon": "https://maps.gstatic.com/mapfiles/place_api/icons/v1/png_71/school-71.png", "name": "ssnmsvt high school", "place_id": "ChIJxYgL-V2h9jkRwlFXY2allUw", "plus_code": {"compound_code": "Q8RJ+JV Dhanbad, Jharkhand, India", "global_code": "7MM8Q8RJ+JV"}, "reference": "ChIJxYgL-V2h9jkRwlFXY2allUw", "scope": "GOOGLE", "types": ["school", "point_of_interest", "establishment"], "vicinity": "Dhanbad"}, {"business_status": "OPERATIONAL", "geometry": {"location": {"lat": 23.8095293, "lng": 86.33058179999999}, "viewport": {"northeast": {"lat": 23.8108784802915, "lng": 86.3319313802915}, "southwest": {"lat": 23.8081805197085, "lng": 86.32923341970849}}}, "icon": "https://maps.gstatic.com/mapfiles/place_api/icons/v1/png_71/school-71.png", "name": "Prathmik vidyalay dalahitand", "opening_hours": {"open_now": false}, "place_id": "ChIJ8QNA6c-h9jkRKiv2BND_K4E", "plus_code": {"compound_code": "R85J+R6 Nagri Kalan, Jharkhand, India", "global_code": "7MM8R85J+R6"}, "reference": "ChIJ8QNA6c-h9jkRKiv2BND_K4E", "scope": "GOOGLE", "types": ["school", "point_of_interest", "establishment"], "vicinity": "Nagri Kalan"}, {"business_status": "OPERATIONAL", "geometry": {"location": {"lat": 23.7902757, "lng": 86.329813}, "viewport": {"northeast": {"lat": 23.7916781302915, "lng": 86.33109503029151}, "southwest": {"lat": 23.7889801697085, "lng": 86.32839706970849}}}, "icon": "https://maps.gstatic.com/mapfiles/place_api/icons/v1/png_71/school-71.png", "name": "Shahid Shakti Nath Mahato Smarak Vidhyalaya", "opening_hours": {"open_now": true}, "photos": [{"height": 611, "html_attributions": ["<a href=\"https://maps.google.com/maps/contrib/104042630733526587103\">Our One India</a>"], "photo_reference": "ATtYBwKFE9zYqOIU5Q9IXdrLKNnJPWBonpmobyo4zTGLm8PMmheOIEgLmlxtnoUGHma8gBEHYBfmmAdJq7v8MTDD80HUOVkox2KjFjnq_uirUHGGaNrdcAPqvIVP6jr8AhE_lwKIs0FvXHR2wO1j8eyQ_OCCnfbKcZIaiD_xwhJYZPYhQ5sp", "width": 720}], "place_id": "ChIJ__9jnGeh9jkR4ECaxcdbPPM", "plus_code": {"compound_code": "Q8RH+4W Belatand, Jharkhand, India", "global_code": "7MM8Q8RH+4W"}, "rating": 3.4, "reference": "ChIJ__9jnGeh9jkR4ECaxcdbPPM", "scope": "GOOGLE", "types": ["school", "point_of_interest", "establishment"], "user_ratings_total": 9, "vicinity": "P.O. 828103, Dhanbad Road, Belatand"}, {"business_status": "OPERATIONAL", "geometry": {"location": {"lat": 23.8064607, "lng": 86.3382141}, "viewport": {"northeast": {"lat": 23.8078103302915, "lng": 86.3395619302915}, "southwest": {"lat": 23.8051123697085, "lng": 86.33686396970849}}}, "icon": "https://maps.gstatic.com/mapfiles/place_api/icons/v1/png_71/school-71.png", "name": "Ramjanam Classes Tetulmari RJC", "opening_hours": {"open_now": true}, "photos": [{"height": 480, "html_attributions": ["<a href=\"https://maps.google.com/maps/contrib/111708768493030087526\">Devendra Yadav</a>"], "photo_reference": "ATtYBwLCCiWA-fecgxqy8VDHN3k_k9-dVAlMcl9rXxV-V7_8rM3lHy2b7YPE-loAh0pSazt8QEJCtu0Yct1gKWUg-MQKlMgf4b86XK69OJCV1CmIGW3PGUFgsNlrUPsugidFgbceRRTRo9VNBRBC4Iw9HyVleDlZeS6_d4eEuo_-qp5nICtl", "width": 720}], "place_id": "ChIJg6i9kP-j9jkRRdk29kISfnw", "plus_code": {"compound_code": "R84Q+H7 Chandaur, Jharkhand, India", "global_code": "7MM8R84Q+H7"}, "rating": 5, "reference": "ChIJg6i9kP-j9jkRRdk29kISfnw", "scope": "GOOGLE", "types": ["school", "point_of_interest", "establishment"], "user_ratings_total": 1, "vicinity": "Tetulmari Road, Chandaur"}, {"business_status": "OPERATIONAL", "geometry": {"location": {"lat": 23.8063923, "lng": 86.338382}, "viewport": {"northeast": {"lat": 23.8077763302915, "lng": 86.3396668302915}, "southwest": {"lat": 23.8050783697085, "lng": 86.3369688697085}}}, "icon": "https://maps.gstatic.com/mapfiles/place_api/icons/v1/png_71/school-71.png", "name": "NAYAN TECHNICAL CLASSES", "opening_hours": {"open_now": true}, "photos": [{"height": 1280, "html_attributions": ["<a href=\"https://maps.google.com/maps/contrib/117500997573109287463\">Sandeep Soni</a>"], "photo_reference": "ATtYBwIwGP_4Htkv9eX16skgVcWQh-swEm9smfZ8rLHOwS9yf2s1pIWeoFWv-pyv5iMobzeqrcIKbKZUmqbXlC0C2DQWDUkGxj9aNEeUbqX6I1lJYrpVNOuSCRSSHAax8RFWJNt4btYIB4iQ6KqbIZSWzrEa9xAgYVJODWQSqGmo192vZck", "width": 960}], "place_id": "ChIJIWg-nf2j9jkR-sfcBTSsJn4", "plus_code": {"compound_code": "R84Q+H9 Chandaur, Jharkhand, India", "global_code": "7MM8R84Q+H9"}, "rating": 5, "reference": "ChIJIWg-nf2j9jkR-sfcBTSsJn4", "scope": "GOOGLE", "types": ["school", "point_of_interest", "establishment"], "user_ratings_total": 3, "vicinity": "Chandaur"}, {"business_status": "OPERATIONAL", "geometry": {"location": {"lat": 23.8086935, "lng": 86.33609779999999}, "viewport": {"northeast": {"lat": 23.8101326802915, "lng": 86.3375862802915}, "southwest": {"lat": 23.8074347197085, "lng": 86.3348883197085}}}, "icon": "https://maps.gstatic.com/mapfiles/place_api/icons/v1/png_71/school-71.png", "name": "Saraswati Shishu Mandir , Tetulmari", "photos": [{"height": 1920, "html_attributions": ["<a href=\"https://maps.google.com/maps/contrib/113019439657474887380\">Shivam Upadhyay</a>"], "photo_reference": "ATtYBwI7fBozPLngvEmFEs115KEcN36L3rjQvj839IVdb_KZsWKffTO1tDoiyCDvGnl10ln69_8Niebpn4ESX_slOiZQLf8u1GqSSHdHfDZd1FNQ_0URd7vN2VDTuz_wOvy7QkRMZFmB3uqvov-N4GDgKNKMygHQUlL4uSrEexo8A2iq06w", "width": 4160}], "place_id": "ChIJTz_Yc1ah9jkRDGk2K8jdZAM", "plus_code": {"compound_code": "R85P+FC Nagri Kalan, Jharkhand, India", "global_code": "7MM8R85P+FC"}, "rating": 4.6, "reference": "ChIJTz_Yc1ah9jkRDGk2K8jdZAM", "scope": "GOOGLE", "types": ["school", "point_of_interest", "establishment"], "user_ratings_total": 9, "vicinity": "Nagri Kalan"}, {"business_status": "OPERATIONAL", "geometry": {"location": {"lat": 23.8103152, "lng": 86.32761459999999}, "viewport": {"northeast": {"lat": 23.8116972302915, "lng": 86.3289836302915}, "southwest": {"lat": 23.8089992697085, "lng": 86.32628566970848}}}, "icon": "https://maps.gstatic.com/mapfiles/place_api/icons/v1/png_71/school-71.png", "name": "Bajrang Bali Mandir W. M. C", "place_id": "ChIJ07kF6qCh9jkRGSmE-pPbrko", "plus_code": {"compound_code": "R86H+42 Bhuianbhaga, Jharkhand, India", "global_code": "7MM8R86H+42"}, "reference": "ChIJ07kF6qCh9jkRGSmE-pPbrko", "scope": "GOOGLE", "types": ["school", "point_of_interest", "establishment"], "vicinity": "Unnamed Road"}, {"business_status": "OPERATIONAL", "geometry": {"location": {"lat": 23.808318, "lng": 86.338151}, "viewport": {"northeast": {"lat": 23.8096807302915, "lng": 86.3394687302915}, "southwest": {"lat": 23.8069827697085, "lng": 86.3367707697085}}}, "icon": "https://maps.gstatic.com/mapfiles/place_api/icons/v1/png_71/school-71.png", "name": "Saraswati Mandir School Tetulmari", "opening_hours": {"open_now": false}, "place_id": "ChIJWQAA8f2j9jkRz9OCFyZ_sOw", "plus_code": {"compound_code": "R85Q+87 Nagri Kalan, Jharkhand, India", "global_code": "7MM8R85Q+87"}, "rating": 5, "reference": "ChIJWQAA8f2j9jkRz9OCFyZ_sOw", "scope": "GOOGLE", "types": ["school", "point_of_interest", "establishment"], "user_ratings_total": 2, "vicinity": "Unnamed Road,, Nagri Kalan"}, {"business_status": "OPERATIONAL", "geometry": {"location": {"lat": 23.8083214, "lng": 86.33848189999999}, "viewport": {"northeast": {"lat": 23.8096296302915, "lng": 86.33990373029151}, "southwest": {"lat": 23.8069316697085, "lng": 86.3372057697085}}}, "icon": "https://maps.gstatic.com/mapfiles/place_api/icons/v1/png_71/school-71.png", "name": "LITTLE PLANET SCHOOL", "place_id": "ChIJjxttQ8qj9jkRa8ilDVjCrk8", "plus_code": {"compound_code": "R85Q+89 Nagri Kalan, Jharkhand, India", "global_code": "7MM8R85Q+89"}, "reference": "ChIJjxttQ8qj9jkRa8ilDVjCrk8", "scope": "GOOGLE", "types": ["school", "point_of_interest", "establishment"], "vicinity": "Unnamed Road, Nagri Kalan"}, {"business_status": "OPERATIONAL", "geometry": {"location": {"lat": 23.8085269, "lng": 86.3383099}, "viewport": {"northeast": {"lat": 23.8099438802915, "lng": 86.3397078802915}, "southwest": {"lat": 23.8072459197085, "lng": 86.33700991970848}}}, "icon": "https://maps.gstatic.com/mapfiles/place_api/icons/v1/png_71/school-71.png", "name": "The sanjeev classes", "opening_hours": {"open_now": false}, "photos": [{"height": 8000, "html_attributions": ["<a href=\"https://maps.google.com/maps/contrib/116492076274302705728\">JIO Study</a>"], "photo_reference": "ATtYBwJEsgh-q-ro7dLlADVCIV-hwde6bNA5DlQZY_mTuhJSBYKsCRG0y59Eqqn34lGmeKSfiB-Vgl0PPaXGVla9AGUvbUaI6MwuQBBWJDLBvXp-rvqFsMr8Iity_OcyuCF8NVBDpVxAyd05JbbzUxOciFZEpfBzGsDtx4-JOIBBKnEGRPM8", "width": 6000}], "place_id": "ChIJ2RkseNaj9jkRRWuQ76ZDTTQ", "plus_code": {"compound_code": "R85Q+C8 Nagri Kalan, Jharkhand, India", "global_code": "7MM8R85Q+C8"}, "rating": 5, "reference": "ChIJ2RkseNaj9jkRRWuQ76ZDTTQ", "scope": "GOOGLE", "types": ["school", "point_of_interest", "establishment"], "user_ratings_total": 2, "vicinity": "Tetulmari zero seam"}, {"business_status": "OPERATIONAL", "geometry": {"location": {"lat": 23.8076947, "lng": 86.33928139999999}, "viewport": {"northeast": {"lat": 23.8090892802915, "lng": 86.3405368302915}, "southwest": {"lat": 23.8063913197085, "lng": 86.33783886970849}}}, "icon": "https://maps.gstatic.com/mapfiles/place_api/icons/v1/png_71/school-71.png", "name": "Dhanbad St. Xavier's School", "opening_hours": {"open_now": false}, "photos": [{"height": 1080, "html_attributions": ["<a href=\"https://maps.google.com/maps/contrib/118093347718409202142\">Amit Srivastava</a>"], "photo_reference": "ATtYBwJcLnaRbsZI1N0VeNfDBa2SYk2kTh4FmgjX5BDZaLqwYD-KsriVjHsndsH3ZbaPvlqNBnTaLQGEyFzQBvuB_sCbqTRwU04A9AREYdGOLSJ58am9AyVKzcwlAxU_kXvw1iuyNI9756uCX7R7Uyx61vIHQrNTOugEIegefkngtb4hhM8t", "width": 1920}], "place_id": "ChIJAa_eomOj9jkRbLt1HLJDg_4", "plus_code": {"compound_code": "R85Q+3P Dhanbad, Jharkhand, India", "global_code": "7MM8R85Q+3P"}, "rating": 5, "reference": "ChIJAa_eomOj9jkRbLt1HLJDg_4", "scope": "GOOGLE", "types": ["school", "point_of_interest", "establishment"], "user_ratings_total": 3, "vicinity": "Main Road, Tetulmari Road, Dhanbad"}, {"business_status": "OPERATIONAL", "geometry": {"location": {"lat": 23.8077018, "lng": 86.3394076}, "viewport": {"northeast": {"lat": 23.8089259302915, "lng": 86.34068588029152}, "southwest": {"lat": 23.80622796970849, "lng": 86.33798791970851}}}, "icon": "https://maps.gstatic.com/mapfiles/place_api/icons/v1/png_71/school-71.png", "name": "Mc.Bc shool", "place_id": "ChIJvWMQpX2j9jkRAuZGQJHfTxk", "plus_code": {"compound_code": "R85Q+3Q Nagri Kalan, Jharkhand, India", "global_code": "7MM8R85Q+3Q"}, "reference": "ChIJvWMQpX2j9jkRAuZGQJHfTxk", "scope": "GOOGLE", "types": ["school", "point_of_interest", "establishment"], "vicinity": "Unnamed Road, Nagri Kalan"}, {"business_status": "OPERATIONAL", "geometry": {"location": {"lat": 23.7962293, "lng": 86.317554}, "viewport": {"northeast": {"lat": 23.79782933029151, "lng": 86.3189200802915}, "southwest": {"lat": 23.7951313697085, "lng": 86.3162221197085}}}, "icon": "https://maps.gstatic.com/mapfiles/place_api/icons/v1/png_71/school-71.png", "name": "MS Mahavir Angarpathra", "opening_hours": {"open_now": true}, "photos": [{"height": 3456, "html_attributions": ["<a href=\"https://maps.google.com/maps/contrib/106839440421245059144\">Nitish Raj</a>"], "photo_reference": "ATtYBwLhVMJ3MQxzFXTDhG-1QalN2ThFJsFzC4cqQgfPKyVMokoJt5FG8hdgCb2FB6C6WrDJxYvovML6KJk4XYNESRy9iMXRDb0Arx5kKTLEHad562Ej2lKXdS97sCEcyYJRVudSULW1zo1als2vo6_aL2YYaLRnMV-qz5zWlnqgyLGeJyZm", "width": 4608}], "place_id": "ChIJN1a0qOeh9jkRJ8VjRSonUfs", "plus_code": {"compound_code": "Q8W9+F2 Katras, Jharkhand, India", "global_code": "7MM8Q8W9+F2"}, "rating": 3, "reference": "ChIJN1a0qOeh9jkRJ8VjRSonUfs", "scope": "GOOGLE", "types": ["school", "point_of_interest", "establishment"], "user_ratings_total": 1, "vicinity": "Dhanbad Road, Katras"}], "status": "OK"}