{"html_attributions": [], "results": [{"business_status": "OPERATIONAL", "geometry": {"location": {"lat": 24.041072, "lng": 86.74835449999999}, "viewport": {"northeast": {"lat": 24.0423988802915, "lng": 86.74969423029151}, "southwest": {"lat": 24.0397009197085, "lng": 86.74699626970849}}}, "icon": "https://maps.gstatic.com/mapfiles/place_api/icons/v1/png_71/school-71.png", "name": "School bagber", "place_id": "ChIJn_ALVT_T9jkR-m0z8zWkExE", "plus_code": {"compound_code": "2PRX+C8 Baghber, Jharkhand, India", "global_code": "7MP82PRX+C8"}, "rating": 5, "reference": "ChIJn_ALVT_T9jkR-m0z8zWkExE", "scope": "GOOGLE", "types": ["secondary_school", "school", "point_of_interest", "establishment"], "user_ratings_total": 1, "vicinity": "Baghber"}, {"business_status": "OPERATIONAL", "geometry": {"location": {"lat": 24.0408777, "lng": 86.74525009999999}, "viewport": {"northeast": {"lat": 24.04216463029151, "lng": 86.74633063029151}, "southwest": {"lat": 24.0394666697085, "lng": 86.74363266970849}}}, "icon": "https://maps.gstatic.com/mapfiles/place_api/icons/v1/png_71/school-71.png", "name": "\u0909.\u092e\u0927\u094d\u092f \u0935\u093f\u0926\u094d\u092f\u093e\u0932\u092f \u092c\u0917\u092c\u0948\u0930 \u0909\u0930\u094d\u0926\u0942 school Bagber", "place_id": "ChIJ9Ub9B3zT9jkRyjrc2Fup5BA", "plus_code": {"compound_code": "2PRW+94 Baghber, Jharkhand, India", "global_code": "7MP82PRW+94"}, "rating": 5, "reference": "ChIJ9Ub9B3zT9jkRyjrc2Fup5BA", "scope": "GOOGLE", "types": ["school", "point_of_interest", "establishment"], "user_ratings_total": 1, "vicinity": "Unnamed Road, Baghber"}, {"business_status": "OPERATIONAL", "geometry": {"location": {"lat": 24.0333394, "lng": 86.74097669999999}, "viewport": {"northeast": {"lat": 24.0346312302915, "lng": 86.7422557802915}, "southwest": {"lat": 24.0319332697085, "lng": 86.73955781970848}}}, "icon": "https://maps.gstatic.com/mapfiles/place_api/icons/v1/png_71/school-71.png", "name": "Kendriya Vidyalaya Jamtara", "photos": [{"height": 585, "html_attributions": ["<a href=\"https://maps.google.com/maps/contrib/112631009709351585044\">Ananta Majee</a>"], "photo_reference": "ATtYBwKCm6HAAQpkVlw86JcuiD-v5nB83rRuJH7TJtpZL7XzXVMqW5swoBRejl9RqW1-0fGpUXun71nv7yHZDQ0v89zrcEHVA3mqGaNufAqfOOGQAMxxlbUsvpp26attTsdwG7KfTdBTm8NaimNhC9Wo2dTTj-CWIfbPnohE138oOBfRVdtA", "width": 1040}], "place_id": "ChIJ_____8jW9jkRtnTmidEQhtk", "plus_code": {"compound_code": "2PMR+89 Jamtara, Jharkhand, India", "global_code": "7MP82PMR+89"}, "rating": 4.7, "reference": "ChIJ_____8jW9jkRtnTmidEQhtk", "scope": "GOOGLE", "types": ["school", "point_of_interest", "establishment"], "user_ratings_total": 7, "vicinity": "Deoghar-Jamtara Road, Near Combined Building Dakshinbahal, Jamtara"}, {"business_status": "OPERATIONAL", "geometry": {"location": {"lat": 24.036045, "lng": 86.7381305}, "viewport": {"northeast": {"lat": 24.0373394802915, "lng": 86.7394623302915}, "southwest": {"lat": 24.0346415197085, "lng": 86.7367643697085}}}, "icon": "https://maps.gstatic.com/mapfiles/place_api/icons/v1/png_71/school-71.png", "name": "Gyan Ganga Coching Centre", "place_id": "ChIJ4Q3US_rN9jkRBLjmBl627S8", "plus_code": {"compound_code": "2PPQ+C7 Kalajharia, Jharkhand, India", "global_code": "7MP82PPQ+C7"}, "reference": "ChIJ4Q3US_rN9jkRBLjmBl627S8", "scope": "GOOGLE", "types": ["school", "point_of_interest", "establishment"], "vicinity": "Kalajharia"}, {"business_status": "OPERATIONAL", "geometry": {"location": {"lat": 24.0365167, "lng": 86.7378655}, "viewport": {"northeast": {"lat": 24.0379036302915, "lng": 86.73911963029148}, "southwest": {"lat": 24.0352056697085, "lng": 86.73642166970848}}}, "icon": "https://maps.gstatic.com/mapfiles/place_api/icons/v1/png_71/school-71.png", "name": "ROHIT ZEE stor kalajhariya", "place_id": "ChIJT3Rvbw3N9jkRxKCT2fRToEE", "plus_code": {"compound_code": "2PPQ+J4 Kalajharia, Jharkhand, India", "global_code": "7MP82PPQ+J4"}, "reference": "ChIJT3Rvbw3N9jkRxKCT2fRToEE", "scope": "GOOGLE", "types": ["school", "point_of_interest", "establishment"], "vicinity": "Kalajharia"}, {"business_status": "OPERATIONAL", "geometry": {"location": {"lat": 24.0364564, "lng": 86.7371387}, "viewport": {"northeast": {"lat": 24.0376984802915, "lng": 86.7384612802915}, "southwest": {"lat": 24.0350005197085, "lng": 86.7357633197085}}}, "icon": "https://maps.gstatic.com/mapfiles/place_api/icons/v1/png_71/school-71.png", "name": "Gyan Ganga coching Centre", "photos": [{"height": 4160, "html_attributions": ["<a href=\"https://maps.google.com/maps/contrib/105115427319036334952\">Aastik Kumar</a>"], "photo_reference": "ATtYBwI3R1IlBIHMowoMGCbOcX31UKtWECHAxePSWYS07ZsT36wtoe0GDAswqgCbrX-_eiK0PqYPHArSXHsMxCuv2LQq-ShCUV8wfCCQ04aSiSy_eUJRvh99Dmj5Ey_ZtvhK0VHXrJykTi8Hi4z0Bw0RND2Z8P9mgwMebwaFJgQw_Sl9I88W", "width": 3120}], "place_id": "ChIJAQJymPTN9jkRY0TXdkFlqwA", "plus_code": {"compound_code": "2PPP+HV Kalajharia, Jharkhand, India", "global_code": "7MP82PPP+HV"}, "rating": 4.7, "reference": "ChIJAQJymPTN9jkRY0TXdkFlqwA", "scope": "GOOGLE", "types": ["school", "point_of_interest", "establishment"], "user_ratings_total": 3, "vicinity": "Kalajharia"}], "status": "OK"}