{"html_attributions": [], "results": [{"business_status": "OPERATIONAL", "geometry": {"location": {"lat": 23.7788157, "lng": 86.76711}, "viewport": {"northeast": {"lat": 23.7801689302915, "lng": 86.76853333029152}, "southwest": {"lat": 23.7774709697085, "lng": 86.76583536970851}}}, "icon": "https://maps.gstatic.com/mapfiles/place_api/icons/v1/png_71/school-71.png", "name": "Adarsh Vidya Niketan", "opening_hours": {"open_now": true}, "photos": [{"height": 672, "html_attributions": ["<a href=\"https://maps.google.com/maps/contrib/102017723713931023571\">Adarsh Vidya Niketan</a>"], "photo_reference": "ATtYBwLnSPmzrVS03FYZxAe4oA9aaZ4L_MdB_3cs-ybHH3piuy1kOA4lez4W3etnxgMR1vT_DO8RyqlRBhqUrkE9Omm6n3N9LxdJBWr9vNgPUmRDUYI4duj-U_Hl7ennqY-u-tfQiyrThUPRRX-54ViZkyq0DOO16sS-p8OSUNBgLiz013VX", "width": 1200}], "place_id": "ChIJmQIfQWjd9jkRlqyQpXJT_Ms", "plus_code": {"compound_code": "QQH8+GR Kesharkural, Jharkhand, India", "global_code": "7MM8QQH8+GR"}, "rating": 5, "reference": "ChIJmQIfQWjd9jkRlqyQpXJT_Ms", "scope": "GOOGLE", "types": ["school", "point_of_interest", "establishment"], "user_ratings_total": 1, "vicinity": "Kesharkural Mugma, Kesharkural"}, {"business_status": "CLOSED_TEMPORARILY", "geometry": {"location": {"lat": 23.7737877, "lng": 86.7747524}, "viewport": {"northeast": {"lat": 23.7747499302915, "lng": 86.7759008302915}, "southwest": {"lat": 23.7720519697085, "lng": 86.7732028697085}}}, "icon": "https://maps.gstatic.com/mapfiles/place_api/icons/v1/png_71/school-71.png", "name": "\u0906\u0926\u0936\u0954 \u0935\u093f\u0926\u094d\u092f\u093e \u0928\u093f\u0915\u0947\u0924\u0928", "permanently_closed": true, "photos": [{"height": 2322, "html_attributions": ["<a href=\"https://maps.google.com/maps/contrib/114529546568378912134\">Trilochan Singh</a>"], "photo_reference": "ATtYBwIXcq-keLkpPXRzsPSZFPyaNg0dMCG-cZzF8Fo20-9P8OzZOvMjSEMIpW7GdQMBYcgaTyDCe2ZvDI9NMXgmrfagWVdO3xX1EtzXgHYBmfe32GcyHd34QMTUkWF34aTLOPXZZjadubbRHSKM5ottG2bzs_643JLjZBAfiqRhz9uKX7Vl", "width": 4128}], "place_id": "ChIJuVaTIeLc9jkR0EE74wfYs2o", "plus_code": {"compound_code": "QQFF+GW Kesharkural, Jharkhand, India", "global_code": "7MM8QQFF+GW"}, "rating": 5, "reference": "ChIJuVaTIeLc9jkR0EE74wfYs2o", "scope": "GOOGLE", "types": ["school", "point_of_interest", "establishment"], "user_ratings_total": 2, "vicinity": "\u0915\u0947\u0936\u093e\u0930\u0915\u0941\u0930\u0932 \u0917\u093e\u0901\u0935"}, {"business_status": "OPERATIONAL", "geometry": {"location": {"lat": 23.7716612, "lng": 86.7667124}, "viewport": {"northeast": {"lat": 23.7730400802915, "lng": 86.7680062802915}, "southwest": {"lat": 23.77034211970849, "lng": 86.76530831970848}}}, "icon": "https://maps.gstatic.com/mapfiles/place_api/icons/v1/png_71/school-71.png", "name": "Rajpura Basti Hari Mandir", "photos": [{"height": 3096, "html_attributions": ["<a href=\"https://maps.google.com/maps/contrib/100886004706819720169\">world deep</a>"], "photo_reference": "ATtYBwI7t9cK13JWXS49vWXBt54-IZpu6RGjQKlW7NSdQORzaFsn5yIUDY66eXmHdIqswqcGo18xOmW05zKwkZdjmHwi-OlYOPITOFinY6HupGAZVIb-OPtBlyZafbUn_04wfv5V6sOqNUC1yh_dS5JItpubXlQgQTvoFnKqmRAmJ6i4uY3G", "width": 4128}], "place_id": "ChIJ0f3Z2bvd9jkRCbMtaPOmEsk", "plus_code": {"compound_code": "QQC8+MM Rajpura, Jharkhand, India", "global_code": "7MM8QQC8+MM"}, "reference": "ChIJ0f3Z2bvd9jkRCbMtaPOmEsk", "scope": "GOOGLE", "types": ["school", "point_of_interest", "establishment"], "vicinity": "Rajpura"}, {"business_status": "OPERATIONAL", "geometry": {"location": {"lat": 23.77556890000001, "lng": 86.7604923}, "viewport": {"northeast": {"lat": 23.77708503029151, "lng": 86.7619371802915}, "southwest": {"lat": 23.7743870697085, "lng": 86.75923921970849}}}, "icon": "https://maps.gstatic.com/mapfiles/place_api/icons/v1/png_71/school-71.png", "name": "publoc school", "opening_hours": {"open_now": true}, "place_id": "ChIJ____PyDd9jkRaWGYB3_vJEE", "plus_code": {"compound_code": "QQG6+65 Gopalpur, Jharkhand, India", "global_code": "7MM8QQG6+65"}, "rating": 1, "reference": "ChIJ____PyDd9jkRaWGYB3_vJEE", "scope": "GOOGLE", "types": ["school", "point_of_interest", "establishment"], "user_ratings_total": 1, "vicinity": "Gopalpur"}], "status": "OK"}