{"html_attributions": [], "results": [{"business_status": "OPERATIONAL", "geometry": {"location": {"lat": 23.9554993, "lng": 86.7778398}, "viewport": {"northeast": {"lat": 23.9570458802915, "lng": 86.7793693802915}, "southwest": {"lat": 23.9543479197085, "lng": 86.77667141970849}}}, "icon": "https://maps.gstatic.com/mapfiles/place_api/icons/v1/png_71/school-71.png", "name": "Govt. SC. Residential High School", "photos": [{"height": 1080, "html_attributions": ["<a href=\"https://maps.google.com/maps/contrib/102950569477957497701\">PRAM KR.</a>"], "photo_reference": "ATtYBwIZ3e7wUFQTG6kvcjSfulXnBHovqLZeE5fAYnORslFqJHoFMJlLnrjTuomAXtsls4hnAXmMICAdaF0y-sPmzLNz8GGlY4UElGJDamSfM12T-IiHF3iZJs7D7GXjr1V4IowjzLdka8Z54sSot-b9-ApZIqgOUisSUuMAGdWDgAH2mAyj", "width": 1920}], "place_id": "ChIJObGf4VnQ9jkRCV-oWnHrZQg", "plus_code": {"compound_code": "XQ4H+54 Duladih, Jharkhand, India", "global_code": "7MM8XQ4H+54"}, "rating": 5, "reference": "ChIJObGf4VnQ9jkRCV-oWnHrZQg", "scope": "GOOGLE", "types": ["school", "point_of_interest", "establishment"], "user_ratings_total": 3, "vicinity": "Duladih"}, {"business_status": "OPERATIONAL", "geometry": {"location": {"lat": 23.9614577, "lng": 86.7570487}, "viewport": {"northeast": {"lat": 23.9630077802915, "lng": 86.7584150802915}, "southwest": {"lat": 23.9603098197085, "lng": 86.75571711970849}}}, "icon": "https://maps.gstatic.com/mapfiles/place_api/icons/v1/png_71/school-71.png", "name": "Utkramik High School Sonbad", "photos": [{"height": 3120, "html_attributions": ["<a href=\"https://maps.google.com/maps/contrib/108549698297277536285\">Rajen Sen</a>"], "photo_reference": "ATtYBwLqmgFxf6SU-dR0RhIDHrrJq6UY8cGqXB07NnTTi15QVTTOkQx62OqkvQe6Hc_mmMYXI25Pg1d-bp5L_eBwXeis0GFzbLuvV9qUNMw8Q-ZFIFYd2Qc5eCjML7yrlYIHiy_HRSFGW7kW4Xuzgz27oFbDKS9b2saDKsKkIMsqbHg640_b", "width": 4160}], "place_id": "ChIJGXikdpvR9jkR6TNotW7XJ6k", "plus_code": {"compound_code": "XQ64+HR Sonbad, Jharkhand, India", "global_code": "7MM8XQ64+HR"}, "reference": "ChIJGXikdpvR9jkR6TNotW7XJ6k", "scope": "GOOGLE", "types": ["secondary_school", "school", "point_of_interest", "establishment"], "vicinity": "Sonbad"}, {"business_status": "OPERATIONAL", "geometry": {"location": {"lat": 23.9614451, "lng": 86.7569941}, "viewport": {"northeast": {"lat": 23.96293608029151, "lng": 86.75817818029151}, "southwest": {"lat": 23.9602381197085, "lng": 86.75548021970849}}}, "icon": "https://maps.gstatic.com/mapfiles/place_api/icons/v1/png_71/school-71.png", "name": "Utkramik High School Sonbad, Jamtara", "photos": [{"height": 3120, "html_attributions": ["<a href=\"https://maps.google.com/maps/contrib/108549698297277536285\">Rajen Sen</a>"], "photo_reference": "ATtYBwKhAytQK2pLVx_M1wM1SzKsuwxudezJloU9hGiQwHauQy6gPzkuf6tBiv1BzRPGDt79ZSjY8w-5ksoaMbigaMQOI_o8LYT_N0z43DVBrb3ij__iGgQFn0Q1lcOa2q73SoNsQGXUPMSiyK4OS77gYvrOUxo--LvQJJWybZ5LsUI49iWg", "width": 4160}], "place_id": "ChIJKxvE52jR9jkRwQbjF_N5h6I", "plus_code": {"compound_code": "XQ64+HQ Sonbad, Jharkhand, India", "global_code": "7MM8XQ64+HQ"}, "rating": 5, "reference": "ChIJKxvE52jR9jkRwQbjF_N5h6I", "scope": "GOOGLE", "types": ["school", "point_of_interest", "establishment"], "user_ratings_total": 1, "vicinity": "Sonbad"}, {"business_status": "OPERATIONAL", "geometry": {"location": {"lat": 23.9614883, "lng": 86.7568227}, "viewport": {"northeast": {"lat": 23.96295768029151, "lng": 86.7580924802915}, "southwest": {"lat": 23.9602597197085, "lng": 86.75539451970849}}}, "icon": "https://maps.gstatic.com/mapfiles/place_api/icons/v1/png_71/school-71.png", "name": "UTKRIMIT HIGH SCHOOL SONBAD", "photos": [{"height": 3120, "html_attributions": ["<a href=\"https://maps.google.com/maps/contrib/108549698297277536285\">Rajen Sen</a>"], "photo_reference": "ATtYBwKKgw7O8taF39qR044WIQC2R2p_h8VNgvaDmCvF7Vebubxihc97yqIJ_hO1kEMtWMTYXa1Px2hNOvcvuVJWWOO23kLa4wDA2v8w9z2m6Ca8jM5Dith2-uql1lQ_HMhiR8D0qNy_36kY34Vw8fC29UVds939ihwcgIwJnQZdyyjFYZC3", "width": 4160}], "place_id": "ChIJqSGN83HR9jkRyhhysG3VcsI", "plus_code": {"compound_code": "XQ64+HP Sonbad, Jharkhand, India", "global_code": "7MM8XQ64+HP"}, "rating": 5, "reference": "ChIJqSGN83HR9jkRyhhysG3VcsI", "scope": "GOOGLE", "types": ["school", "point_of_interest", "establishment"], "user_ratings_total": 2, "vicinity": "Sonbad"}, {"business_status": "OPERATIONAL", "geometry": {"location": {"lat": 23.9477338, "lng": 86.76939420000001}, "viewport": {"northeast": {"lat": 23.9490974302915, "lng": 86.7708417802915}, "southwest": {"lat": 23.9463994697085, "lng": 86.7681438197085}}}, "icon": "https://maps.gstatic.com/mapfiles/place_api/icons/v1/png_71/school-71.png", "name": "Kasturba Girls School", "place_id": "ChIJ_0UkCkPQ9jkRuY6awqkugQ4", "plus_code": {"compound_code": "WQX9+3Q Duladih, Jharkhand, India", "global_code": "7MM8WQX9+3Q"}, "rating": 1, "reference": "ChIJ_0UkCkPQ9jkRuY6awqkugQ4", "scope": "GOOGLE", "types": ["school", "point_of_interest", "establishment"], "user_ratings_total": 1, "vicinity": "Duladih"}, {"business_status": "OPERATIONAL", "geometry": {"location": {"lat": 23.9476584, "lng": 86.7694137}, "viewport": {"northeast": {"lat": 23.9490215802915, "lng": 86.7708582802915}, "southwest": {"lat": 23.9463236197085, "lng": 86.76816031970849}}}, "icon": "https://maps.gstatic.com/mapfiles/place_api/icons/v1/png_71/school-71.png", "name": "K G B V Duladih Jamtara", "place_id": "ChIJEzKFCUPQ9jkReGQ_QW_HH4w", "plus_code": {"compound_code": "WQX9+3Q Duladih, Jharkhand, India", "global_code": "7MM8WQX9+3Q"}, "rating": 2.3, "reference": "ChIJEzKFCUPQ9jkReGQ_QW_HH4w", "scope": "GOOGLE", "types": ["secondary_school", "school", "point_of_interest", "establishment"], "user_ratings_total": 3, "vicinity": "Duladih"}], "status": "OK"}