{"html_attributions": [], "results": [{"business_status": "OPERATIONAL", "geometry": {"location": {"lat": 23.7342034, "lng": 86.7984231}, "viewport": {"northeast": {"lat": 23.7354591302915, "lng": 86.7997073802915}, "southwest": {"lat": 23.7327611697085, "lng": 86.79700941970849}}}, "icon": "https://maps.gstatic.com/mapfiles/place_api/icons/v1/png_71/school-71.png", "name": "Dr. R.P.G.D School", "place_id": "ChIJ2w91uYvd9jkRTSrjjBXImzg", "plus_code": {"compound_code": "PQMX+M9 Chirkunda, Jharkhand, India", "global_code": "7MM8PQMX+M9"}, "reference": "ChIJ2w91uYvd9jkRTSrjjBXImzg", "scope": "GOOGLE", "types": ["school", "point_of_interest", "establishment"], "vicinity": "Chirkunda"}, {"business_status": "OPERATIONAL", "geometry": {"location": {"lat": 23.7408765, "lng": 86.8005665}, "viewport": {"northeast": {"lat": 23.7421947802915, "lng": 86.80188408029152}, "southwest": {"lat": 23.7394968197085, "lng": 86.79918611970851}}}, "icon": "https://maps.gstatic.com/mapfiles/place_api/icons/v1/png_71/school-71.png", "name": "Durgamadir.", "opening_hours": {"open_now": false}, "place_id": "ChIJVSXlao3d9jkRt6eyK4CTibE", "plus_code": {"compound_code": "PRR2+96 Chirkunda, Jharkhand, India", "global_code": "7MM8PRR2+96"}, "reference": "ChIJVSXlao3d9jkRt6eyK4CTibE", "scope": "GOOGLE", "types": ["school", "point_of_interest", "establishment"], "vicinity": "Chirkunda"}, {"business_status": "OPERATIONAL", "geometry": {"location": {"lat": 23.7497062, "lng": 86.7902374}, "viewport": {"northeast": {"lat": 23.7509914302915, "lng": 86.7913418802915}, "southwest": {"lat": 23.7482934697085, "lng": 86.78864391970849}}}, "icon": "https://maps.gstatic.com/mapfiles/place_api/icons/v1/png_71/school-71.png", "name": "Rashma tabasum", "place_id": "ChIJM5XtIILd9jkRMxNZY5ekTRA", "plus_code": {"compound_code": "PQXR+V3 Mera, Jharkhand, India", "global_code": "7MM8PQXR+V3"}, "reference": "ChIJM5XtIILd9jkRMxNZY5ekTRA", "scope": "GOOGLE", "types": ["school", "point_of_interest", "establishment"], "vicinity": "Mera"}, {"business_status": "OPERATIONAL", "geometry": {"location": {"lat": 23.7373404, "lng": 86.80032279999999}, "viewport": {"northeast": {"lat": 23.7386430302915, "lng": 86.80175303029151}, "southwest": {"lat": 23.7359450697085, "lng": 86.7990550697085}}}, "icon": "https://maps.gstatic.com/mapfiles/place_api/icons/v1/png_71/school-71.png", "name": "MTC Classes", "opening_hours": {"open_now": true}, "place_id": "ChIJoaZyfKnd9jkRC_KqEEGSHsA", "plus_code": {"compound_code": "PRP2+W4 Chirkunda, Jharkhand, India", "global_code": "7MM8PRP2+W4"}, "reference": "ChIJoaZyfKnd9jkRC_KqEEGSHsA", "scope": "GOOGLE", "types": ["school", "point_of_interest", "establishment"], "vicinity": "Chirkunda"}, {"business_status": "OPERATIONAL", "geometry": {"location": {"lat": 23.7401334, "lng": 86.80081969999999}, "viewport": {"northeast": {"lat": 23.7414540802915, "lng": 86.8022019302915}, "southwest": {"lat": 23.7387561197085, "lng": 86.7995039697085}}}, "icon": "https://maps.gstatic.com/mapfiles/place_api/icons/v1/png_71/school-71.png", "name": "Elite Public School", "opening_hours": {"open_now": true}, "place_id": "ChIJK349PY3d9jkRiIMLJKeeh2o", "plus_code": {"compound_code": "PRR2+38 Chirkunda, Jharkhand, India", "global_code": "7MM8PRR2+38"}, "rating": 4, "reference": "ChIJK349PY3d9jkRiIMLJKeeh2o", "scope": "GOOGLE", "types": ["school", "point_of_interest", "establishment"], "user_ratings_total": 1, "vicinity": "Chirkunda"}, {"business_status": "OPERATIONAL", "geometry": {"location": {"lat": 23.7491918, "lng": 86.7859871}, "viewport": {"northeast": {"lat": 23.7505142802915, "lng": 86.78732713029152}, "southwest": {"lat": 23.74781631970849, "lng": 86.7846291697085}}}, "icon": "https://maps.gstatic.com/mapfiles/place_api/icons/v1/png_71/school-71.png", "name": "Herald Institution (School)", "opening_hours": {"open_now": false}, "place_id": "ChIJ-aRrh_3d9jkRzlN9oERHgrU", "plus_code": {"compound_code": "PQXP+M9 Siuliban, Jharkhand, India", "global_code": "7MM8PQXP+M9"}, "reference": "ChIJ-aRrh_3d9jkRzlN9oERHgrU", "scope": "GOOGLE", "types": ["school", "point_of_interest", "establishment"], "vicinity": "Siuliban"}, {"business_status": "OPERATIONAL", "geometry": {"location": {"lat": 23.7375886, "lng": 86.8008485}, "viewport": {"northeast": {"lat": 23.73863273029151, "lng": 86.80201338029151}, "southwest": {"lat": 23.7359347697085, "lng": 86.79931541970849}}}, "icon": "https://maps.gstatic.com/mapfiles/place_api/icons/v1/png_71/school-71.png", "name": "puman niwas, kapasara", "opening_hours": {"open_now": true}, "place_id": "ChIJiZ4kjAXd9jkR6Y5V5uYMysQ", "plus_code": {"compound_code": "PRQ2+28 Chirkunda, Jharkhand, India", "global_code": "7MM8PRQ2+28"}, "reference": "ChIJiZ4kjAXd9jkR6Y5V5uYMysQ", "scope": "GOOGLE", "types": ["school", "point_of_interest", "establishment"], "vicinity": "GT Road, Chirkunda"}, {"business_status": "OPERATIONAL", "geometry": {"location": {"lat": 23.7297014, "lng": 86.790984}, "viewport": {"northeast": {"lat": 23.7310336302915, "lng": 86.79233183029152}, "southwest": {"lat": 23.7283356697085, "lng": 86.7896338697085}}}, "icon": "https://maps.gstatic.com/mapfiles/place_api/icons/v1/png_71/school-71.png", "name": "Papu coaching math centre", "opening_hours": {"open_now": true}, "place_id": "ChIJkyha61_n9jkRepNWGkdPSDY", "plus_code": {"compound_code": "PQHR+V9 Dumarkunda, Jharkhand, India", "global_code": "7MM8PQHR+V9"}, "reference": "ChIJkyha61_n9jkRepNWGkdPSDY", "scope": "GOOGLE", "types": ["school", "point_of_interest", "establishment"], "vicinity": "Unnamed Road"}, {"business_status": "OPERATIONAL", "geometry": {"location": {"lat": 23.7494757, "lng": 86.7849806}, "viewport": {"northeast": {"lat": 23.7508142302915, "lng": 86.7863814302915}, "southwest": {"lat": 23.7481162697085, "lng": 86.78368346970849}}}, "icon": "https://maps.gstatic.com/mapfiles/place_api/icons/v1/png_71/school-71.png", "name": "Sahu college", "place_id": "ChIJ8S-D8p7d9jkRs40enYnn4Sw", "plus_code": {"compound_code": "PQXM+QX Maithon, Jharkhand, India", "global_code": "7MM8PQXM+QX"}, "reference": "ChIJ8S-D8p7d9jkRs40enYnn4Sw", "scope": "GOOGLE", "types": ["school", "point_of_interest", "establishment"], "vicinity": "More, Maithon"}, {"business_status": "OPERATIONAL", "geometry": {"location": {"lat": 23.7299124, "lng": 86.7935939}, "viewport": {"northeast": {"lat": 23.7312301802915, "lng": 86.7950007802915}, "southwest": {"lat": 23.7285322197085, "lng": 86.7923028197085}}}, "icon": "https://maps.gstatic.com/mapfiles/place_api/icons/v1/png_71/school-71.png", "name": "KALI MAA MANDIR", "place_id": "ChIJG_VXnGLn9jkRwZ6Ot5pTvHE", "plus_code": {"compound_code": "PQHV+XC Chirkunda, Jharkhand, India", "global_code": "7MM8PQHV+XC"}, "reference": "ChIJG_VXnGLn9jkRwZ6Ot5pTvHE", "scope": "GOOGLE", "types": ["school", "point_of_interest", "establishment"], "vicinity": "Chirkunda"}, {"business_status": "OPERATIONAL", "geometry": {"location": {"lat": 23.729705, "lng": 86.7938382}, "viewport": {"northeast": {"lat": 23.7310887802915, "lng": 86.7950997302915}, "southwest": {"lat": 23.72839081970849, "lng": 86.79240176970849}}}, "icon": "https://maps.gstatic.com/mapfiles/place_api/icons/v1/png_71/school-71.png", "name": "\u092a\u094d\u0930\u093e\u0925\u092e\u093f\u0915 \u0935\u093f\u0926\u094d\u092f\u093e\u0932\u092f\u093e \u0921\u0941\u092e\u0930\u0915\u0941\u0902\u0921\u093e", "photos": [{"height": 4160, "html_attributions": ["<a href=\"https://maps.google.com/maps/contrib/105907286780683781186\">Anil Shaw</a>"], "photo_reference": "ATtYBwK6a_vTsc_a4iJkQ6bni6aXn5VJu4BjQP7c-qCcvCkUNGSs0tOCAdz5iyzjUYM486cFjQioZahHY82uL0QIqP0br436WYOIP41AbUMNahbSQajFQgPrZfI1zYY9tFwaXsRj90eOaUFeRTWw7QoozFEiMjk1LN5VNd-NiUb77DfaDE3h", "width": 3120}], "place_id": "ChIJQxrDhGLn9jkR0SL29hv9uqM", "plus_code": {"compound_code": "PQHV+VG Chirkunda, Jharkhand, India", "global_code": "7MM8PQHV+VG"}, "rating": 5, "reference": "ChIJQxrDhGLn9jkR0SL29hv9uqM", "scope": "GOOGLE", "types": ["school", "point_of_interest", "establishment"], "user_ratings_total": 1, "vicinity": "Chirkunda"}, {"business_status": "OPERATIONAL", "geometry": {"location": {"lat": 23.74943309999999, "lng": 86.7838905}, "viewport": {"northeast": {"lat": 23.7509793302915, "lng": 86.78538168029151}, "southwest": {"lat": 23.7482813697085, "lng": 86.78268371970849}}}, "icon": "https://maps.gstatic.com/mapfiles/place_api/icons/v1/png_71/school-71.png", "name": "IQRA COACHING CLASSES", "place_id": "ChIJ5R0zrZ_d9jkR9vJ24x8rjpY", "plus_code": {"compound_code": "PQXM+QH Siuliban, Jharkhand, India", "global_code": "7MM8PQXM+QH"}, "reference": "ChIJ5R0zrZ_d9jkR9vJ24x8rjpY", "scope": "GOOGLE", "types": ["school", "point_of_interest", "establishment"], "vicinity": "Near Jama Masjid, Siuliban"}, {"business_status": "OPERATIONAL", "geometry": {"location": {"lat": 23.74929479999999, "lng": 86.7831085}, "viewport": {"northeast": {"lat": 23.7506006802915, "lng": 86.78443253029151}, "southwest": {"lat": 23.74790271970849, "lng": 86.78173456970849}}}, "icon": "https://maps.gstatic.com/mapfiles/place_api/icons/v1/png_71/school-71.png", "name": "Anganwadi kendra shivlibari purbi mohalla niche tola code 815", "opening_hours": {"open_now": true}, "place_id": "ChIJn_6Ymxvd9jkRMC77D36JXLU", "plus_code": {"compound_code": "PQXM+P6 Siuliban, Jharkhand, India", "global_code": "7MM8PQXM+P6"}, "reference": "ChIJn_6Ymxvd9jkRMC77D36JXLU", "scope": "GOOGLE", "types": ["school", "point_of_interest", "establishment"], "vicinity": "purbi mohalla niche tola, Siuliban"}, {"business_status": "OPERATIONAL", "geometry": {"location": {"lat": 23.7490292, "lng": 86.7825428}, "viewport": {"northeast": {"lat": 23.7505494802915, "lng": 86.78397268029151}, "southwest": {"lat": 23.7478515197085, "lng": 86.7812747197085}}}, "icon": "https://maps.gstatic.com/mapfiles/place_api/icons/v1/png_71/school-71.png", "name": "Middle School Siwlibari", "place_id": "ChIJoeQ1J2nd9jkRj1hD9o1uwdQ", "plus_code": {"compound_code": "PQXM+J2 Siuliban, Jharkhand, India", "global_code": "7MM8PQXM+J2"}, "reference": "ChIJoeQ1J2nd9jkRj1hD9o1uwdQ", "scope": "GOOGLE", "types": ["school", "point_of_interest", "establishment"], "vicinity": "Siuliban"}, {"business_status": "OPERATIONAL", "geometry": {"location": {"lat": 23.7375579, "lng": 86.8025425}, "viewport": {"northeast": {"lat": 23.7388827302915, "lng": 86.8038857302915}, "southwest": {"lat": 23.73618476970849, "lng": 86.80118776970849}}}, "icon": "https://maps.gstatic.com/mapfiles/place_api/icons/v1/png_71/school-71.png", "name": "Nandlal institution", "photos": [{"height": 3120, "html_attributions": ["<a href=\"https://maps.google.com/maps/contrib/117958538611368442747\">Sahil Khan</a>"], "photo_reference": "ATtYBwLckn4Dxtp7H9nLy9TYaHuIdrDXITkfCPohkE3LrRd7UIzrFMqkvzvohS_Xr8zoONBxoW6KmJ4VgLmTRn9D1hjrwryVWvq6327vb0ROXgJgEh9qLmmXP_ogVe_a4jqcnxYt3DeihwkOnLAz0o-5eqKgtx0i7X86xBbXfkllEO72G97I", "width": 4160}], "place_id": "ChIJxTuaSPPd9jkRlmoFcKi-dWw", "plus_code": {"compound_code": "PRQ3+22 Chirkunda, Jharkhand, India", "global_code": "7MM8PRQ3+22"}, "rating": 5, "reference": "ChIJxTuaSPPd9jkRlmoFcKi-dWw", "scope": "GOOGLE", "types": ["school", "point_of_interest", "establishment"], "user_ratings_total": 6, "vicinity": "Nandlal School Road, Chirkunda"}, {"business_status": "OPERATIONAL", "geometry": {"location": {"lat": 23.7392594, "lng": 86.8028216}, "viewport": {"northeast": {"lat": 23.7406206302915, "lng": 86.80412843029151}, "southwest": {"lat": 23.7379226697085, "lng": 86.8014304697085}}}, "icon": "https://maps.gstatic.com/mapfiles/place_api/icons/v1/png_71/school-71.png", "name": "Nawab Haveli", "opening_hours": {"open_now": true}, "place_id": "ChIJgd5cJ_Pd9jkRYPp19hA4Ovc", "plus_code": {"compound_code": "PRQ3+P4 Chirkunda, Jharkhand, India", "global_code": "7MM8PRQ3+P4"}, "rating": 5, "reference": "ChIJgd5cJ_Pd9jkRYPp19hA4Ovc", "scope": "GOOGLE", "types": ["school", "point_of_interest", "establishment"], "user_ratings_total": 1, "vicinity": "shahi muhalla, Chirkunda"}, {"business_status": "OPERATIONAL", "geometry": {"location": {"lat": 23.7288497, "lng": 86.78535409999999}, "viewport": {"northeast": {"lat": 23.7300106302915, "lng": 86.7867913802915}, "southwest": {"lat": 23.7273126697085, "lng": 86.7840934197085}}}, "icon": "https://maps.gstatic.com/mapfiles/place_api/icons/v1/png_71/school-71.png", "name": "Childern Paradise School", "place_id": "ChIJz1G6Pn7n9jkRGkvGUqPZLW0", "plus_code": {"compound_code": "PQHP+G4 Dumarkunda, Jharkhand, India", "global_code": "7MM8PQHP+G4"}, "reference": "ChIJz1G6Pn7n9jkRGkvGUqPZLW0", "scope": "GOOGLE", "types": ["school", "point_of_interest", "establishment"], "vicinity": "Laikdih fatak chrkunda, Dhanbad"}, {"business_status": "OPERATIONAL", "geometry": {"location": {"lat": 23.73095, "lng": 86.78138039999999}, "viewport": {"northeast": {"lat": 23.7322454302915, "lng": 86.7827875802915}, "southwest": {"lat": 23.7295474697085, "lng": 86.78008961970849}}}, "icon": "https://maps.gstatic.com/mapfiles/place_api/icons/v1/png_71/school-71.png", "name": "\u0906\u0926\u0930\u094d\u0936 \u0915\u094b\u091a\u093f\u0902\u0917 \u0938\u0947\u0902\u091f\u0930", "place_id": "ChIJ2ZKU65zd9jkRhIeIJN6Otjg", "plus_code": {"compound_code": "PQJJ+9H Chirkunda, Jharkhand, India", "global_code": "7MM8PQJJ+9H"}, "reference": "ChIJ2ZKU65zd9jkRhIeIJN6Otjg", "scope": "GOOGLE", "types": ["school", "point_of_interest", "establishment"], "vicinity": "Beraham baba mandir, Chirkunda"}, {"business_status": "OPERATIONAL", "geometry": {"location": {"lat": 23.7381552, "lng": 86.8030871}, "viewport": {"northeast": {"lat": 23.7394675302915, "lng": 86.80454943029152}, "southwest": {"lat": 23.7367695697085, "lng": 86.8018514697085}}}, "icon": "https://maps.gstatic.com/mapfiles/place_api/icons/v1/png_71/school-71.png", "name": "N.L Institution", "place_id": "ChIJdXtwPvPd9jkRZjbiU1RAOZ8", "plus_code": {"compound_code": "PRQ3+76 Chirkunda, Jharkhand, India", "global_code": "7MM8PRQ3+76"}, "rating": 3, "reference": "ChIJdXtwPvPd9jkRZjbiU1RAOZ8", "scope": "GOOGLE", "types": ["school", "point_of_interest", "establishment"], "user_ratings_total": 2, "vicinity": "Chirkunda"}, {"business_status": "OPERATIONAL", "geometry": {"location": {"lat": 23.751719, "lng": 86.7862804}, "viewport": {"northeast": {"lat": 23.7530246802915, "lng": 86.78766953029151}, "southwest": {"lat": 23.7503267197085, "lng": 86.78497156970849}}}, "icon": "https://maps.gstatic.com/mapfiles/place_api/icons/v1/png_71/school-71.png", "name": "Bhagat Singh Public School", "photos": [{"height": 2560, "html_attributions": ["<a href=\"https://maps.google.com/maps/contrib/114076863826783684569\">artiyuk kumari</a>"], "photo_reference": "ATtYBwKvpunBwxEXBRkYs-KwnXgLtSW05Xz4d5LBhkKyccY3q9bPgmIbbLQRKa4Z-nNDh1maPJncYZiq_nJgHViQlHaPpgwq1En5t2rajuwkM8KjSFuK3yqzJweiCOS7aXw8NBNQo6577MELZJXropMVsv8lJTCln3AiunssF1z4w098lpDm", "width": 1920}], "place_id": "ChIJl5WiI5_d9jkRN6yy7y_gGeo", "plus_code": {"compound_code": "QQ2P+MG Mera, Jharkhand, India", "global_code": "7MM8QQ2P+MG"}, "rating": 3.4, "reference": "ChIJl5WiI5_d9jkRN6yy7y_gGeo", "scope": "GOOGLE", "types": ["school", "point_of_interest", "establishment"], "user_ratings_total": 5, "vicinity": "Maithon More, Kumardhubi, Dhanbad"}], "status": "OK"}