{"html_attributions": [], "results": [{"business_status": "OPERATIONAL", "geometry": {"location": {"lat": 23.6454877, "lng": 86.8051457}, "viewport": {"northeast": {"lat": 23.6468149802915, "lng": 86.8065060802915}, "southwest": {"lat": 23.6441170197085, "lng": 86.80380811970848}}}, "icon": "https://maps.gstatic.com/mapfiles/place_api/icons/v1/png_71/school-71.png", "name": "Panchagram Fatedanga High madrasah", "photos": [{"height": 3120, "html_attributions": ["<a href=\"https://maps.google.com/maps/contrib/118019765304321554539\">Seikhu Inaamul</a>"], "photo_reference": "ATtYBwLuC9KG7KoVTvYWXlmo2qsMI2wew3FqrVKd9C6ES1JXQloPdsMjZFI1YSnBuRWXftIxLkVxxi5aWAKWKT9I3TyCuUsrNGhRz1gIQIG5hfJXNrJqMkvIN0yS5lkYFPb0K0UPLjWouZQ9KrSSTDP9OT2ughY8ja78RYS0VEV90H5ViNqd", "width": 4160}], "place_id": "ChIJPSITF6Pm9jkR5KLeNNsbfi0", "plus_code": {"compound_code": "JRW4+53 Heddi, West Bengal, India", "global_code": "7MM8JRW4+53"}, "rating": 3, "reference": "ChIJPSITF6Pm9jkR5KLeNNsbfi0", "scope": "GOOGLE", "types": ["school", "point_of_interest", "establishment"], "user_ratings_total": 6, "vicinity": "Purulia"}, {"business_status": "OPERATIONAL", "geometry": {"location": {"lat": 23.63290920000001, "lng": 86.81088299999999}, "viewport": {"northeast": {"lat": 23.6342928802915, "lng": 86.8119575302915}, "southwest": {"lat": 23.6315949197085, "lng": 86.80925956970847}}}, "icon": "https://maps.gstatic.com/mapfiles/place_api/icons/v1/png_71/school-71.png", "name": "Bortoria High School (HS)", "opening_hours": {"open_now": true}, "photos": [{"height": 2340, "html_attributions": ["<a href=\"https://maps.google.com/maps/contrib/116911489802150237639\">Avoy Mondal</a>"], "photo_reference": "ATtYBwLdZdVcYX64WyF3lhDnCcKd69zjkLds46uTJBSWz2L65ylKKRnpSZ3hKYafKfg99INzXPmjp26pBT3Xy7Vr65pgVHV9dw_d7F40lZM5-LIzCNtir-yIJmGvpYzHGzYgxcOhFwLLOYBhBHZi-gmhTZyxI294XBNgGMVtDHw7JSud1LFH", "width": 4160}], "place_id": "ChIJ8YIzIh3k9jkRZiEF7rge6ao", "plus_code": {"compound_code": "JRM6+59 Binduidi, West Bengal, India", "global_code": "7MM8JRM6+59"}, "rating": 4.4, "reference": "ChIJ8YIzIh3k9jkRZiEF7rge6ao", "scope": "GOOGLE", "types": ["secondary_school", "school", "point_of_interest", "establishment"], "user_ratings_total": 19, "vicinity": "State Highway 5"}, {"business_status": "OPERATIONAL", "geometry": {"location": {"lat": 23.6427023, "lng": 86.800584}, "viewport": {"northeast": {"lat": 23.6441041802915, "lng": 86.8020348802915}, "southwest": {"lat": 23.64140621970849, "lng": 86.7993369197085}}}, "icon": "https://maps.gstatic.com/mapfiles/place_api/icons/v1/png_71/school-71.png", "name": "Heddi Primary School", "photos": [{"height": 2016, "html_attributions": ["<a href=\"https://maps.google.com/maps/contrib/117198320302272447476\">Sk Habibulla</a>"], "photo_reference": "ATtYBwLCwNUyv-bGjORHBZKM6GhXx5eWVDRbLo4FXjSbQ6CoX4ajYcewXDNyV0MAjn2Y1H0tldPiWmZ_k1MK7XgN4G8u0s0b8qsCkmkkZb3fqBCXWAACEz_OoRiNfcIP0HNR24KgWWyzRYlqHXt1Jp-H95bcSTiX71w1nhwqOobOtlihU7jU", "width": 4480}], "place_id": "ChIJdV-a6pjm9jkRCMFO4wj-bAI", "plus_code": {"compound_code": "JRV2+36 Heddi, West Bengal, India", "global_code": "7MM8JRV2+36"}, "rating": 4, "reference": "ChIJdV-a6pjm9jkRCMFO4wj-bAI", "scope": "GOOGLE", "types": ["school", "point_of_interest", "establishment"], "user_ratings_total": 2, "vicinity": "Heddi"}, {"business_status": "OPERATIONAL", "geometry": {"location": {"lat": 23.6459855, "lng": 86.8016066}, "viewport": {"northeast": {"lat": 23.6471571802915, "lng": 86.8030716302915}, "southwest": {"lat": 23.6444592197085, "lng": 86.80037366970849}}}, "icon": "https://maps.gstatic.com/mapfiles/place_api/icons/v1/png_71/school-71.png", "name": "Heddih I ICDS, Heddih", "photos": [{"height": 4160, "html_attributions": ["<a href=\"https://maps.google.com/maps/contrib/105614682896789581548\">Sudip Tikait</a>"], "photo_reference": "ATtYBwIqqpFgEevrsswZj121gGN4bmB2H-OKBSTVlHoxRSBHLh6bgZpeSkAjrQ0NRLt197vMpxvwE7K48UTwSOZaslpcXfrAsUOD9f2nHeFLsZIIHPDCqjzTwjxysPxtYqwdYakLSCC1mz_yyVAVQ2cKpJV8dIgmjASJi1cmBS1dWJu0QsNV", "width": 3120}], "place_id": "ChIJQ5cFDJjm9jkRvZDRT4RYQCo", "plus_code": {"compound_code": "JRW2+9J Heddi, West Bengal, India", "global_code": "7MM8JRW2+9J"}, "rating": 3, "reference": "ChIJQ5cFDJjm9jkRvZDRT4RYQCo", "scope": "GOOGLE", "types": ["school", "point_of_interest", "establishment"], "user_ratings_total": 1, "vicinity": "Heddi, Neturia Block"}, {"business_status": "OPERATIONAL", "geometry": {"location": {"lat": 23.649525, "lng": 86.813277}, "viewport": {"northeast": {"lat": 23.6509499302915, "lng": 86.81467148029151}, "southwest": {"lat": 23.6482519697085, "lng": 86.8119735197085}}}, "icon": "https://maps.gstatic.com/mapfiles/place_api/icons/v1/png_71/school-71.png", "name": "Sarbari(Raghunathpur)Polytechnic Collage", "photos": [{"height": 2448, "html_attributions": ["<a href=\"https://maps.google.com/maps/contrib/101334902068520441807\">RAMYANATH MAJHI</a>"], "photo_reference": "ATtYBwLlCLTPSQsj-WBfbQhCeD_QbC3oP4DVy270HOIzpL0rXVMS4LMz6kftN983bcbgkstvR8411I8GRhbG_TDXfkFM75kNBAGnCDb76jwqMK0_k1pBcde3K6NJAbuaQzXXIfZ2pFJsSU2xZhZBmrO60qs9JeXW_k-C9VkuAqygPLVY-uGC", "width": 3264}], "place_id": "ChIJafaiQrDm9jkR_3mlIZ4A61I", "plus_code": {"compound_code": "JRX7+R8 Sultandi, West Bengal, India", "global_code": "7MM8JRX7+R8"}, "rating": 4.6, "reference": "ChIJafaiQrDm9jkR_3mlIZ4A61I", "scope": "GOOGLE", "types": ["school", "point_of_interest", "establishment"], "user_ratings_total": 9, "vicinity": "Sultandi"}, {"business_status": "OPERATIONAL", "geometry": {"location": {"lat": 23.6429769, "lng": 86.79956639999999}, "viewport": {"northeast": {"lat": 23.6445813802915, "lng": 86.8013175802915}, "southwest": {"lat": 23.6418834197085, "lng": 86.79861961970849}}}, "icon": "https://maps.gstatic.com/mapfiles/place_api/icons/v1/png_71/school-71.png", "name": "MADRASHA DARUL-ULUM HUSSENIA", "place_id": "ChIJnTTmVCLn9jkR9tWleaaFqcI", "plus_code": {"compound_code": "JQVX+5R Heddi, West Bengal, India", "global_code": "7MM8JQVX+5R"}, "reference": "ChIJnTTmVCLn9jkR9tWleaaFqcI", "scope": "GOOGLE", "types": ["school", "point_of_interest", "establishment"], "vicinity": "Heddi"}, {"business_status": "OPERATIONAL", "geometry": {"location": {"lat": 23.6502539, "lng": 86.81175739999999}, "viewport": {"northeast": {"lat": 23.6516550302915, "lng": 86.8130270802915}, "southwest": {"lat": 23.6489570697085, "lng": 86.8103291197085}}}, "icon": "https://maps.gstatic.com/mapfiles/place_api/icons/v1/png_71/school-71.png", "name": "Sarbari Junior High School", "opening_hours": {"open_now": true}, "photos": [{"height": 3096, "html_attributions": ["<a href=\"https://maps.google.com/maps/contrib/104595762053858799938\">Anuttam Jana</a>"], "photo_reference": "ATtYBwKsA7SrUzBx1JgSquFh2m5u4HEEPG-fkK6UxzxksVuwEJ9pOnSMb-KWCo_sKDIR1-CmvqsUPtHJ9e779wNYhAm_stSJsHYArrmhTJfFAbb4Eq-7J2IIb6Kw0MbXYod5v_B8vhijzYSao7_8sAg7XoMAtXNnFoWGJ-So2_uvTu8vVtmD", "width": 4128}], "place_id": "ChIJRQGWgLrm9jkRNLX9Xmmxk2c", "plus_code": {"compound_code": "MR26+4P Sultandi, West Bengal, India", "global_code": "7MM8MR26+4P"}, "rating": 4.2, "reference": "ChIJRQGWgLrm9jkRNLX9Xmmxk2c", "scope": "GOOGLE", "types": ["school", "point_of_interest", "establishment"], "user_ratings_total": 9, "vicinity": ""}, {"business_status": "OPERATIONAL", "geometry": {"location": {"lat": 23.6490304, "lng": 86.8185944}, "viewport": {"northeast": {"lat": 23.6503111302915, "lng": 86.81989188029151}, "southwest": {"lat": 23.6476131697085, "lng": 86.81719391970849}}}, "icon": "https://maps.gstatic.com/mapfiles/place_api/icons/v1/png_71/school-71.png", "name": "GARH PANCHKOT INTERNATIONAL SCHOOL", "opening_hours": {"open_now": false}, "photos": [{"height": 4000, "html_attributions": ["<a href=\"https://maps.google.com/maps/contrib/101898250571676284377\">Shivjee Burman</a>"], "photo_reference": "ATtYBwJ8-UnumIm1ns5cvQiV_0LL4FP7lfeT_CgKNwiZsQDGOh2eTy63WW5Nq5jXo__y2oKmRVw48w1DywzIbzYHIcvGbU_CdxPPyRZQNpxMyXczjq8qI9fWED_cpBGrTFPyaMFE8qL6zKx5nyUoYuJjK_RP3Y2Z37wNXuDEOzfn3xquuwIz", "width": 6000}], "place_id": "ChIJeeUcQrLm9jkRmrPFRtAelPI", "plus_code": {"compound_code": "JRX9+JC Sultandi, West Bengal, India", "global_code": "7MM8JRX9+JC"}, "rating": 4.8, "reference": "ChIJeeUcQrLm9jkRmrPFRtAelPI", "scope": "GOOGLE", "types": ["school", "point_of_interest", "establishment"], "user_ratings_total": 9, "vicinity": "Sabari More, P.S.- Nituria, Dist.:"}], "status": "OK"}