{"html_attributions": [], "results": [{"business_status": "OPERATIONAL", "geometry": {"location": {"lat": 23.9386477, "lng": 86.8034452}, "viewport": {"northeast": {"lat": 23.93989448029151, "lng": 86.80509128029149}, "southwest": {"lat": 23.9371965197085, "lng": 86.80239331970849}}}, "icon": "https://maps.gstatic.com/mapfiles/place_api/icons/v1/png_71/school-71.png", "name": "Ukramit vidyalay bauripara", "place_id": "ChIJoaGjdJDR9jkRL3aAdbPmuKU", "plus_code": {"compound_code": "WRQ3+F9 Jamtara, Jharkhand, India", "global_code": "7MM8WRQ3+F9"}, "reference": "ChIJoaGjdJDR9jkRL3aAdbPmuKU", "scope": "GOOGLE", "types": ["school", "point_of_interest", "establishment"], "vicinity": "Unnamed Road, Jamtara"}, {"business_status": "OPERATIONAL", "geometry": {"location": {"lat": 23.9351594, "lng": 86.80398129999999}, "viewport": {"northeast": {"lat": 23.9364939302915, "lng": 86.80536613029152}, "southwest": {"lat": 23.93379596970849, "lng": 86.80266816970851}}}, "icon": "https://maps.gstatic.com/mapfiles/place_api/icons/v1/png_71/school-71.png", "name": "Chakri School", "photos": [{"height": 3120, "html_attributions": ["<a href=\"https://maps.google.com/maps/contrib/109312736338661270579\">Ashok Singh</a>"], "photo_reference": "ATtYBwIrkMaaNVeoAVQDm06ZfZ-dtrSxQs0c9Iczjw_q4raxoqgH0vIv8XNKWSxUEqu2H24r7shomilEjkL4lB-1vs24U4bFrQUhMer_YJNtAkHYoFVDFph_LilwUSUnf34Kho9e9eihprXJROlysQgpisPcDEfyr5a85Od9xUp1Ip17k_jL", "width": 4160}], "place_id": "ChIJf-WGkbvR9jkRmw0G_wwSOHQ", "plus_code": {"compound_code": "WRP3+3H Chakri, Jharkhand, India", "global_code": "7MM8WRP3+3H"}, "rating": 2, "reference": "ChIJf-WGkbvR9jkRmw0G_wwSOHQ", "scope": "GOOGLE", "types": ["school", "point_of_interest", "establishment"], "user_ratings_total": 1, "vicinity": "Chakri"}, {"business_status": "OPERATIONAL", "geometry": {"location": {"lat": 23.9418567, "lng": 86.8224087}, "viewport": {"northeast": {"lat": 23.9432177302915, "lng": 86.8235882802915}, "southwest": {"lat": 23.9405197697085, "lng": 86.8208903197085}}}, "icon": "https://maps.gstatic.com/mapfiles/place_api/icons/v1/png_71/school-71.png", "name": "Saddam Ansari", "photos": [{"height": 1333, "html_attributions": ["<a href=\"https://maps.google.com/maps/contrib/101101352747312947711\">abdul ajid ansari</a>"], "photo_reference": "ATtYBwLny4UfMyYs84OdKYhL-ZQ_E4-f6TZvAcl8nCKzO5rsCVUtk2VRv0p8GxIZqgS8Pwt7UuXj9onal2p7Yrpd3DnbTtz9HKvba7OVwaZVX1G4TpZZZI6vYX5JFVv1EO01Pg1RMBuraNnKrDoKvVTSf5rG_9wpvKhlYMcuJk-Uv1RodkhW", "width": 652}], "place_id": "ChIJmxtFoprX9jkRL3ae4XYhz9g", "plus_code": {"compound_code": "WRRC+PX Jamtara, Jharkhand, India", "global_code": "7MM8WRRC+PX"}, "rating": 5, "reference": "ChIJmxtFoprX9jkRL3ae4XYhz9g", "scope": "GOOGLE", "types": ["school", "point_of_interest", "establishment"], "user_ratings_total": 1, "vicinity": "Unnamed Road, Beoa, Jamtara"}, {"business_status": "OPERATIONAL", "geometry": {"location": {"lat": 23.94959, "lng": 86.817166}, "viewport": {"northeast": {"lat": 23.9509389802915, "lng": 86.8185149802915}, "southwest": {"lat": 23.9482410197085, "lng": 86.81581701970849}}}, "icon": "https://maps.gstatic.com/mapfiles/place_api/icons/v1/png_71/school-71.png", "name": "Bada Business Private Limited. Com", "photos": [{"height": 1280, "html_attributions": ["<a href=\"https://maps.google.com/maps/contrib/113480659964990816153\">Bada Business Private Limited. Com</a>"], "photo_reference": "ATtYBwJzMSYAE6I5ARnLJGWAEEwbS8I8Y2Fiix9Qc5zYUwkG05cspFaMlvGmfgiu14GETpIpmg3F8WZE5xmHNsYTiouZzcIBpAcpE74II3yuutzQZYXYaxjKugSvxfXkcvN5suDlP-DiAUj0CXBFY1vlkBOoVNotUncfp7h4OOzjc2Irv1WH", "width": 1280}], "place_id": "ChIJEfMFvdTR9jkRdgyHdqfyR0g", "plus_code": {"compound_code": "WRX8+RV Jamtara, Jharkhand, India", "global_code": "7MM8WRX8+RV"}, "reference": "ChIJEfMFvdTR9jkRdgyHdqfyR0g", "scope": "GOOGLE", "types": ["school", "point_of_interest", "establishment"], "vicinity": "Jamtara"}, {"business_status": "OPERATIONAL", "geometry": {"location": {"lat": 23.9505496, "lng": 86.8170131}, "viewport": {"northeast": {"lat": 23.9522605302915, "lng": 86.8185860302915}, "southwest": {"lat": 23.9495625697085, "lng": 86.81588806970849}}}, "icon": "https://maps.gstatic.com/mapfiles/place_api/icons/v1/png_71/school-71.png", "name": "Pt R S Model School Kashidih Ranigoj Jamtara", "opening_hours": {"open_now": false}, "place_id": "ChIJTez3ib7R9jkRjcLICxWDu6g", "plus_code": {"compound_code": "XR28+6R Jamtara, Jharkhand, India", "global_code": "7MM8XR28+6R"}, "reference": "ChIJTez3ib7R9jkRjcLICxWDu6g", "scope": "GOOGLE", "types": ["school", "point_of_interest", "establishment"], "vicinity": "kashidih Ranigoj, Jamtara"}, {"business_status": "OPERATIONAL", "geometry": {"location": {"lat": 23.9505496, "lng": 86.8170131}, "viewport": {"northeast": {"lat": 23.9522605302915, "lng": 86.8185860302915}, "southwest": {"lat": 23.9495625697085, "lng": 86.81588806970849}}}, "icon": "https://maps.gstatic.com/mapfiles/place_api/icons/v1/png_71/school-71.png", "name": "Upgraded Middle School", "place_id": "ChIJVVVVVcnQ9jkR-YJK3tLexjU", "plus_code": {"compound_code": "XR28+6R Jamtara, Jharkhand, India", "global_code": "7MM8XR28+6R"}, "reference": "ChIJVVVVVcnQ9jkR-YJK3tLexjU", "scope": "GOOGLE", "types": ["school", "point_of_interest", "establishment"], "vicinity": "Amalchater, Jamtara"}, {"business_status": "OPERATIONAL", "geometry": {"location": {"lat": 23.9505496, "lng": 86.81701319999999}, "viewport": {"northeast": {"lat": 23.9522605302915, "lng": 86.8185861302915}, "southwest": {"lat": 23.9495625697085, "lng": 86.81588816970849}}}, "icon": "https://maps.gstatic.com/mapfiles/place_api/icons/v1/png_71/school-71.png", "name": "\u0936\u0947\u0930\u094b \u0915\u093e \u091c\u093f\u0932\u093e \u091c\u093e\u092e\u0924\u093e\u0921\u093c\u093e", "place_id": "ChIJgWqDf93R9jkRy-kDXjoc4S8", "plus_code": {"compound_code": "XR28+6R Jamtara, Jharkhand, India", "global_code": "7MM8XR28+6R"}, "reference": "ChIJgWqDf93R9jkRy-kDXjoc4S8", "scope": "GOOGLE", "types": ["school", "point_of_interest", "establishment"], "vicinity": "Jamtara"}, {"business_status": "OPERATIONAL", "geometry": {"location": {"lat": 23.9505496, "lng": 86.81701319999999}, "viewport": {"northeast": {"lat": 23.9522605302915, "lng": 86.8185861302915}, "southwest": {"lat": 23.9495625697085, "lng": 86.81588816970849}}}, "icon": "https://maps.gstatic.com/mapfiles/place_api/icons/v1/png_71/school-71.png", "name": "Ramdas hembrom", "place_id": "ChIJK2VZ_VPR9jkRX0QVLHUkDw8", "plus_code": {"compound_code": "XR28+6R Jamtara, Jharkhand, India", "global_code": "7MM8XR28+6R"}, "reference": "ChIJK2VZ_VPR9jkRX0QVLHUkDw8", "scope": "GOOGLE", "types": ["school", "point_of_interest", "establishment"], "vicinity": "Jamtara"}, {"business_status": "OPERATIONAL", "geometry": {"location": {"lat": 23.9505496, "lng": 86.81701319999999}, "viewport": {"northeast": {"lat": 23.9522605302915, "lng": 86.8185861302915}, "southwest": {"lat": 23.9495625697085, "lng": 86.81588816970849}}}, "icon": "https://maps.gstatic.com/mapfiles/place_api/icons/v1/png_71/school-71.png", "name": "Jama Masjid", "place_id": "ChIJHzxQ0I3R9jkRsXs9xM0Trc8", "plus_code": {"compound_code": "XR28+6R Jamtara, Jharkhand, India", "global_code": "7MM8XR28+6R"}, "reference": "ChIJHzxQ0I3R9jkRsXs9xM0Trc8", "scope": "GOOGLE", "types": ["school", "point_of_interest", "establishment"], "vicinity": "Jamtara"}, {"business_status": "OPERATIONAL", "geometry": {"location": {"lat": 23.9505496, "lng": 86.81701319999999}, "viewport": {"northeast": {"lat": 23.9522605302915, "lng": 86.8185861302915}, "southwest": {"lat": 23.9495625697085, "lng": 86.81588816970849}}}, "icon": "https://maps.gstatic.com/mapfiles/place_api/icons/v1/png_71/school-71.png", "name": "NEPAL,kumsr,Mahato", "opening_hours": {"open_now": false}, "place_id": "ChIJ_____8vQ9jkRFRYnDrLczGw", "plus_code": {"compound_code": "XR28+6R Jamtara, Jharkhand, India", "global_code": "7MM8XR28+6R"}, "reference": "ChIJ_____8vQ9jkRFRYnDrLczGw", "scope": "GOOGLE", "types": ["school", "point_of_interest", "establishment"], "vicinity": "Chak Rakasabad, Jamtara"}, {"business_status": "OPERATIONAL", "geometry": {"location": {"lat": 23.9505496, "lng": 86.81701319999999}, "viewport": {"northeast": {"lat": 23.9522605302915, "lng": 86.8185861302915}, "southwest": {"lat": 23.9495625697085, "lng": 86.81588816970849}}}, "icon": "https://maps.gstatic.com/mapfiles/place_api/icons/v1/png_71/school-71.png", "name": "Aryan Calab Jamtara", "place_id": "ChIJ_____8vQ9jkRXbQTUjcLAsU", "plus_code": {"compound_code": "XR28+6R Jamtara, Jharkhand, India", "global_code": "7MM8XR28+6R"}, "reference": "ChIJ_____8vQ9jkRXbQTUjcLAsU", "scope": "GOOGLE", "types": ["school", "point_of_interest", "establishment"], "vicinity": "Chak Rakasabad, Jamtara"}, {"business_status": "OPERATIONAL", "geometry": {"location": {"lat": 23.9505496, "lng": 86.81701319999999}, "viewport": {"northeast": {"lat": 23.9522605302915, "lng": 86.8185861302915}, "southwest": {"lat": 23.9495625697085, "lng": 86.81588816970849}}}, "icon": "https://maps.gstatic.com/mapfiles/place_api/icons/v1/png_71/school-71.png", "name": "UMS DHANBAD URDU MIHIJM JAMTARA", "photos": [{"height": 3120, "html_attributions": ["<a href=\"https://maps.google.com/maps/contrib/102531399079997190494\">DHARAMVIR KUMAR BHARTI</a>"], "photo_reference": "ATtYBwKCgt6oZimjqvibJikzh0_4-ObWsv_vkjVSAhnqoIWFcf_GXd05uxK0BMh-LLyuDjNB4GhzpxqCCOcvF7kWlEOzxZNT_r2pia78zFGFGc2QdtQcyjKAWwTvOiJqhWT15ttvyfqsPE_DbyT9szJJNWAVER4G0wlhYKTSMhXVaiRUcsQd", "width": 4160}], "place_id": "ChIJ_____8vQ9jkRdks-qpLEFwA", "plus_code": {"compound_code": "XR28+6R Jamtara, Jharkhand, India", "global_code": "7MM8XR28+6R"}, "reference": "ChIJ_____8vQ9jkRdks-qpLEFwA", "scope": "GOOGLE", "types": ["school", "point_of_interest", "establishment"], "vicinity": "Chak Rakasabad, Jamtara"}, {"business_status": "OPERATIONAL", "geometry": {"location": {"lat": 23.9505496, "lng": 86.81701319999999}, "viewport": {"northeast": {"lat": 23.9522605302915, "lng": 86.8185861302915}, "southwest": {"lat": 23.9495625697085, "lng": 86.81588816970849}}}, "icon": "https://maps.gstatic.com/mapfiles/place_api/icons/v1/png_71/school-71.png", "name": "Saraswati Vidya Mandir,Vidyasagar", "opening_hours": {"open_now": false}, "photos": [{"height": 480, "html_attributions": ["<a href=\"https://maps.google.com/maps/contrib/107622610769751976840\">Md Sabihuddin</a>"], "photo_reference": "ATtYBwKhG62zLdR8G5kAoUO6mZTRUHUSDesuxCWFQdNSNmA3A3LrnhwUaDjg7_ieIZTYNsGVIJwe4VxOaZz5igGC4pP8TcrlbTJp5vDOBPc7AqTY6aOv78KNWjfOFDnV6zI3dlfuBHlVmUvi4QfdmBuOeNm-_-u61VEqPpOCK-bKb5eSqHcp", "width": 640}], "place_id": "ChIJ-003UhjN9jkRor-dCgSSv9Y", "plus_code": {"compound_code": "XR28+6R Jamtara, Jharkhand, India", "global_code": "7MM8XR28+6R"}, "rating": 4.9, "reference": "ChIJ-003UhjN9jkRor-dCgSSv9Y", "scope": "GOOGLE", "types": ["school", "point_of_interest", "establishment"], "user_ratings_total": 7, "vicinity": "near vidyasagar railway station, Jamtara"}, {"business_status": "OPERATIONAL", "geometry": {"location": {"lat": 23.9505496, "lng": 86.81701319999999}, "viewport": {"northeast": {"lat": 23.9522605302915, "lng": 86.8185861302915}, "southwest": {"lat": 23.9495625697085, "lng": 86.81588816970849}}}, "icon": "https://maps.gstatic.com/mapfiles/place_api/icons/v1/png_71/school-71.png", "name": "Jamtara Hat Tola", "place_id": "ChIJGxKQhizR9jkRCmfxyjzEKSA", "plus_code": {"compound_code": "XR28+6R Jamtara, Jharkhand, India", "global_code": "7MM8XR28+6R"}, "reference": "ChIJGxKQhizR9jkRCmfxyjzEKSA", "scope": "GOOGLE", "types": ["school", "point_of_interest", "establishment"], "vicinity": "Jamtara"}], "status": "OK"}