{"html_attributions": [], "next_page_token": "ATtYBwK3FTBwUTb-Kgb52FO5iyhO6Jh3ZBG0Tuh_0r0PIHMpDjfreeqg3JBt-ksHPQ8GqoXIeYIl5WLkTDymWK3SGPpMfF2sPrlqsmq76Qo1TDRtWA5XwBclMhnd5DVn2K9HumLvpEbEaBGTlvYpu4kMRZ4EHDYj6tm1D_sDNeJhpPOSNWlC8-HTktOG48YFLXbgDJ10LEBzlXEYWz7jlZzAevjLdCgwga8_VOdgxZ-cxVkJBewBB6MJAVUGk-sDhx0uh0VgMuiG-yS7bH68vT7Q9ZhVIIrUamb0gsfN8e3YpjrzGYwkziiOufH9UrM6QS_q-4J_C_pSz0G3zFwiwDZX847WYrIMM8ym0B_GOEVzJj97ZD3WNPUCJQG4Ka4SkZu_wpZMQgeI09AbW9bFE9zdT-rdPGTX6EPSNd3vV2pydHO2EiPWQNc", "results": [{"business_status": "OPERATIONAL", "geometry": {"location": {"lat": 23.96045759999999, "lng": 86.808289}, "viewport": {"northeast": {"lat": 23.9618100302915, "lng": 86.8096329302915}, "southwest": {"lat": 23.9591120697085, "lng": 86.8069349697085}}}, "icon": "https://maps.gstatic.com/mapfiles/place_api/icons/v1/png_71/school-71.png", "name": "Oxford Public school", "opening_hours": {"open_now": false}, "place_id": "ChIJp8ATvtvQ9jkRBkHvBxI3Hbc", "plus_code": {"compound_code": "XR65+58 Jamtara, Jharkhand, India", "global_code": "7MM8XR65+58"}, "rating": 2.5, "reference": "ChIJp8ATvtvQ9jkRBkHvBxI3Hbc", "scope": "GOOGLE", "types": ["school", "point_of_interest", "establishment"], "user_ratings_total": 2, "vicinity": "Azad Para, Jamtara"}, {"business_status": "OPERATIONAL", "geometry": {"location": {"lat": 23.9693599, "lng": 86.81140429999999}, "viewport": {"northeast": {"lat": 23.9707703802915, "lng": 86.8127547802915}, "southwest": {"lat": 23.9680724197085, "lng": 86.81005681970849}}}, "icon": "https://maps.gstatic.com/mapfiles/place_api/icons/v1/png_71/school-71.png", "name": "D N Academy", "photos": [{"height": 407, "html_attributions": ["<a href=\"https://maps.google.com/maps/contrib/111373867749242675806\">Sougat Singh</a>"], "photo_reference": "ATtYBwK6YOX2lpaHtRmGIVmYoYaCrVFkU7v4eLp1q_BBxzvU-23paH3uvXsMx3Hu7k2JlBJR1qmrPpy0EAUuF1fM8DgMwnVWKCyozV1S5jnNDS6GsmPinHDcCvu4vjF_I9qRpRB97RW-4sLJEeZDdKykxdCfLTXyRy3_n3eik73Y0BJ8lB8o", "width": 720}], "place_id": "ChIJxdXi5SfR9jkRbsRS24mLrnc", "plus_code": {"compound_code": "XR96+PH Jamtara, Jharkhand, India", "global_code": "7MM8XR96+PH"}, "rating": 4.1, "reference": "ChIJxdXi5SfR9jkRbsRS24mLrnc", "scope": "GOOGLE", "types": ["school", "point_of_interest", "establishment"], "user_ratings_total": 18, "vicinity": "Kali Mandir, Jamtara"}, {"business_status": "OPERATIONAL", "geometry": {"location": {"lat": 23.9599147, "lng": 86.81017489999999}, "viewport": {"northeast": {"lat": 23.9611886302915, "lng": 86.8114804302915}, "southwest": {"lat": 23.9584906697085, "lng": 86.80878246970849}}}, "icon": "https://maps.gstatic.com/mapfiles/place_api/icons/v1/png_71/school-71.png", "name": "Music coach", "place_id": "ChIJK7e7I0XR9jkRizkqHOJgQs0", "plus_code": {"compound_code": "XR56+X3 Jamtara, Jharkhand, India", "global_code": "7MM8XR56+X3"}, "reference": "ChIJK7e7I0XR9jkRizkqHOJgQs0", "scope": "GOOGLE", "types": ["school", "point_of_interest", "establishment"], "vicinity": "Bus stand, Jamtara"}, {"business_status": "OPERATIONAL", "geometry": {"location": {"lat": 23.9596549, "lng": 86.8099814}, "viewport": {"northeast": {"lat": 23.9610668802915, "lng": 86.8113666802915}, "southwest": {"lat": 23.9583689197085, "lng": 86.80866871970849}}}, "icon": "https://maps.gstatic.com/mapfiles/place_api/icons/v1/png_71/school-71.png", "name": "Music Academy", "place_id": "ChIJreFpRsjR9jkR4Zfn9Ev5jo8", "plus_code": {"compound_code": "XR55+VX Jamtara, Jharkhand, India", "global_code": "7MM8XR55+VX"}, "reference": "ChIJreFpRsjR9jkR4Zfn9Ev5jo8", "scope": "GOOGLE", "types": ["school", "point_of_interest", "establishment"], "vicinity": "Bus stand, Jamtara"}, {"business_status": "OPERATIONAL", "geometry": {"location": {"lat": 23.9596549, "lng": 86.8099814}, "viewport": {"northeast": {"lat": 23.9610668802915, "lng": 86.8113666802915}, "southwest": {"lat": 23.9583689197085, "lng": 86.80866871970849}}}, "icon": "https://maps.gstatic.com/mapfiles/place_api/icons/v1/png_71/school-71.png", "name": "Kr. Musician", "place_id": "ChIJCc6OQtHR9jkRBUohVvmTNQM", "plus_code": {"compound_code": "XR55+VX Jamtara, Jharkhand, India", "global_code": "7MM8XR55+VX"}, "reference": "ChIJCc6OQtHR9jkRBUohVvmTNQM", "scope": "GOOGLE", "types": ["school", "point_of_interest", "establishment"], "vicinity": "Bus stand, Jamtara"}, {"business_status": "OPERATIONAL", "geometry": {"location": {"lat": 23.9577568, "lng": 86.8078263}, "viewport": {"northeast": {"lat": 23.9591500302915, "lng": 86.8091909802915}, "southwest": {"lat": 23.9564520697085, "lng": 86.8064930197085}}}, "icon": "https://maps.gstatic.com/mapfiles/place_api/icons/v1/png_71/school-71.png", "name": "SUCCESS MANTRA", "photos": [{"height": 640, "html_attributions": ["<a href=\"https://maps.google.com/maps/contrib/106198061849212774745\">Voice of Truth</a>"], "photo_reference": "ATtYBwJT8nYUrvlXIbCim85uBVatwz0hLhiuGIc90CF4jMPGH934XhOy1iAFrEFoUdrc-SsUbpyBHEX5LKwlGeWOar8p-Giqc1yG-agULIWG1UIKqG5KWNWhcB22_9FsyE7kM1_pnAS2Uu7a7PQphUPW2Pd2Fw_3VJmpUipSxG_65rJIwzU2", "width": 640}], "place_id": "ChIJHxNzQtvQ9jkRKfjdnTqD8Pk", "plus_code": {"compound_code": "XR55+44 Jamtara, Jharkhand, India", "global_code": "7MM8XR55+44"}, "reference": "ChIJHxNzQtvQ9jkRKfjdnTqD8Pk", "scope": "GOOGLE", "types": ["school", "point_of_interest", "establishment"], "vicinity": "Jamtara - Dhanbad Road, Chak Rakasabad, Jamtara"}, {"business_status": "OPERATIONAL", "geometry": {"location": {"lat": 23.9627858, "lng": 86.8115498}, "viewport": {"northeast": {"lat": 23.96416733029151, "lng": 86.8128584802915}, "southwest": {"lat": 23.9614693697085, "lng": 86.81016051970849}}}, "icon": "https://maps.gstatic.com/mapfiles/place_api/icons/v1/png_71/school-71.png", "name": "Our Study center(Anal sir)", "opening_hours": {"open_now": false}, "photos": [{"height": 4160, "html_attributions": ["<a href=\"https://maps.google.com/maps/contrib/104496105639156528169\">Our Study center(Anal sir)</a>"], "photo_reference": "ATtYBwKkzLIil0A57BlcCap6lBDRhyh0Mu7VIJSblF_URb0eNLzQWiHOF9pCzwmwkyEvzNBMJPxtj8cwub99aR1OymYOnRdjwpb0CJqLB6MIYbQjLVjfet5APvuxy8i_sRe_2qrdkOSHujAREY9Nm7767_qhQ1Tt7-S3u8jVKevkjUbKY7PY", "width": 1968}], "place_id": "ChIJD3SeLWDR9jkRHB2uONQ2fKQ", "plus_code": {"compound_code": "XR76+4J Jamtara, Jharkhand, India", "global_code": "7MM8XR76+4J"}, "rating": 5, "reference": "ChIJD3SeLWDR9jkRHB2uONQ2fKQ", "scope": "GOOGLE", "types": ["school", "point_of_interest", "establishment"], "user_ratings_total": 5, "vicinity": "Unnamed Road, Patharchapra, Jamtara"}, {"business_status": "OPERATIONAL", "geometry": {"location": {"lat": 23.9585508, "lng": 86.8137421}, "viewport": {"northeast": {"lat": 23.9599178302915, "lng": 86.81509408029152}, "southwest": {"lat": 23.95721986970849, "lng": 86.8123961197085}}}, "icon": "https://maps.gstatic.com/mapfiles/place_api/icons/v1/png_71/school-71.png", "name": "Vikas vidylay", "place_id": "ChIJP8IYRdDQ9jkR1pXOXnN8_h0", "plus_code": {"compound_code": "XR57+CF Jamtara, Jharkhand, India", "global_code": "7MM8XR57+CF"}, "reference": "ChIJP8IYRdDQ9jkR1pXOXnN8_h0", "scope": "GOOGLE", "types": ["school", "point_of_interest", "establishment"], "vicinity": "Dumka - Jamtara Road, Patharchapra, Jamtara"}, {"business_status": "OPERATIONAL", "geometry": {"location": {"lat": 23.9594631, "lng": 86.8059006}, "viewport": {"northeast": {"lat": 23.9608026302915, "lng": 86.80724743029151}, "southwest": {"lat": 23.9581046697085, "lng": 86.80454946970849}}}, "icon": "https://maps.gstatic.com/mapfiles/place_api/icons/v1/png_71/school-71.png", "name": "aadrash middle school", "place_id": "ChIJbXN7X93R9jkRnLI-e691q74", "plus_code": {"compound_code": "XR54+Q9 Jamtara, Jharkhand, India", "global_code": "7MM8XR54+Q9"}, "rating": 1, "reference": "ChIJbXN7X93R9jkRnLI-e691q74", "scope": "GOOGLE", "types": ["school", "point_of_interest", "establishment"], "user_ratings_total": 1, "vicinity": "Chak Rakasabad, Jamtara"}, {"business_status": "OPERATIONAL", "geometry": {"location": {"lat": 23.9586104, "lng": 86.8044383}, "viewport": {"northeast": {"lat": 23.95994393029151, "lng": 86.8057898802915}, "southwest": {"lat": 23.95724596970851, "lng": 86.80309191970848}}}, "icon": "https://maps.gstatic.com/mapfiles/place_api/icons/v1/png_71/school-71.png", "name": "balaram sir coaching centre math's", "opening_hours": {"open_now": false}, "photos": [{"height": 1080, "html_attributions": ["<a href=\"https://maps.google.com/maps/contrib/113777296498934008724\">Kundan Das</a>"], "photo_reference": "ATtYBwKWbbf4hEC0We89iJgo1GwGohQG_7B0BBLt9QSbidkicnDYEaXI3T2iqQbaz5Wu_LD87Hy1XVv1rpbGIcMT0r92twPgtFUrV-c6kBvDnjRLlXQxkA7NYp2EWZqqDbTXCgg_VEc3594Sz-HjZNi0avDZL4EOmZtDGPP5uhhFnVm04c9M", "width": 1920}], "place_id": "ChIJU5pupMfR9jkR3WM8g5wE8Pw", "plus_code": {"compound_code": "XR53+CQ Jamtara, Jharkhand, India", "global_code": "7MM8XR53+CQ"}, "reference": "ChIJU5pupMfR9jkR3WM8g5wE8Pw", "scope": "GOOGLE", "types": ["secondary_school", "university", "school", "point_of_interest", "establishment"], "vicinity": "Jamtara - Dhanbad Road, Chak Rakasabad, Jamtara"}, {"business_status": "OPERATIONAL", "geometry": {"location": {"lat": 23.9625156, "lng": 86.8027972}, "viewport": {"northeast": {"lat": 23.9639306302915, "lng": 86.80416053029151}, "southwest": {"lat": 23.9612326697085, "lng": 86.8014625697085}}}, "icon": "https://maps.gstatic.com/mapfiles/place_api/icons/v1/png_71/school-71.png", "name": "Bachpan Play School Jamtara", "opening_hours": {"open_now": true}, "photos": [{"height": 3096, "html_attributions": ["<a href=\"https://maps.google.com/maps/contrib/101245567309053654551\">BACHPAN a play school JAMTARA</a>"], "photo_reference": "ATtYBwIb7NQvOudmtIw8kmGqjjaz65Z18kakkiQH2sKXtBVDqYy6_amcQptAKXABbOxVlUomUuNMO54_Cz1eGH238NVf45uD22vdUOo65lOCMmzYayzN6Q8MXIRUp2gbAJFsF0Cal-FnX7AjQyj8JLCMNn8GR6y4kefo2IS5UUxHP7_hL-jA", "width": 4128}], "place_id": "ChIJl-VMMfPR9jkR92aNSMau6ww", "plus_code": {"compound_code": "XR73+24 Jamtara, Jharkhand, India", "global_code": "7MM8XR73+24"}, "rating": 5, "reference": "ChIJl-VMMfPR9jkR92aNSMau6ww", "scope": "GOOGLE", "types": ["school", "point_of_interest", "establishment"], "user_ratings_total": 7, "vicinity": "Above Bank of India, Kayesthapara Road, Jamtara"}, {"business_status": "OPERATIONAL", "geometry": {"location": {"lat": 23.9668529, "lng": 86.8079989}, "viewport": {"northeast": {"lat": 23.9682145802915, "lng": 86.80934893029149}, "southwest": {"lat": 23.9655166197085, "lng": 86.80665096970849}}}, "icon": "https://maps.gstatic.com/mapfiles/place_api/icons/v1/png_71/school-71.png", "name": "Vijay Tech Classes", "place_id": "ChIJjX9M_H7R9jkRXl3jALO5u2s", "plus_code": {"compound_code": "XR85+P5 Jamtara, Jharkhand, India", "global_code": "7MM8XR85+P5"}, "rating": 5, "reference": "ChIJjX9M_H7R9jkRXl3jALO5u2s", "scope": "GOOGLE", "types": ["school", "point_of_interest", "establishment"], "user_ratings_total": 3, "vicinity": "Rajbari Road, Dhaiya, Jamtara"}, {"business_status": "OPERATIONAL", "geometry": {"location": {"lat": 23.9612175, "lng": 86.80197369999999}, "viewport": {"northeast": {"lat": 23.9623278302915, "lng": 86.8031938802915}, "southwest": {"lat": 23.9596298697085, "lng": 86.8004959197085}}}, "icon": "https://maps.gstatic.com/mapfiles/place_api/icons/v1/png_71/school-71.png", "name": "JBC School", "photos": [{"height": 3120, "html_attributions": ["<a href=\"https://maps.google.com/maps/contrib/104588295725639433881\">Sanjeev Kumar Singh</a>"], "photo_reference": "ATtYBwIJfYSIaSgAXSD9buzmHQBA2X-bJgTGobZLlCYIpXXUB9Z803wCDGm1x2qGEzgVFPiZIGTc9Q9Gdj4j-fg7BBms-IvSyEcwRhhwWGpKHOxw2xSpiJkVk7IVS0_9GmL_LYPUAJ12jPs6G0IvvpUe31w14ra7KkUk5CYLNUieW1Hywu6-", "width": 4160}], "place_id": "ChIJla4ET-fQ9jkRN9hC7PfsOCk", "plus_code": {"compound_code": "XR62+FQ Jamtara, Jharkhand, India", "global_code": "7MM8XR62+FQ"}, "rating": 4.2, "reference": "ChIJla4ET-fQ9jkRN9hC7PfsOCk", "scope": "GOOGLE", "types": ["school", "secondary_school", "point_of_interest", "establishment"], "user_ratings_total": 31, "vicinity": "Station Road, Jamtara"}, {"business_status": "OPERATIONAL", "geometry": {"location": {"lat": 23.9630564, "lng": 86.8025691}, "viewport": {"northeast": {"lat": 23.96420383029151, "lng": 86.80403788029152}, "southwest": {"lat": 23.9615058697085, "lng": 86.8013399197085}}}, "icon": "https://maps.gstatic.com/mapfiles/place_api/icons/v1/png_71/school-71.png", "name": "Board School Jamtara", "place_id": "ChIJ02uAGt7Q9jkRcKVA2CxVG6k", "plus_code": {"compound_code": "XR73+62 Jamtara, Jharkhand, India", "global_code": "7MM8XR73+62"}, "rating": 4, "reference": "ChIJ02uAGt7Q9jkRcKVA2CxVG6k", "scope": "GOOGLE", "types": ["school", "point_of_interest", "establishment"], "user_ratings_total": 1, "vicinity": "815351, Kayesthapara Road, Jamtara"}, {"business_status": "OPERATIONAL", "geometry": {"location": {"lat": 23.9657797, "lng": 86.80424350000001}, "viewport": {"northeast": {"lat": 23.9670929302915, "lng": 86.80554828029152}, "southwest": {"lat": 23.9643949697085, "lng": 86.80285031970851}}}, "icon": "https://maps.gstatic.com/mapfiles/place_api/icons/v1/png_71/school-71.png", "name": "Chemistry Coching St antoni school", "place_id": "ChIJveHHczPR9jkRrTtwGGyJqlk", "plus_code": {"compound_code": "XR83+8M Jamtara, Jharkhand, India", "global_code": "7MM8XR83+8M"}, "reference": "ChIJveHHczPR9jkRrTtwGGyJqlk", "scope": "GOOGLE", "types": ["school", "point_of_interest", "establishment"], "vicinity": "Kayesthapara, Jamtara"}, {"business_status": "OPERATIONAL", "geometry": {"location": {"lat": 23.96592429999999, "lng": 86.80415529999999}, "viewport": {"northeast": {"lat": 23.9672605302915, "lng": 86.8054566302915}, "southwest": {"lat": 23.96456256970849, "lng": 86.8027586697085}}}, "icon": "https://maps.gstatic.com/mapfiles/place_api/icons/v1/png_71/school-71.png", "name": "St. Anthony School", "opening_hours": {"open_now": true}, "photos": [{"height": 1836, "html_attributions": ["<a href=\"https://maps.google.com/maps/contrib/114738384860159481829\">Ankita Supriya</a>"], "photo_reference": "ATtYBwIHUncXGJDXQlbQvJJwI3thehHmuSpMTfYhGyQJfv4nk9wgEUUubTqvtmiuP55icq52s9VvnEyVDqUQTGqjv58sQ-EsYRrmxmyn8VMrEVCd5dMMTKnCXk5Vu2qDtD0Lk697rQWosUO_7c-esZvTUCpUYP2vPMbCeVrRX9RtfOcLn7hT", "width": 3264}], "place_id": "ChIJmysGpt_Q9jkRqrSw-gvzrGI", "plus_code": {"compound_code": "XR83+9M Jamtara, Jharkhand, India", "global_code": "7MM8XR83+9M"}, "rating": 4.1, "reference": "ChIJmysGpt_Q9jkRqrSw-gvzrGI", "scope": "GOOGLE", "types": ["school", "point_of_interest", "establishment"], "user_ratings_total": 19, "vicinity": "Kayesthapara, Jamtara"}, {"business_status": "OPERATIONAL", "geometry": {"location": {"lat": 23.9611516, "lng": 86.8008948}, "viewport": {"northeast": {"lat": 23.9625082802915, "lng": 86.8022482802915}, "southwest": {"lat": 23.9598103197085, "lng": 86.79955031970849}}}, "icon": "https://maps.gstatic.com/mapfiles/place_api/icons/v1/png_71/school-71.png", "name": "J B C +2 High School Jamtara", "opening_hours": {"open_now": true}, "photos": [{"height": 480, "html_attributions": ["<a href=\"https://maps.google.com/maps/contrib/102776249777069628676\">Pawan Dutta</a>"], "photo_reference": "ATtYBwI3q-bK4K0ij3OVeXeocPp6k_z7Q15wuNeLGGNnffGufLH9-1cRG4bNtlO3cEyArEazcqpnwbX3tprx2XVmqLfSKXCChKcPSmOnf039YRTtq9RFnxTkqxwXPq386ElzmQ34JA6zxx_UpS9n1L8QGTprN78B3wmoXteW-WumsRac6ZxK", "width": 640}], "place_id": "ChIJGeT88gTR9jkRahY_77KG6gA", "plus_code": {"compound_code": "XR62+F9 Jamtara, Jharkhand, India", "global_code": "7MM8XR62+F9"}, "rating": 4.7, "reference": "ChIJGeT88gTR9jkRahY_77KG6gA", "scope": "GOOGLE", "types": ["school", "point_of_interest", "establishment"], "user_ratings_total": 7, "vicinity": "Govindapur, Jamtara"}, {"business_status": "OPERATIONAL", "geometry": {"location": {"lat": 23.9689729, "lng": 86.81010859999999}, "viewport": {"northeast": {"lat": 23.9702755302915, "lng": 86.8114347802915}, "southwest": {"lat": 23.9675775697085, "lng": 86.80873681970849}}}, "icon": "https://maps.gstatic.com/mapfiles/place_api/icons/v1/png_71/school-71.png", "name": "St.Anthony School", "place_id": "ChIJAQAAkCfR9jkRNPsCiSxR0tw", "plus_code": {"compound_code": "XR96+H2 Jamtara, Jharkhand, India", "global_code": "7MM8XR96+H2"}, "rating": 3, "reference": "ChIJAQAAkCfR9jkRNPsCiSxR0tw", "scope": "GOOGLE", "types": ["school", "point_of_interest", "establishment"], "user_ratings_total": 2, "vicinity": "Paredih, Jamtara"}, {"business_status": "OPERATIONAL", "geometry": {"location": {"lat": 23.9694851, "lng": 86.8112998}, "viewport": {"northeast": {"lat": 23.9708025802915, "lng": 86.81264803029151}, "southwest": {"lat": 23.9681046197085, "lng": 86.80995006970849}}}, "icon": "https://maps.gstatic.com/mapfiles/place_api/icons/v1/png_71/school-71.png", "name": "Laxmi Aditya", "place_id": "ChIJiSK5bjnR9jkRASXeA2L3uek", "plus_code": {"compound_code": "XR96+QG Jamtara, Jharkhand, India", "global_code": "7MM8XR96+QG"}, "reference": "ChIJiSK5bjnR9jkRASXeA2L3uek", "scope": "GOOGLE", "types": ["school", "point_of_interest", "establishment"], "vicinity": "Rajbari Road"}, {"business_status": "OPERATIONAL", "geometry": {"location": {"lat": 23.9609904, "lng": 86.82077260000001}, "viewport": {"northeast": {"lat": 23.9623629802915, "lng": 86.82217058029151}, "southwest": {"lat": 23.9596650197085, "lng": 86.8194726197085}}}, "icon": "https://maps.gstatic.com/mapfiles/place_api/icons/v1/png_71/school-71.png", "name": "Sanaul khan", "place_id": "ChIJsfUGOtvR9jkRonOp3k6ljk8", "plus_code": {"compound_code": "XR6C+98 Jamtara, Jharkhand, India", "global_code": "7MM8XR6C+98"}, "reference": "ChIJsfUGOtvR9jkRonOp3k6ljk8", "scope": "GOOGLE", "types": ["school", "point_of_interest", "establishment"], "vicinity": "Srirampur Road"}], "status": "OK"}