{"html_attributions": [], "next_page_token": "ATtYBwJ2_RLkEn1ZTteT5rZ7Vc_zWR4ZvWkikT__Sh454oyPhdED3rL7fO-ma5K_IUJOWSwxhZIMBEvwf6D9Gg2rWg-a1Zv478oDz8wGEOuuPl9iUHtuzgPImyajCFUFW3kLStkukqQAyfuNZNVqD4qLrAlQRVTtUIzbHq_2ihLlWHmUN5kiDJ_rt2XOf1Q7dPbMHTAYxFFwhh9sIY0OxU7-4ddJTIpv_i1eCeB0RSGbazT0WTqz1fYGbSKd_y_KYIPtYAMHnrH54IgCEYrzw5O2_QFAB0BYkdqHVUXZUN10G2Z_xi0K7IF-f9KVw2qY4mcA7MZJrBqRAN3Hg2ShaFP22MCapt190R_AUGKy_2vNQB_zQxi2s6yXPxuRQsI18FvDQY1-cu0CjRr2uGyZwaIkjKlN40HcotmqRCeoU_vIXZYmI6cF5w9o_dChp_JdJigFDV8QXe_vUuyoAAs5X0ohwuQCkugdEqsc_30GrqOk0GDid3J16iNL-z5-a1UKE0yfP5JKpybmYkyCFx_L0G8OuU6lM7pp1OJEGNpuLcoyUZmSS11m54IsmRI5oKNJt-HkMCKc86HMOIr9ovYwtzb35Qixq2YqGnNSLyxzMawwGA5ZsVio_GpFQWEhhulhILLbM2qcrqPs", "results": [{"business_status": "OPERATIONAL", "geometry": {"location": {"lat": 23.9644165, "lng": 86.8000306}, "viewport": {"northeast": {"lat": 23.9657654802915, "lng": 86.80137958029151}, "southwest": {"lat": 23.9630675197085, "lng": 86.79868161970849}}}, "icon": "https://maps.gstatic.com/mapfiles/place_api/icons/v1/png_71/school-71.png", "name": "TTC", "place_id": "ChIJfbmZ-uDQ9jkRotRhZiPX3Bw", "plus_code": {"compound_code": "XR72+Q2 Jamtara, Jharkhand, India", "global_code": "7MM8XR72+Q2"}, "reference": "ChIJfbmZ-uDQ9jkRotRhZiPX3Bw", "scope": "GOOGLE", "types": ["school", "point_of_interest", "establishment"], "vicinity": "New Town Road, Govindapur, Jamtara"}, {"business_status": "OPERATIONAL", "geometry": {"location": {"lat": 23.9653354, "lng": 86.800496}, "viewport": {"northeast": {"lat": 23.96669938029151, "lng": 86.8018062802915}, "southwest": {"lat": 23.9640014197085, "lng": 86.7991083197085}}}, "icon": "https://maps.gstatic.com/mapfiles/place_api/icons/v1/png_71/school-71.png", "name": "ITCT COMPUTER EDUCATION.JAMTARA", "opening_hours": {"open_now": true}, "photos": [{"height": 3120, "html_attributions": ["<a href=\"https://maps.google.com/maps/contrib/100198011562104425474\">Itct Jmt</a>"], "photo_reference": "ATtYBwI_ARvaft-chnP_7J9VXx6D9zHqhsd_rhmUnyaplV9LGmAEs1CHkvhCNG9udvLCd6l1KkYVq4xw7ktfxZ1h-j7TpAHeaYUDqTher6dFccQLxAFWvudHfnFRHav3lIE1sL3xv3SK6Pbap6ProDbZgGJHQY2cqkiaNFD1Kt7s6nvCRlg", "width": 4160}], "place_id": "ChIJcc63XuDQ9jkRJhh3BlYvl2A", "plus_code": {"compound_code": "XR82+45 Jamtara, Jharkhand, India", "global_code": "7MM8XR82+45"}, "rating": 3.7, "reference": "ChIJcc63XuDQ9jkRJhh3BlYvl2A", "scope": "GOOGLE", "types": ["school", "point_of_interest", "establishment"], "user_ratings_total": 3, "vicinity": "New Town Road, Jamtara"}, {"business_status": "OPERATIONAL", "geometry": {"location": {"lat": 23.9691801, "lng": 86.8050177}, "viewport": {"northeast": {"lat": 23.97054873029151, "lng": 86.8062853302915}, "southwest": {"lat": 23.9678507697085, "lng": 86.8035873697085}}}, "icon": "https://maps.gstatic.com/mapfiles/place_api/icons/v1/png_71/school-71.png", "name": "Java Tution Centre", "place_id": "ChIJfQATjiDR9jkR9ZRL9PXdWiw", "plus_code": {"compound_code": "XR94+M2 Jamtara, Jharkhand, India", "global_code": "7MM8XR94+M2"}, "rating": 4.5, "reference": "ChIJfQATjiDR9jkR9ZRL9PXdWiw", "scope": "GOOGLE", "types": ["school", "point_of_interest", "establishment"], "user_ratings_total": 2, "vicinity": "Rajpalli Jamtara, Jamtara"}, {"business_status": "OPERATIONAL", "geometry": {"location": {"lat": 23.964337, "lng": 86.7995248}, "viewport": {"northeast": {"lat": 23.9656130302915, "lng": 86.8010786302915}, "southwest": {"lat": 23.96291506970849, "lng": 86.79838066970848}}}, "icon": "https://maps.gstatic.com/mapfiles/place_api/icons/v1/png_71/school-71.png", "name": "Jamtara, Girl High School.", "photos": [{"height": 4160, "html_attributions": ["<a href=\"https://maps.google.com/maps/contrib/100355608212010070295\">sanju burman</a>"], "photo_reference": "ATtYBwKNrUsmwVg46w54Jb85itg6Tqu4ng4Z18Qb0UZUyOlTGjGWNrPCB2pE1rMvbcOMiEZZ5HvMK-Kftbf56rT10OuFBgkFJbNfpfypWn8v8r7cA5cSHYHA1pWm8C6YPidJ2F32r9ZJgtmBpgrc9ucpGXfYQJge1SbKntb93xTjybJS1isA", "width": 3120}], "place_id": "ChIJiXIm5ODQ9jkRNZb6-DMJysM", "plus_code": {"compound_code": "XQ7X+PR Jamtara, Jharkhand, India", "global_code": "7MM8XQ7X+PR"}, "rating": 4, "reference": "ChIJiXIm5ODQ9jkRNZb6-DMJysM", "scope": "GOOGLE", "types": ["school", "point_of_interest", "establishment"], "user_ratings_total": 6, "vicinity": "New Town Road, Govindapur, Jamtara"}, {"business_status": "OPERATIONAL", "geometry": {"location": {"lat": 23.9644155, "lng": 86.7995195}, "viewport": {"northeast": {"lat": 23.9656332802915, "lng": 86.80077843029152}, "southwest": {"lat": 23.9629353197085, "lng": 86.7980804697085}}}, "icon": "https://maps.gstatic.com/mapfiles/place_api/icons/v1/png_71/school-71.png", "name": "Girls High School, Jamtara", "place_id": "ChIJX-21A-HQ9jkR3tVQggeisp8", "plus_code": {"compound_code": "XQ7X+QR Jamtara, Jharkhand, India", "global_code": "7MM8XQ7X+QR"}, "rating": 4.3, "reference": "ChIJX-21A-HQ9jkR3tVQggeisp8", "scope": "GOOGLE", "types": ["school", "point_of_interest", "establishment"], "user_ratings_total": 15, "vicinity": "Near Gandhi Maidan"}, {"business_status": "OPERATIONAL", "geometry": {"location": {"lat": 23.9645032, "lng": 86.79912910000002}, "viewport": {"northeast": {"lat": 23.9657777302915, "lng": 86.80041808029152}, "southwest": {"lat": 23.9630797697085, "lng": 86.79772011970852}}}, "icon": "https://maps.gstatic.com/mapfiles/place_api/icons/v1/png_71/school-71.png", "name": "kendriya vidyalaya", "place_id": "ChIJyWiByZrR9jkRcU3Sh09X0Hs", "plus_code": {"compound_code": "XQ7X+RM Jamtara, Jharkhand, India", "global_code": "7MM8XQ7X+RM"}, "rating": 4.2, "reference": "ChIJyWiByZrR9jkRcU3Sh09X0Hs", "scope": "GOOGLE", "types": ["school", "point_of_interest", "establishment"], "user_ratings_total": 6, "vicinity": "Govindapur, Jamtara"}, {"business_status": "OPERATIONAL", "geometry": {"location": {"lat": 23.9640938, "lng": 86.7985715}, "viewport": {"northeast": {"lat": 23.9654444302915, "lng": 86.7999178302915}, "southwest": {"lat": 23.9627464697085, "lng": 86.7972198697085}}}, "icon": "https://maps.gstatic.com/mapfiles/place_api/icons/v1/png_71/school-71.png", "name": "Brainware Computer Education (Jamtara)", "opening_hours": {"open_now": true}, "photos": [{"height": 1475, "html_attributions": ["<a href=\"https://maps.google.com/maps/contrib/101858402695764388838\">Brainware Computer Education (Jamtara)</a>"], "photo_reference": "ATtYBwIWpLWl70a7yHSvYkv5FXjo9VASJnG98LF3P5N-xP4tYrF2wCznVkbfZGVNz7FCQabxjT3LbdcoqqEPuOZERd21nlVr-kKpOny06jqkZWLLPnK6U23Z04V_G8sYOnPHk2kUm2zC3VPEHYXGLMcRZqQhajDgKneI5LRYOzVu0eExj2Y", "width": 2624}], "place_id": "ChIJJQgPLOHQ9jkRtMJwIuPSTsM", "plus_code": {"compound_code": "XQ7X+JC Jamtara, Jharkhand, India", "global_code": "7MM8XQ7X+JC"}, "rating": 5, "reference": "ChIJJQgPLOHQ9jkRtMJwIuPSTsM", "scope": "GOOGLE", "types": ["school", "point_of_interest", "establishment"], "user_ratings_total": 16, "vicinity": "Upper floor LIC Office Near Gandhi Maidan, Jamtara"}, {"business_status": "OPERATIONAL", "geometry": {"location": {"lat": 23.9505496, "lng": 86.8170131}, "viewport": {"northeast": {"lat": 23.9522605302915, "lng": 86.8185860302915}, "southwest": {"lat": 23.9495625697085, "lng": 86.81588806970849}}}, "icon": "https://maps.gstatic.com/mapfiles/place_api/icons/v1/png_71/school-71.png", "name": "Pt R S Model School Kashidih Ranigoj Jamtara", "opening_hours": {"open_now": false}, "place_id": "ChIJTez3ib7R9jkRjcLICxWDu6g", "plus_code": {"compound_code": "XR28+6R Jamtara, Jharkhand, India", "global_code": "7MM8XR28+6R"}, "reference": "ChIJTez3ib7R9jkRjcLICxWDu6g", "scope": "GOOGLE", "types": ["school", "point_of_interest", "establishment"], "vicinity": "kashidih Ranigoj, Jamtara"}, {"business_status": "OPERATIONAL", "geometry": {"location": {"lat": 23.9505496, "lng": 86.8170131}, "viewport": {"northeast": {"lat": 23.9522605302915, "lng": 86.8185860302915}, "southwest": {"lat": 23.9495625697085, "lng": 86.81588806970849}}}, "icon": "https://maps.gstatic.com/mapfiles/place_api/icons/v1/png_71/school-71.png", "name": "Upgraded Middle School", "place_id": "ChIJVVVVVcnQ9jkR-YJK3tLexjU", "plus_code": {"compound_code": "XR28+6R Jamtara, Jharkhand, India", "global_code": "7MM8XR28+6R"}, "reference": "ChIJVVVVVcnQ9jkR-YJK3tLexjU", "scope": "GOOGLE", "types": ["school", "point_of_interest", "establishment"], "vicinity": "Amalchater, Jamtara"}, {"business_status": "OPERATIONAL", "geometry": {"location": {"lat": 23.9505496, "lng": 86.81701319999999}, "viewport": {"northeast": {"lat": 23.9522605302915, "lng": 86.8185861302915}, "southwest": {"lat": 23.9495625697085, "lng": 86.81588816970849}}}, "icon": "https://maps.gstatic.com/mapfiles/place_api/icons/v1/png_71/school-71.png", "name": "\u0936\u0947\u0930\u094b \u0915\u093e \u091c\u093f\u0932\u093e \u091c\u093e\u092e\u0924\u093e\u0921\u093c\u093e", "place_id": "ChIJgWqDf93R9jkRy-kDXjoc4S8", "plus_code": {"compound_code": "XR28+6R Jamtara, Jharkhand, India", "global_code": "7MM8XR28+6R"}, "reference": "ChIJgWqDf93R9jkRy-kDXjoc4S8", "scope": "GOOGLE", "types": ["school", "point_of_interest", "establishment"], "vicinity": "Jamtara"}, {"business_status": "OPERATIONAL", "geometry": {"location": {"lat": 23.9505496, "lng": 86.81701319999999}, "viewport": {"northeast": {"lat": 23.9522605302915, "lng": 86.8185861302915}, "southwest": {"lat": 23.9495625697085, "lng": 86.81588816970849}}}, "icon": "https://maps.gstatic.com/mapfiles/place_api/icons/v1/png_71/school-71.png", "name": "Ramdas hembrom", "place_id": "ChIJK2VZ_VPR9jkRX0QVLHUkDw8", "plus_code": {"compound_code": "XR28+6R Jamtara, Jharkhand, India", "global_code": "7MM8XR28+6R"}, "reference": "ChIJK2VZ_VPR9jkRX0QVLHUkDw8", "scope": "GOOGLE", "types": ["school", "point_of_interest", "establishment"], "vicinity": "Jamtara"}, {"business_status": "OPERATIONAL", "geometry": {"location": {"lat": 23.9505496, "lng": 86.81701319999999}, "viewport": {"northeast": {"lat": 23.9522605302915, "lng": 86.8185861302915}, "southwest": {"lat": 23.9495625697085, "lng": 86.81588816970849}}}, "icon": "https://maps.gstatic.com/mapfiles/place_api/icons/v1/png_71/school-71.png", "name": "Jama Masjid", "place_id": "ChIJHzxQ0I3R9jkRsXs9xM0Trc8", "plus_code": {"compound_code": "XR28+6R Jamtara, Jharkhand, India", "global_code": "7MM8XR28+6R"}, "reference": "ChIJHzxQ0I3R9jkRsXs9xM0Trc8", "scope": "GOOGLE", "types": ["school", "point_of_interest", "establishment"], "vicinity": "Jamtara"}, {"business_status": "OPERATIONAL", "geometry": {"location": {"lat": 23.9505496, "lng": 86.81701319999999}, "viewport": {"northeast": {"lat": 23.9522605302915, "lng": 86.8185861302915}, "southwest": {"lat": 23.9495625697085, "lng": 86.81588816970849}}}, "icon": "https://maps.gstatic.com/mapfiles/place_api/icons/v1/png_71/school-71.png", "name": "NEPAL,kumsr,Mahato", "opening_hours": {"open_now": false}, "place_id": "ChIJ_____8vQ9jkRFRYnDrLczGw", "plus_code": {"compound_code": "XR28+6R Jamtara, Jharkhand, India", "global_code": "7MM8XR28+6R"}, "reference": "ChIJ_____8vQ9jkRFRYnDrLczGw", "scope": "GOOGLE", "types": ["school", "point_of_interest", "establishment"], "vicinity": "Chak Rakasabad, Jamtara"}, {"business_status": "OPERATIONAL", "geometry": {"location": {"lat": 23.9505496, "lng": 86.81701319999999}, "viewport": {"northeast": {"lat": 23.9522605302915, "lng": 86.8185861302915}, "southwest": {"lat": 23.9495625697085, "lng": 86.81588816970849}}}, "icon": "https://maps.gstatic.com/mapfiles/place_api/icons/v1/png_71/school-71.png", "name": "Aryan Calab Jamtara", "place_id": "ChIJ_____8vQ9jkRXbQTUjcLAsU", "plus_code": {"compound_code": "XR28+6R Jamtara, Jharkhand, India", "global_code": "7MM8XR28+6R"}, "reference": "ChIJ_____8vQ9jkRXbQTUjcLAsU", "scope": "GOOGLE", "types": ["school", "point_of_interest", "establishment"], "vicinity": "Chak Rakasabad, Jamtara"}, {"business_status": "OPERATIONAL", "geometry": {"location": {"lat": 23.9505496, "lng": 86.81701319999999}, "viewport": {"northeast": {"lat": 23.9522605302915, "lng": 86.8185861302915}, "southwest": {"lat": 23.9495625697085, "lng": 86.81588816970849}}}, "icon": "https://maps.gstatic.com/mapfiles/place_api/icons/v1/png_71/school-71.png", "name": "UMS DHANBAD URDU MIHIJM JAMTARA", "photos": [{"height": 3120, "html_attributions": ["<a href=\"https://maps.google.com/maps/contrib/102531399079997190494\">DHARAMVIR KUMAR BHARTI</a>"], "photo_reference": "ATtYBwI2iY5zliM67plIivTmZLc3rwYWSJCP8SMuuqZJhSoDrYb6hVv-l-viJMfggUkgAf6wxAzuLvQHVePjDVUAKZ4fnTij8G5LE6zHI4YVCHGwqwBAUeJvDwKUh0QH_YKxlyElJs5oPsFDB4B3ER5-FjTVR3Whpdycmt_VnzcDNHWjnRP9", "width": 4160}], "place_id": "ChIJ_____8vQ9jkRdks-qpLEFwA", "plus_code": {"compound_code": "XR28+6R Jamtara, Jharkhand, India", "global_code": "7MM8XR28+6R"}, "reference": "ChIJ_____8vQ9jkRdks-qpLEFwA", "scope": "GOOGLE", "types": ["school", "point_of_interest", "establishment"], "vicinity": "Chak Rakasabad, Jamtara"}, {"business_status": "OPERATIONAL", "geometry": {"location": {"lat": 23.9505496, "lng": 86.81701319999999}, "viewport": {"northeast": {"lat": 23.9522605302915, "lng": 86.8185861302915}, "southwest": {"lat": 23.9495625697085, "lng": 86.81588816970849}}}, "icon": "https://maps.gstatic.com/mapfiles/place_api/icons/v1/png_71/school-71.png", "name": "Saraswati Vidya Mandir,Vidyasagar", "opening_hours": {"open_now": false}, "photos": [{"height": 480, "html_attributions": ["<a href=\"https://maps.google.com/maps/contrib/107622610769751976840\">Md Sabihuddin</a>"], "photo_reference": "ATtYBwIjexVbBm3DxgsfRzKsB39wy-7_TdmMV-YRTC0voAKuJoWJ2MqeRBN88GVcShr2Wc-itW_ny-L3wTDvvIUBn8FWcq885RnP-hMleKYFYMmorrUasX8Fm5vYcEwleYc7_Ox9KBV8kHTzx6SFqV3ZLHEdW4-y3jspLoMT40N-RT6h_RzK", "width": 640}], "place_id": "ChIJ-003UhjN9jkRor-dCgSSv9Y", "plus_code": {"compound_code": "XR28+6R Jamtara, Jharkhand, India", "global_code": "7MM8XR28+6R"}, "rating": 4.9, "reference": "ChIJ-003UhjN9jkRor-dCgSSv9Y", "scope": "GOOGLE", "types": ["school", "point_of_interest", "establishment"], "user_ratings_total": 7, "vicinity": "near vidyasagar railway station, Jamtara"}, {"business_status": "OPERATIONAL", "geometry": {"location": {"lat": 23.9505496, "lng": 86.81701319999999}, "viewport": {"northeast": {"lat": 23.9522605302915, "lng": 86.8185861302915}, "southwest": {"lat": 23.9495625697085, "lng": 86.81588816970849}}}, "icon": "https://maps.gstatic.com/mapfiles/place_api/icons/v1/png_71/school-71.png", "name": "Jamtara Hat Tola", "place_id": "ChIJGxKQhizR9jkRCmfxyjzEKSA", "plus_code": {"compound_code": "XR28+6R Jamtara, Jharkhand, India", "global_code": "7MM8XR28+6R"}, "reference": "ChIJGxKQhizR9jkRCmfxyjzEKSA", "scope": "GOOGLE", "types": ["school", "point_of_interest", "establishment"], "vicinity": "Jamtara"}, {"business_status": "OPERATIONAL", "geometry": {"location": {"lat": 23.9710259, "lng": 86.80646039999999}, "viewport": {"northeast": {"lat": 23.9722192802915, "lng": 86.8076900302915}, "southwest": {"lat": 23.9695213197085, "lng": 86.80499206970849}}}, "icon": "https://maps.gstatic.com/mapfiles/place_api/icons/v1/png_71/school-71.png", "name": "Study point coching centre upto class5", "opening_hours": {"open_now": false}, "photos": [{"height": 1836, "html_attributions": ["<a href=\"https://maps.google.com/maps/contrib/115141134660256087976\">Anup Kumar Bhattacharya</a>"], "photo_reference": "ATtYBwIUkVTzJrPY-SdGow1lMyW_OmE0MTBgPmOGase2hqy4AF1cZYzUqmZq84svA5BxNMlCkVQNAwGgj337U-LOUdhHRmKzH20wj-CtjHNYwUXZTpFz2JXAH3nUIaNSkB3fNGISn-5XHriP2mhqmYMW2t-Lcjb21pbM1u9-ob6Mj2Ea4SDs", "width": 3264}], "place_id": "ChIJFVNwEJ3R9jkR7iEBZwkiZWc", "plus_code": {"compound_code": "XRC4+CH Jamtara, Jharkhand, India", "global_code": "7MM8XRC4+CH"}, "rating": 5, "reference": "ChIJFVNwEJ3R9jkR7iEBZwkiZWc", "scope": "GOOGLE", "types": ["school", "point_of_interest", "establishment"], "user_ratings_total": 1, "vicinity": "Kayesthapara, Jamtara"}, {"business_status": "OPERATIONAL", "geometry": {"location": {"lat": 23.9697095, "lng": 86.802076}, "viewport": {"northeast": {"lat": 23.9709264302915, "lng": 86.8035449302915}, "southwest": {"lat": 23.9682284697085, "lng": 86.80084696970849}}}, "icon": "https://maps.gstatic.com/mapfiles/place_api/icons/v1/png_71/school-71.png", "name": "Victor Dance Kingdom", "opening_hours": {"open_now": true}, "place_id": "ChIJt-wpek_R9jkRZpAIRu48FkQ", "plus_code": {"compound_code": "XR92+VR Jamtara, Jharkhand, India", "global_code": "7MM8XR92+VR"}, "rating": 3, "reference": "ChIJt-wpek_R9jkRZpAIRu48FkQ", "scope": "GOOGLE", "types": ["school", "point_of_interest", "establishment"], "user_ratings_total": 2, "vicinity": "3rd floor, Near Gandhi maidan, LIC building, Jamtara"}, {"business_status": "OPERATIONAL", "geometry": {"location": {"lat": 23.9705731, "lng": 86.80331040000002}, "viewport": {"northeast": {"lat": 23.97192418029151, "lng": 86.8046597302915}, "southwest": {"lat": 23.9692262197085, "lng": 86.8019617697085}}}, "icon": "https://maps.gstatic.com/mapfiles/place_api/icons/v1/png_71/school-71.png", "name": "Mission School", "opening_hours": {"open_now": false}, "place_id": "ChIJpX-8SSDR9jkRFbByiQ4O2gE", "plus_code": {"compound_code": "XRC3+68 Jamtara, Jharkhand, India", "global_code": "7MM8XRC3+68"}, "rating": 4.8, "reference": "ChIJpX-8SSDR9jkRFbByiQ4O2gE", "scope": "GOOGLE", "types": ["school", "point_of_interest", "establishment"], "user_ratings_total": 4, "vicinity": "Govindapur, Jamtara"}], "status": "OK"}