{"html_attributions": [], "results": [{"business_status": "OPERATIONAL", "geometry": {"location": {"lat": 23.9773107, "lng": 86.8047612}, "viewport": {"northeast": {"lat": 23.9785220302915, "lng": 86.8060367802915}, "southwest": {"lat": 23.97582406970849, "lng": 86.8033388197085}}}, "icon": "https://maps.gstatic.com/mapfiles/place_api/icons/v1/png_71/school-71.png", "name": "D.A.V. Public School, Jamtara", "photos": [{"height": 1104, "html_attributions": ["<a href=\"https://maps.google.com/maps/contrib/105572593630435646667\">Soubhik Paul</a>"], "photo_reference": "ATtYBwKDbSal-xyeEpNNConBxL69mPQQWWbtv9xUiagWJAX4zf21Du0gT9UfurkXYrGYL-t6XP2isi-G3kCuN04QmppbpGZWuTu8UxEMAYQDjZ7K0ckg2V0N25uHNAAXTgYq5g2gkH73snj0-z8TZxJ8wE9m5e_yJdB-rqNrDvczoSbIjucv", "width": 2234}], "place_id": "ChIJYXlKASPR9jkRPoDfsNvnUBs", "plus_code": {"compound_code": "XRG3+WW Jamtara, Jharkhand, India", "global_code": "7MM8XRG3+WW"}, "rating": 4, "reference": "ChIJYXlKASPR9jkRPoDfsNvnUBs", "scope": "GOOGLE", "types": ["school", "point_of_interest", "establishment"], "user_ratings_total": 78, "vicinity": "Govindapur, Jamtara"}, {"business_status": "OPERATIONAL", "geometry": {"location": {"lat": 23.9693599, "lng": 86.81140429999999}, "viewport": {"northeast": {"lat": 23.9707703802915, "lng": 86.8127547802915}, "southwest": {"lat": 23.9680724197085, "lng": 86.81005681970849}}}, "icon": "https://maps.gstatic.com/mapfiles/place_api/icons/v1/png_71/school-71.png", "name": "D N Academy", "photos": [{"height": 407, "html_attributions": ["<a href=\"https://maps.google.com/maps/contrib/111373867749242675806\">Sougat Singh</a>"], "photo_reference": "ATtYBwKT1oulaQDput-EvuySd1WWGTwPekk9jGGuaSC-flcK-rKv0ZRHWHtAvNwMoQKyPpLv-oTiwe1FmdBqr8k-HLBxkhmFvXhOR2RKyAth3e2TFxeYpMnH17I4crptnxmPqgLcUdyhi2fA3Pmf3BUQTMJ5BxzrsBIvOZ8w_1_bHW0FvSPZ", "width": 720}], "place_id": "ChIJxdXi5SfR9jkRbsRS24mLrnc", "plus_code": {"compound_code": "XR96+PH Jamtara, Jharkhand, India", "global_code": "7MM8XR96+PH"}, "rating": 4.1, "reference": "ChIJxdXi5SfR9jkRbsRS24mLrnc", "scope": "GOOGLE", "types": ["school", "point_of_interest", "establishment"], "user_ratings_total": 18, "vicinity": "Kali Mandir, Jamtara"}, {"business_status": "OPERATIONAL", "geometry": {"location": {"lat": 23.977349, "lng": 86.8052249}, "viewport": {"northeast": {"lat": 23.9786580802915, "lng": 86.8066081802915}, "southwest": {"lat": 23.9759601197085, "lng": 86.80391021970848}}}, "icon": "https://maps.gstatic.com/mapfiles/place_api/icons/v1/png_71/school-71.png", "name": "S.D.D.A.V Public School (New Building)", "photos": [{"height": 1840, "html_attributions": ["<a href=\"https://maps.google.com/maps/contrib/112659064403131572809\">Vinod Kumar Murmu</a>"], "photo_reference": "ATtYBwKNofVOsQBbgBtTBW1clliqmS3ysPJeRS0749rOQ5hK6tTkzv9LpxK8uW4D8PRqA21PgMQZgbLr4Xt1yMTddwIa7OIdBK2P2ef5Q1AZKTWs1uy4z3ds57hJGkBs03s-omHO5VjIv2Rjyr-3mtcnvLuiP7RvTv4XrNLnKflz7inWWqg3", "width": 4096}], "place_id": "ChIJN2HZCCPR9jkRo2j3vZRbTe0", "plus_code": {"compound_code": "XRG4+W3 Jamtara, Jharkhand, India", "global_code": "7MM8XRG4+W3"}, "rating": 3, "reference": "ChIJN2HZCCPR9jkRo2j3vZRbTe0", "scope": "GOOGLE", "types": ["school", "point_of_interest", "establishment"], "user_ratings_total": 4, "vicinity": "Govindapur, Jamtara"}, {"business_status": "OPERATIONAL", "geometry": {"location": {"lat": 23.9772596, "lng": 86.8050562}, "viewport": {"northeast": {"lat": 23.9785587802915, "lng": 86.80644893029151}, "southwest": {"lat": 23.9758608197085, "lng": 86.80375096970849}}}, "icon": "https://maps.gstatic.com/mapfiles/place_api/icons/v1/png_71/school-71.png", "name": "Aditya Trivedi's School", "place_id": "ChIJoce9q27R9jkR8jLabZyIMuc", "plus_code": {"compound_code": "XRG4+W2 Jamtara, Jharkhand, India", "global_code": "7MM8XRG4+W2"}, "reference": "ChIJoce9q27R9jkR8jLabZyIMuc", "scope": "GOOGLE", "types": ["school", "point_of_interest", "establishment"], "vicinity": "Govindapur, Jamtara"}, {"business_status": "OPERATIONAL", "geometry": {"location": {"lat": 23.9731358, "lng": 86.80509719999999}, "viewport": {"northeast": {"lat": 23.9744873802915, "lng": 86.80642328029151}, "southwest": {"lat": 23.97178941970849, "lng": 86.80372531970849}}}, "icon": "https://maps.gstatic.com/mapfiles/place_api/icons/v1/png_71/school-71.png", "name": "Primary School Namupra", "place_id": "ChIJFzdUVi3R9jkRqb_tUnNq7ZU", "plus_code": {"compound_code": "XRF4+72 Jamtara, Jharkhand, India", "global_code": "7MM8XRF4+72"}, "rating": 4, "reference": "ChIJFzdUVi3R9jkRqb_tUnNq7ZU", "scope": "GOOGLE", "types": ["school", "point_of_interest", "establishment"], "user_ratings_total": 1, "vicinity": "NamuPara Road, Jamtara"}, {"business_status": "OPERATIONAL", "geometry": {"location": {"lat": 23.9759181, "lng": 86.8182678}, "viewport": {"northeast": {"lat": 23.9771932802915, "lng": 86.81969113029152}, "southwest": {"lat": 23.9744953197085, "lng": 86.81699316970851}}}, "icon": "https://maps.gstatic.com/mapfiles/place_api/icons/v1/png_71/school-71.png", "name": "St Joseph's SCHOOL", "place_id": "ChIJP9iAVIDR9jkRQ57SGZonBDQ", "plus_code": {"compound_code": "XRG9+98 Jamtara, Jharkhand, India", "global_code": "7MM8XRG9+98"}, "rating": 5, "reference": "ChIJP9iAVIDR9jkRQ57SGZonBDQ", "scope": "GOOGLE", "types": ["school", "point_of_interest", "establishment"], "user_ratings_total": 1, "vicinity": "Jamtara"}, {"business_status": "OPERATIONAL", "geometry": {"location": {"lat": 23.9761353, "lng": 86.81848839999999}, "viewport": {"northeast": {"lat": 23.9774032302915, "lng": 86.8199208802915}, "southwest": {"lat": 23.9747052697085, "lng": 86.8172229197085}}}, "icon": "https://maps.gstatic.com/mapfiles/place_api/icons/v1/png_71/school-71.png", "name": "St. Joseph's School, Shrirampur", "photos": [{"height": 3264, "html_attributions": ["<a href=\"https://maps.google.com/maps/contrib/109411066235799415410\">Chandan kumar Ray</a>"], "photo_reference": "ATtYBwItroAe25vOUpqn0wL3_M2V-vyjBSNqXiEAMB7aIVVNSD64qkt0j5q9wnDsfNPMbFVh3fmC-iGp891JvxpkZ5fA-OVOR3pJpMpuDqRvbMra4K0yFjf8ou3nGs3P89g9i7oFoMvETmd6x22R64fZZv_Lexz069vWtpM8fCj187IWXPBO", "width": 2448}], "place_id": "ChIJNz4cQSzR9jkR3qXpi6F5Z3w", "plus_code": {"compound_code": "XRG9+F9 Jamtara, Jharkhand, India", "global_code": "7MM8XRG9+F9"}, "rating": 4.4, "reference": "ChIJNz4cQSzR9jkR3qXpi6F5Z3w", "scope": "GOOGLE", "types": ["school", "point_of_interest", "establishment"], "user_ratings_total": 38, "vicinity": "Jamtara"}, {"business_status": "OPERATIONAL", "geometry": {"location": {"lat": 23.9878412, "lng": 86.81475069999999}, "viewport": {"northeast": {"lat": 23.9892462802915, "lng": 86.81610828029149}, "southwest": {"lat": 23.9865483197085, "lng": 86.81341031970848}}}, "icon": "https://maps.gstatic.com/mapfiles/place_api/icons/v1/png_71/school-71.png", "name": "Upgrade Middle School Supaidih", "place_id": "ChIJj2Qh4TbR9jkRKvGTbbqdVWw", "plus_code": {"compound_code": "XRQ7+4W Supaidi, Jharkhand, India", "global_code": "7MM8XRQ7+4W"}, "rating": 2.5, "reference": "ChIJj2Qh4TbR9jkRKvGTbbqdVWw", "scope": "GOOGLE", "types": ["school", "point_of_interest", "establishment"], "user_ratings_total": 2, "vicinity": "Supaidi"}, {"business_status": "OPERATIONAL", "geometry": {"location": {"lat": 23.9710259, "lng": 86.80646039999999}, "viewport": {"northeast": {"lat": 23.9722192802915, "lng": 86.8076900302915}, "southwest": {"lat": 23.9695213197085, "lng": 86.80499206970849}}}, "icon": "https://maps.gstatic.com/mapfiles/place_api/icons/v1/png_71/school-71.png", "name": "Study point coching centre upto class5", "opening_hours": {"open_now": false}, "photos": [{"height": 1836, "html_attributions": ["<a href=\"https://maps.google.com/maps/contrib/115141134660256087976\">Anup Kumar Bhattacharya</a>"], "photo_reference": "ATtYBwJZGSPTlZYks_GQ1EF5q4Kd9G_3vGSwdD5mkmCHrhyqj5DSVUlE1FubDrK7CfVk83KvyKgpyzKcBngLnx3B7XETfvks1ty7f_9SOAQ3-NixmPCFxxYkkbltGCqtEAibI9MPTV3bpUu8aFwZX_Eg4wS06c4NzGbagSF_lm8Ybo5sFMXQ", "width": 3264}], "place_id": "ChIJFVNwEJ3R9jkR7iEBZwkiZWc", "plus_code": {"compound_code": "XRC4+CH Jamtara, Jharkhand, India", "global_code": "7MM8XRC4+CH"}, "rating": 5, "reference": "ChIJFVNwEJ3R9jkR7iEBZwkiZWc", "scope": "GOOGLE", "types": ["school", "point_of_interest", "establishment"], "user_ratings_total": 1, "vicinity": "Kayesthapara, Jamtara"}, {"business_status": "OPERATIONAL", "geometry": {"location": {"lat": 23.9694851, "lng": 86.8112998}, "viewport": {"northeast": {"lat": 23.9708025802915, "lng": 86.81264803029151}, "southwest": {"lat": 23.9681046197085, "lng": 86.80995006970849}}}, "icon": "https://maps.gstatic.com/mapfiles/place_api/icons/v1/png_71/school-71.png", "name": "Laxmi Aditya", "place_id": "ChIJiSK5bjnR9jkRASXeA2L3uek", "plus_code": {"compound_code": "XR96+QG Jamtara, Jharkhand, India", "global_code": "7MM8XR96+QG"}, "reference": "ChIJiSK5bjnR9jkRASXeA2L3uek", "scope": "GOOGLE", "types": ["school", "point_of_interest", "establishment"], "vicinity": "Rajbari Road"}, {"business_status": "OPERATIONAL", "geometry": {"location": {"lat": 23.9689729, "lng": 86.81010859999999}, "viewport": {"northeast": {"lat": 23.9702755302915, "lng": 86.8114347802915}, "southwest": {"lat": 23.9675775697085, "lng": 86.80873681970849}}}, "icon": "https://maps.gstatic.com/mapfiles/place_api/icons/v1/png_71/school-71.png", "name": "St.Anthony School", "place_id": "ChIJAQAAkCfR9jkRNPsCiSxR0tw", "plus_code": {"compound_code": "XR96+H2 Jamtara, Jharkhand, India", "global_code": "7MM8XR96+H2"}, "rating": 3, "reference": "ChIJAQAAkCfR9jkRNPsCiSxR0tw", "scope": "GOOGLE", "types": ["school", "point_of_interest", "establishment"], "user_ratings_total": 2, "vicinity": "Paredih, Jamtara"}, {"business_status": "OPERATIONAL", "geometry": {"location": {"lat": 23.9705731, "lng": 86.80331040000002}, "viewport": {"northeast": {"lat": 23.97192418029151, "lng": 86.8046597302915}, "southwest": {"lat": 23.9692262197085, "lng": 86.8019617697085}}}, "icon": "https://maps.gstatic.com/mapfiles/place_api/icons/v1/png_71/school-71.png", "name": "Mission School", "opening_hours": {"open_now": false}, "place_id": "ChIJpX-8SSDR9jkRFbByiQ4O2gE", "plus_code": {"compound_code": "XRC3+68 Jamtara, Jharkhand, India", "global_code": "7MM8XRC3+68"}, "rating": 4.8, "reference": "ChIJpX-8SSDR9jkRFbByiQ4O2gE", "scope": "GOOGLE", "types": ["school", "point_of_interest", "establishment"], "user_ratings_total": 4, "vicinity": "Govindapur, Jamtara"}, {"business_status": "OPERATIONAL", "geometry": {"location": {"lat": 23.9691801, "lng": 86.8050177}, "viewport": {"northeast": {"lat": 23.97054873029151, "lng": 86.8062853302915}, "southwest": {"lat": 23.9678507697085, "lng": 86.8035873697085}}}, "icon": "https://maps.gstatic.com/mapfiles/place_api/icons/v1/png_71/school-71.png", "name": "Java Tution Centre", "place_id": "ChIJfQATjiDR9jkR9ZRL9PXdWiw", "plus_code": {"compound_code": "XR94+M2 Jamtara, Jharkhand, India", "global_code": "7MM8XR94+M2"}, "rating": 4.5, "reference": "ChIJfQATjiDR9jkR9ZRL9PXdWiw", "scope": "GOOGLE", "types": ["school", "point_of_interest", "establishment"], "user_ratings_total": 2, "vicinity": "Rajpalli Jamtara, Jamtara"}, {"business_status": "OPERATIONAL", "geometry": {"location": {"lat": 23.9811941, "lng": 86.82309579999999}, "viewport": {"northeast": {"lat": 23.9826014802915, "lng": 86.8243380802915}, "southwest": {"lat": 23.97990351970849, "lng": 86.82164011970849}}}, "icon": "https://maps.gstatic.com/mapfiles/place_api/icons/v1/png_71/school-71.png", "name": "A.N.M. Training School, Jamtara", "place_id": "ChIJt34cHozX9jkRyStn16VlWDA", "plus_code": {"compound_code": "XRJF+F6 Katanki, Jharkhand, India", "global_code": "7MM8XRJF+F6"}, "rating": 1, "reference": "ChIJt34cHozX9jkRyStn16VlWDA", "scope": "GOOGLE", "types": ["school", "point_of_interest", "establishment"], "user_ratings_total": 1, "vicinity": "Katanki"}, {"business_status": "OPERATIONAL", "geometry": {"location": {"lat": 23.9697095, "lng": 86.802076}, "viewport": {"northeast": {"lat": 23.9709264302915, "lng": 86.8035449302915}, "southwest": {"lat": 23.9682284697085, "lng": 86.80084696970849}}}, "icon": "https://maps.gstatic.com/mapfiles/place_api/icons/v1/png_71/school-71.png", "name": "Victor Dance Kingdom", "opening_hours": {"open_now": true}, "place_id": "ChIJt-wpek_R9jkRZpAIRu48FkQ", "plus_code": {"compound_code": "XR92+VR Jamtara, Jharkhand, India", "global_code": "7MM8XR92+VR"}, "rating": 3, "reference": "ChIJt-wpek_R9jkRZpAIRu48FkQ", "scope": "GOOGLE", "types": ["school", "point_of_interest", "establishment"], "user_ratings_total": 2, "vicinity": "3rd floor, Near Gandhi maidan, LIC building, Jamtara"}, {"business_status": "OPERATIONAL", "geometry": {"location": {"lat": 23.9830634, "lng": 86.8113262}, "viewport": {"northeast": {"lat": 23.9844123802915, "lng": 86.81267518029149}, "southwest": {"lat": 23.9817144197085, "lng": 86.80997721970849}}}, "icon": "https://maps.gstatic.com/mapfiles/place_api/icons/v1/png_71/school-71.png", "name": "BUKHARIYA.MASHJID.RAHMUDAGAL", "place_id": "ChIJPe15nkzR9jkRk-guP6B3VrI", "plus_code": {"compound_code": "XRM6+6G Jamtara, Jharkhand, India", "global_code": "7MM8XRM6+6G"}, "rating": 3, "reference": "ChIJPe15nkzR9jkRk-guP6B3VrI", "scope": "GOOGLE", "types": ["school", "point_of_interest", "establishment"], "user_ratings_total": 1, "vicinity": "Jamtara"}], "status": "OK"}