{"html_attributions": [], "results": [{"business_status": "OPERATIONAL", "geometry": {"location": {"lat": 23.7671249, "lng": 86.2999539}, "viewport": {"northeast": {"lat": 23.7685099802915, "lng": 86.30139063029151}, "southwest": {"lat": 23.7658120197085, "lng": 86.2986926697085}}}, "icon": "https://maps.gstatic.com/mapfiles/place_api/icons/v1/png_71/school-71.png", "name": "MRITUNJAY SUPAKAR", "place_id": "ChIJD-4WMzah9jkRt0J8RnzyuZk", "plus_code": {"compound_code": "Q78X+RX Sawardi, Jharkhand, India", "global_code": "7MM8Q78X+RX"}, "reference": "ChIJD-4WMzah9jkRt0J8RnzyuZk", "scope": "GOOGLE", "types": ["school", "point_of_interest", "establishment"], "vicinity": "Sawardi"}, {"business_status": "OPERATIONAL", "geometry": {"location": {"lat": 23.7638659, "lng": 86.3020331}, "viewport": {"northeast": {"lat": 23.7649639302915, "lng": 86.30369738029151}, "southwest": {"lat": 23.7622659697085, "lng": 86.30099941970849}}}, "icon": "https://maps.gstatic.com/mapfiles/place_api/icons/v1/png_71/school-71.png", "name": "Maa sitla mandir", "place_id": "ChIJ981_Cwqh9jkRqp9DAoEVTCk", "plus_code": {"compound_code": "Q872+GR Dhanbad, Jharkhand, India", "global_code": "7MM8Q872+GR"}, "reference": "ChIJ981_Cwqh9jkRqp9DAoEVTCk", "scope": "GOOGLE", "types": ["school", "point_of_interest", "establishment"], "vicinity": "Dhanbad"}, {"business_status": "OPERATIONAL", "geometry": {"location": {"lat": 23.7518932, "lng": 86.2996368}, "viewport": {"northeast": {"lat": 23.7534126302915, "lng": 86.30083928029151}, "southwest": {"lat": 23.7507146697085, "lng": 86.29814131970849}}}, "icon": "https://maps.gstatic.com/mapfiles/place_api/icons/v1/png_71/school-71.png", "name": "My Chhota pathshaala", "opening_hours": {"open_now": true}, "place_id": "ChIJyalmKFeh9jkRZMfiicJvug4", "plus_code": {"compound_code": "Q72X+QV Bandhdih, Jharkhand, India", "global_code": "7MM8Q72X+QV"}, "rating": 5, "reference": "ChIJyalmKFeh9jkRZMfiicJvug4", "scope": "GOOGLE", "types": ["school", "point_of_interest", "establishment"], "user_ratings_total": 2, "vicinity": "Bandhdih"}], "status": "OK"}