{"html_attributions": [], "results": [{"business_status": "OPERATIONAL", "geometry": {"location": {"lat": 23.86034189999999, "lng": 86.3542138}, "viewport": {"northeast": {"lat": 23.8616702302915, "lng": 86.3558660802915}, "southwest": {"lat": 23.8589722697085, "lng": 86.35316811970849}}}, "icon": "https://maps.gstatic.com/mapfiles/place_api/icons/v1/png_71/school-71.png", "name": "Utkrami Madhya Vidhyalya,Bagdaha", "opening_hours": {"open_now": false}, "place_id": "ChIJ_S5ZpZWl9jkR-xbocYDzJGk", "plus_code": {"compound_code": "V963+4M Bagdaha, Jharkhand, India", "global_code": "7MM8V963+4M"}, "rating": 5, "reference": "ChIJ_S5ZpZWl9jkR-xbocYDzJGk", "scope": "GOOGLE", "types": ["school", "point_of_interest", "establishment"], "user_ratings_total": 3, "vicinity": "Bagdaha"}, {"business_status": "OPERATIONAL", "geometry": {"location": {"lat": 23.8558955, "lng": 86.35722790000001}, "viewport": {"northeast": {"lat": 23.8571891802915, "lng": 86.35907228029151}, "southwest": {"lat": 23.8544912197085, "lng": 86.35637431970851}}}, "icon": "https://maps.gstatic.com/mapfiles/place_api/icons/v1/png_71/school-71.png", "name": "Rohit Kumar Mahato", "opening_hours": {"open_now": false}, "photos": [{"height": 2576, "html_attributions": ["<a href=\"https://maps.google.com/maps/contrib/103561904006243458951\">ROHIT MAHATO</a>"], "photo_reference": "ATtYBwKzZ4003Kkzb1A-Z4Am8GtLR36imfIIES-jdQa8w_RDclnGdfjzArY6rGK_mYLJE1UkTadeAvbZIahfmFjzi0qHO85poxQ3V4lcvxsiqXbIOceTndv9MKoyXQM5X1W3Ea-U_lLefkE6ep82KfO3csoNaq9Q3Rlnvkcaw-eq77tT6hg7", "width": 1932}], "place_id": "ChIJqQh0MRWl9jkRkORBVE7u-dk", "plus_code": {"compound_code": "V944+9V Bagdaha, Jharkhand, India", "global_code": "7MM8V944+9V"}, "reference": "ChIJqQh0MRWl9jkRkORBVE7u-dk", "scope": "GOOGLE", "types": ["school", "point_of_interest", "establishment"], "vicinity": "shiv Mandhir, Bagdaha"}, {"business_status": "OPERATIONAL", "geometry": {"location": {"lat": 23.8520138, "lng": 86.34452859999999}, "viewport": {"northeast": {"lat": 23.8535180802915, "lng": 86.3457019302915}, "southwest": {"lat": 23.8508201197085, "lng": 86.34300396970849}}}, "icon": "https://maps.gstatic.com/mapfiles/place_api/icons/v1/png_71/school-71.png", "name": "Middle school Daldali", "place_id": "ChIJzX9obi-k9jkRcxdeuZ7RZt8", "plus_code": {"compound_code": "V82V+RR Daldali, Jharkhand, India", "global_code": "7MM8V82V+RR"}, "rating": 4, "reference": "ChIJzX9obi-k9jkRcxdeuZ7RZt8", "scope": "GOOGLE", "types": ["school", "point_of_interest", "establishment"], "user_ratings_total": 1, "vicinity": "Daldali"}, {"business_status": "OPERATIONAL", "geometry": {"location": {"lat": 23.8519116, "lng": 86.343043}, "viewport": {"northeast": {"lat": 23.8532283302915, "lng": 86.3444018802915}, "southwest": {"lat": 23.8505303697085, "lng": 86.3417039197085}}}, "icon": "https://maps.gstatic.com/mapfiles/place_api/icons/v1/png_71/school-71.png", "name": "Volleyball ground Daldali", "photos": [{"height": 1080, "html_attributions": ["<a href=\"https://maps.google.com/maps/contrib/109323528628819695401\">AK RAAJ</a>"], "photo_reference": "ATtYBwKa5u7gh55wOLz2bfSbMXxfCD2Aue6B135MxDbtx4j_uRMjYicI30vu-125sqFQdES2hIIOkJXQgXKkjLC0_Mmsj7OsYFj34d5__D_X86tTWUUYRk2Wxb2lNcmxyhLmRUO55FEtcUCIKEZk_cxKglCMg_rg6wU8eby4wr_P8345QUw", "width": 1080}], "place_id": "ChIJF3KXzk2l9jkRFMcVkyGqNE4", "plus_code": {"compound_code": "V82V+Q6 Daldali, Jharkhand, India", "global_code": "7MM8V82V+Q6"}, "rating": 4, "reference": "ChIJF3KXzk2l9jkRFMcVkyGqNE4", "scope": "GOOGLE", "types": ["school", "point_of_interest", "establishment"], "user_ratings_total": 2, "vicinity": "Daldali"}, {"business_status": "OPERATIONAL", "geometry": {"location": {"lat": 23.8607462, "lng": 86.3382013}, "viewport": {"northeast": {"lat": 23.8626605302915, "lng": 86.3399956302915}, "southwest": {"lat": 23.8599625697085, "lng": 86.33729766970848}}}, "icon": "https://maps.gstatic.com/mapfiles/place_api/icons/v1/png_71/school-71.png", "name": "Uday Coaching Centre", "opening_hours": {"open_now": true}, "place_id": "ChIJPatVmiqk9jkR6royL1qTZS8", "plus_code": {"compound_code": "V86Q+77 Saldaha, Jharkhand, India", "global_code": "7MM8V86Q+77"}, "reference": "ChIJPatVmiqk9jkR6royL1qTZS8", "scope": "GOOGLE", "types": ["school", "point_of_interest", "establishment"], "vicinity": "Saldaha"}, {"business_status": "OPERATIONAL", "geometry": {"location": {"lat": 23.8583679, "lng": 86.3381447}, "viewport": {"northeast": {"lat": 23.8597188302915, "lng": 86.33949178029151}, "southwest": {"lat": 23.8570208697085, "lng": 86.33679381970849}}}, "icon": "https://maps.gstatic.com/mapfiles/place_api/icons/v1/png_71/school-71.png", "name": "Natkhat play school", "opening_hours": {"open_now": false}, "photos": [{"height": 2322, "html_attributions": ["<a href=\"https://maps.google.com/maps/contrib/114789165943799776302\">Suphal Kumar</a>"], "photo_reference": "ATtYBwIk-VaawQF-hHGRmKGiyDsWKNrTQZG--5DugyWnt2WwNlf9MhwFpNnZFTa8FnCs67RTlsP-i4iMFyCbpT5PCCoxssGuyWB_nlH8Jg6h3hetNvXVfYzN3YSrsBNRDZqBWjHcLZjcHc81Ji4_B9HhhaX2bx-m3-XMlfHC0g3dA4bh7LNL", "width": 4128}], "place_id": "ChIJf3i2RVel9jkR9XqXH_oR72A", "plus_code": {"compound_code": "V85Q+87 Saldaha, Jharkhand, India", "global_code": "7MM8V85Q+87"}, "reference": "ChIJf3i2RVel9jkR9XqXH_oR72A", "scope": "GOOGLE", "types": ["school", "point_of_interest", "establishment"], "vicinity": "Tetulmari Road, Saldaha"}, {"business_status": "OPERATIONAL", "geometry": {"location": {"lat": 23.85813539999999, "lng": 86.3620804}, "viewport": {"northeast": {"lat": 23.8593376302915, "lng": 86.3633964302915}, "southwest": {"lat": 23.85663966970849, "lng": 86.3606984697085}}}, "icon": "https://maps.gstatic.com/mapfiles/place_api/icons/v1/png_71/school-71.png", "name": "Aadiwasi Prathamik School Bagdaha", "photos": [{"height": 2340, "html_attributions": ["<a href=\"https://maps.google.com/maps/contrib/116359486515180292700\">Shree Mahato</a>"], "photo_reference": "ATtYBwLbqbB8Vnfu9njA9yqnDMe8GLtfRDyo8DAGVtGhm5fwv_ON5OBTKUs8zfEZkIopDB28JJrFNuTJ4B_wnyiEPP3Co37t20ikxRhkuKmtKoTK3NjN57HoI5VbQIHyW5EWLDbCpCDtF-dua3RoD1Q9JFRIAz115MQTzFCHcqMYZsk8ZiFf", "width": 4160}], "place_id": "ChIJdatN70uk9jkRKYstVp47L4k", "plus_code": {"compound_code": "V956+7R Bagdaha, Jharkhand, India", "global_code": "7MM8V956+7R"}, "rating": 4.5, "reference": "ChIJdatN70uk9jkRKYstVp47L4k", "scope": "GOOGLE", "types": ["school", "point_of_interest", "establishment"], "user_ratings_total": 2, "vicinity": "828113, Bagdaha, Dhasnia"}, {"business_status": "OPERATIONAL", "geometry": {"location": {"lat": 23.8618661, "lng": 86.33763739999999}, "viewport": {"northeast": {"lat": 23.86353113029151, "lng": 86.3392245302915}, "southwest": {"lat": 23.8608331697085, "lng": 86.33652656970848}}}, "icon": "https://maps.gstatic.com/mapfiles/place_api/icons/v1/png_71/school-71.png", "name": "Birsa Munda Shishu Niketan, Saldaha", "photos": [{"height": 2434, "html_attributions": ["<a href=\"https://maps.google.com/maps/contrib/115448571679790870448\">BABLU KUMAR RAWANI</a>"], "photo_reference": "ATtYBwLgbCm2TSB34usRtLQhhXSIazqJNhfJtEEcxffYUc9cXpLeVHJf0WUP5D6cIxSMYnKulY4z8hUAB65HOmc1QTWwH04uWC8WmLN-QIy41ANGsGv9PwCkQfai-J7DHzFDHRDdiwgooj6J3DJeO3mTg0EioB59ShH9-I52hE7oRKRzA9yX", "width": 3979}], "place_id": "ChIJfeeIWp6n9jkRQ_3fEsKhp9A", "plus_code": {"compound_code": "V86Q+P3 Saldaha, Jharkhand, India", "global_code": "7MM8V86Q+P3"}, "reference": "ChIJfeeIWp6n9jkRQ_3fEsKhp9A", "scope": "GOOGLE", "types": ["school", "point_of_interest", "establishment"], "vicinity": "Saldaha"}, {"business_status": "OPERATIONAL", "geometry": {"location": {"lat": 23.868158, "lng": 86.359337}, "viewport": {"northeast": {"lat": 23.8693659802915, "lng": 86.36064108029151}, "southwest": {"lat": 23.8666680197085, "lng": 86.35794311970851}}}, "icon": "https://maps.gstatic.com/mapfiles/place_api/icons/v1/png_71/school-71.png", "name": "Primary school Domanpur, Dhanbad", "place_id": "ChIJg_ZFwrWl9jkRHungTDkX2Hg", "plus_code": {"compound_code": "V995+7P Domanpur, Jharkhand, India", "global_code": "7MM8V995+7P"}, "rating": 3.6, "reference": "ChIJg_ZFwrWl9jkRHungTDkX2Hg", "scope": "GOOGLE", "types": ["school", "point_of_interest", "establishment"], "user_ratings_total": 7, "vicinity": "Domanpur"}], "status": "OK"}