{"html_attributions": [], "results": [{"business_status": "OPERATIONAL", "geometry": {"location": {"lat": 23.9140291, "lng": 86.3459613}, "viewport": {"northeast": {"lat": 23.9152033302915, "lng": 86.3471110302915}, "southwest": {"lat": 23.9125053697085, "lng": 86.3444130697085}}}, "icon": "https://maps.gstatic.com/mapfiles/place_api/icons/v1/png_71/school-71.png", "name": "Vanasthali High School Tilaiya Rangatand", "photos": [{"height": 6000, "html_attributions": ["<a href=\"https://maps.google.com/maps/contrib/116053105456246743067\">Ms Rohit</a>"], "photo_reference": "ATtYBwIdORuFXx923gPqJylzVYSqN5w2ZfagTee8wBbiAV_nGTMsozCe6CWEwxqMlJcH5QyrbL5IK0dJzwcDEaUzNeTASvhbKB8GJPppR3MKr0-EUtSNLnswfn6sPibHHizuCVw2DIdEYDBx8Kc58XlX_y8EEx_9KbDidyKfF3Ve9ODN7ZHS", "width": 8000}], "place_id": "ChIJMd2SD1ev9jkR9R1x2qWFZ6M", "plus_code": {"compound_code": "W87W+J9 Thiliya, Jharkhand, India", "global_code": "7MM8W87W+J9"}, "rating": 3.7, "reference": "ChIJMd2SD1ev9jkR9R1x2qWFZ6M", "scope": "GOOGLE", "types": ["school", "point_of_interest", "establishment"], "user_ratings_total": 14, "vicinity": "Thiliya"}, {"business_status": "OPERATIONAL", "geometry": {"location": {"lat": 23.9137443, "lng": 86.3458302}, "viewport": {"northeast": {"lat": 23.9150609302915, "lng": 86.34704548029151}, "southwest": {"lat": 23.9123629697085, "lng": 86.34434751970849}}}, "icon": "https://maps.gstatic.com/mapfiles/place_api/icons/v1/png_71/school-71.png", "name": "Vanasthali High School Gorga", "photos": [{"height": 5184, "html_attributions": ["<a href=\"https://maps.google.com/maps/contrib/100341207752046434163\">Mohir prasad Mahto</a>"], "photo_reference": "ATtYBwLtmOcbP5LhjK1ep5EKI_2ZsXt4ySroEnUH9x7CcjZBfcnOMoDkalaMFL9oGyvY7aIjsax7FwEb1TVp7Tzo66R85keD6o2WaseW6GrNI8XxIgtvunCugO2eeUSHyHMEs3Rr8FmtWyHoxBe31vo2uvpZdq0fQNwxM8WHCn0akddauCQ8", "width": 3880}], "place_id": "ChIJTz11Blev9jkRrCnbh_1vhwQ", "plus_code": {"compound_code": "W87W+F8 Thiliya, Jharkhand, India", "global_code": "7MM8W87W+F8"}, "rating": 4, "reference": "ChIJTz11Blev9jkRrCnbh_1vhwQ", "scope": "GOOGLE", "types": ["secondary_school", "school", "point_of_interest", "establishment"], "user_ratings_total": 1, "vicinity": "Thiliya"}, {"business_status": "OPERATIONAL", "geometry": {"location": {"lat": 23.90897640000001, "lng": 86.3469363}, "viewport": {"northeast": {"lat": 23.91036293029151, "lng": 86.3482486802915}, "southwest": {"lat": 23.9076649697085, "lng": 86.3455507197085}}}, "icon": "https://maps.gstatic.com/mapfiles/place_api/icons/v1/png_71/school-71.png", "name": "Aganbadi Kendra kharmo", "place_id": "ChIJlWcOPRyl9jkRp2NNu9T9850", "plus_code": {"compound_code": "W85W+HQ Kharmo, Jharkhand, India", "global_code": "7MM8W85W+HQ"}, "reference": "ChIJlWcOPRyl9jkRp2NNu9T9850", "scope": "GOOGLE", "types": ["school", "point_of_interest", "establishment"], "vicinity": ""}], "status": "OK"}