{"html_attributions": [], "results": [{"business_status": "OPERATIONAL", "geometry": {"location": {"lat": 23.6962482, "lng": 86.37499749999999}, "viewport": {"northeast": {"lat": 23.6977221802915, "lng": 86.3762162302915}, "southwest": {"lat": 23.6950242197085, "lng": 86.3735182697085}}}, "icon": "https://maps.gstatic.com/mapfiles/place_api/icons/v1/png_71/school-71.png", "name": "Goverment Primary School, Dungri", "opening_hours": {"open_now": true}, "place_id": "ChIJ8bEjeWKZ9jkRUkeAY9iIkHw", "plus_code": {"compound_code": "M9WF+FX Dhanbad, Jharkhand, India", "global_code": "7MM8M9WF+FX"}, "rating": 5, "reference": "ChIJ8bEjeWKZ9jkRUkeAY9iIkHw", "scope": "GOOGLE", "types": ["school", "point_of_interest", "establishment"], "user_ratings_total": 1, "vicinity": "Dhanbad"}, {"business_status": "OPERATIONAL", "geometry": {"location": {"lat": 23.7014645, "lng": 86.38186329999999}, "viewport": {"northeast": {"lat": 23.70289493029151, "lng": 86.3832515802915}, "southwest": {"lat": 23.7001969697085, "lng": 86.3805536197085}}}, "icon": "https://maps.gstatic.com/mapfiles/place_api/icons/v1/png_71/school-71.png", "name": "Adarsh High School, Dungri", "photos": [{"height": 1920, "html_attributions": ["<a href=\"https://maps.google.com/maps/contrib/111213597618691832823\">Ujwal Ghosh</a>"], "photo_reference": "ATtYBwId0aVOlpQES8VAHblLjA0pMSUcy-kzjxQ-aV7vwvTYODsHIQ_wP98LcvJ7qhWN4iI64NY8DF9gzugGSGjvXR_DnPWyeB7trUdtoda3mMXSYYv8hyPMk_byOlrg_flZk6O_CgMoJmu3xdQzHYYj7jqFCEsJYlDrLPFNDKYwPLG9pEJS", "width": 2560}], "place_id": "ChIJk3rIcmGY9jkRb3juNnPSTqg", "plus_code": {"compound_code": "P92J+HP Petia, Jharkhand, India", "global_code": "7MM8P92J+HP"}, "rating": 3.8, "reference": "ChIJk3rIcmGY9jkRb3juNnPSTqg", "scope": "GOOGLE", "types": ["school", "point_of_interest", "establishment"], "user_ratings_total": 12, "vicinity": ""}, {"business_status": "OPERATIONAL", "geometry": {"location": {"lat": 23.7047445, "lng": 86.38192699999999}, "viewport": {"northeast": {"lat": 23.7061849302915, "lng": 86.38323958029149}, "southwest": {"lat": 23.7034869697085, "lng": 86.38054161970848}}}, "icon": "https://maps.gstatic.com/mapfiles/place_api/icons/v1/png_71/school-71.png", "name": "shiv mandir primery school", "place_id": "ChIJTWWJ6O2Z9jkRcBsMyO0qZaM", "plus_code": {"compound_code": "P93J+VQ Dhanbad, Jharkhand, India", "global_code": "7MM8P93J+VQ"}, "reference": "ChIJTWWJ6O2Z9jkRcBsMyO0qZaM", "scope": "GOOGLE", "types": ["school", "point_of_interest", "establishment"], "vicinity": "Dhanbad"}, {"business_status": "OPERATIONAL", "geometry": {"location": {"lat": 23.7012907, "lng": 86.38307999999999}, "viewport": {"northeast": {"lat": 23.7026110802915, "lng": 86.38441688029151}, "southwest": {"lat": 23.6999131197085, "lng": 86.3817189197085}}}, "icon": "https://maps.gstatic.com/mapfiles/place_api/icons/v1/png_71/school-71.png", "name": "Indian academy English school", "place_id": "ChIJP8RNmJCZ9jkRiQVmKc0WuVs", "plus_code": {"compound_code": "P92M+G6 Jorapokhar, Jharkhand, India", "global_code": "7MM8P92M+G6"}, "reference": "ChIJP8RNmJCZ9jkRiQVmKc0WuVs", "scope": "GOOGLE", "types": ["school", "point_of_interest", "establishment"], "vicinity": "Kalimela - Damodar River Road"}], "status": "OK"}