{"html_attributions": [], "results": [{"business_status": "OPERATIONAL", "geometry": {"location": {"lat": 23.7630843, "lng": 86.3587919}, "viewport": {"northeast": {"lat": 23.7644148802915, "lng": 86.3601742802915}, "southwest": {"lat": 23.76171691970849, "lng": 86.3574763197085}}}, "icon": "https://maps.gstatic.com/mapfiles/place_api/icons/v1/png_71/school-71.png", "name": "Kindergarten", "place_id": "ChIJY4TvEEqi9jkRn6bM-4aviMM", "plus_code": {"compound_code": "Q975+6G Dhanbad, Jharkhand, India", "global_code": "7MM8Q975+6G"}, "reference": "ChIJY4TvEEqi9jkRn6bM-4aviMM", "scope": "GOOGLE", "types": ["school", "point_of_interest", "establishment"], "vicinity": "Nawagarh, Kharkharee, Putki, Dhanbad"}, {"business_status": "OPERATIONAL", "geometry": {"location": {"lat": 23.7602363, "lng": 86.38274109999999}, "viewport": {"northeast": {"lat": 23.7616420802915, "lng": 86.38414118029151}, "southwest": {"lat": 23.7589441197085, "lng": 86.3814432197085}}}, "icon": "https://maps.gstatic.com/mapfiles/place_api/icons/v1/png_71/school-71.png", "name": "Middle School Barari Coke", "place_id": "ChIJtXo-evmi9jkRz0FA5lCwVsY", "plus_code": {"compound_code": "Q96M+33 Kustore, Jharkhand, India", "global_code": "7MM8Q96M+33"}, "rating": 2, "reference": "ChIJtXo-evmi9jkRz0FA5lCwVsY", "scope": "GOOGLE", "types": ["school", "point_of_interest", "establishment"], "user_ratings_total": 2, "vicinity": "Kustore"}, {"business_status": "OPERATIONAL", "geometry": {"location": {"lat": 23.762501, "lng": 86.3574163}, "viewport": {"northeast": {"lat": 23.7638222802915, "lng": 86.35874778029151}, "southwest": {"lat": 23.7611243197085, "lng": 86.3560498197085}}}, "icon": "https://maps.gstatic.com/mapfiles/place_api/icons/v1/png_71/school-71.png", "name": "Anghan Bari Kendra Sah Nursery School", "place_id": "ChIJzfaZ_DWi9jkRmysLqxZBa_4", "plus_code": {"compound_code": "Q974+2X Dhanbad, Jharkhand, India", "global_code": "7MM8Q974+2X"}, "reference": "ChIJzfaZ_DWi9jkRmysLqxZBa_4", "scope": "GOOGLE", "types": ["school", "point_of_interest", "establishment"], "vicinity": "Putki, Dhanbad"}, {"business_status": "OPERATIONAL", "geometry": {"location": {"lat": 23.7622125, "lng": 86.3568956}, "viewport": {"northeast": {"lat": 23.7636642302915, "lng": 86.35829758029149}, "southwest": {"lat": 23.7609662697085, "lng": 86.35559961970849}}}, "icon": "https://maps.gstatic.com/mapfiles/place_api/icons/v1/png_71/school-71.png", "name": "ABC Play House", "place_id": "ChIJ4zjd4TWi9jkRI8VgnygSPGI", "plus_code": {"compound_code": "Q964+VQ Katras, Jharkhand, India", "global_code": "7MM8Q964+VQ"}, "rating": 4.5, "reference": "ChIJ4zjd4TWi9jkRI8VgnygSPGI", "scope": "GOOGLE", "types": ["school", "point_of_interest", "establishment"], "user_ratings_total": 2, "vicinity": "Gaddi Mahla, Putki, Katras"}, {"business_status": "OPERATIONAL", "geometry": {"location": {"lat": 23.7643979, "lng": 86.35731849999999}, "viewport": {"northeast": {"lat": 23.7659762802915, "lng": 86.3585882302915}, "southwest": {"lat": 23.7632783197085, "lng": 86.35589026970848}}}, "icon": "https://maps.gstatic.com/mapfiles/place_api/icons/v1/png_71/school-71.png", "name": "MG Public School", "place_id": "ChIJ05EoQTai9jkR73XCEa2CQm4", "plus_code": {"compound_code": "Q974+QW Loyabad, Jharkhand, India", "global_code": "7MM8Q974+QW"}, "rating": 2, "reference": "ChIJ05EoQTai9jkR73XCEa2CQm4", "scope": "GOOGLE", "types": ["school", "point_of_interest", "establishment"], "user_ratings_total": 1, "vicinity": "National Highway 32, Putki, Loyabad"}, {"business_status": "OPERATIONAL", "geometry": {"location": {"lat": 23.7617419, "lng": 86.3563669}, "viewport": {"northeast": {"lat": 23.7630828802915, "lng": 86.3577123302915}, "southwest": {"lat": 23.7603849197085, "lng": 86.3550143697085}}}, "icon": "https://maps.gstatic.com/mapfiles/place_api/icons/v1/png_71/school-71.png", "name": "Swami vivekananda", "place_id": "ChIJBcXkWuWj9jkRG1mLA5yeD08", "plus_code": {"compound_code": "Q964+MG Sialgudri, Jharkhand, India", "global_code": "7MM8Q964+MG"}, "reference": "ChIJBcXkWuWj9jkRG1mLA5yeD08", "scope": "GOOGLE", "types": ["school", "point_of_interest", "establishment"], "vicinity": "Putki, Sialgudri"}], "status": "OK"}