{"html_attributions": [], "results": [{"business_status": "OPERATIONAL", "geometry": {"location": {"lat": 23.7810999, "lng": 86.3603953}, "viewport": {"northeast": {"lat": 23.7825159802915, "lng": 86.3617720302915}, "southwest": {"lat": 23.7798180197085, "lng": 86.3590740697085}}}, "icon": "https://maps.gstatic.com/mapfiles/place_api/icons/v1/png_71/school-71.png", "name": "Modern school loyabad", "opening_hours": {"open_now": false}, "place_id": "ChIJScuMbaKj9jkRl8HvM-KZ-Ww", "plus_code": {"compound_code": "Q9J6+C5 Loyabad, Jharkhand, India", "global_code": "7MM8Q9J6+C5"}, "rating": 4.2, "reference": "ChIJScuMbaKj9jkRl8HvM-KZ-Ww", "scope": "GOOGLE", "types": ["school", "point_of_interest", "establishment"], "user_ratings_total": 5, "vicinity": "Loyabad"}, {"business_status": "OPERATIONAL", "geometry": {"location": {"lat": 23.78312919999999, "lng": 86.36019560000001}, "viewport": {"northeast": {"lat": 23.7844880802915, "lng": 86.3615332302915}, "southwest": {"lat": 23.7817901197085, "lng": 86.35883526970849}}}, "icon": "https://maps.gstatic.com/mapfiles/place_api/icons/v1/png_71/school-71.png", "name": "Indira Gandhi School JAC", "photos": [{"height": 3120, "html_attributions": ["<a href=\"https://maps.google.com/maps/contrib/116544583424263232180\">13 - Nitesh Prasad</a>"], "photo_reference": "ATtYBwLk3-Ep580iAFtOQer0pKrqfUb_HBEjvMhLqbG2oeZAtgDlCcBQSofjAxrPlK5nnWW0pIDquZHdzEwdA2h7Ju7hAwPgqCGUy_nB8l-1RUFQrK-nkMu0vdSsK7-FYYu_HMye2h0A5_l1mvuP6bMGHGHkeV9jMXMlGpijfOY_6X0BG7DL", "width": 4160}], "place_id": "ChIJD0ws_7ij9jkRMa82m-FwKQQ", "plus_code": {"compound_code": "Q9M6+73 Loyabad, Jharkhand, India", "global_code": "7MM8Q9M6+73"}, "rating": 4.8, "reference": "ChIJD0ws_7ij9jkRMa82m-FwKQQ", "scope": "GOOGLE", "types": ["school", "point_of_interest", "establishment"], "user_ratings_total": 4, "vicinity": "Lakhyabad"}, {"business_status": "OPERATIONAL", "geometry": {"location": {"lat": 23.7778366, "lng": 86.380209}, "viewport": {"northeast": {"lat": 23.77918683029151, "lng": 86.3815399302915}, "southwest": {"lat": 23.7764888697085, "lng": 86.37884196970849}}}, "icon": "https://maps.gstatic.com/mapfiles/place_api/icons/v1/png_71/school-71.png", "name": "Dashrath Wholesale Eggs Shop", "place_id": "ChIJ8Se_f5Gj9jkRWi03ladghHY", "plus_code": {"compound_code": "Q9HJ+43 Kusunda, Jharkhand, India", "global_code": "7MM8Q9HJ+43"}, "reference": "ChIJ8Se_f5Gj9jkRWi03ladghHY", "scope": "GOOGLE", "types": ["school", "point_of_interest", "establishment"], "vicinity": "Kendua Road, machchhi patti, Kusunda"}, {"business_status": "OPERATIONAL", "geometry": {"location": {"lat": 23.7839461, "lng": 86.3594256}, "viewport": {"northeast": {"lat": 23.7853789302915, "lng": 86.3608138302915}, "southwest": {"lat": 23.78268096970849, "lng": 86.35811586970848}}}, "icon": "https://maps.gstatic.com/mapfiles/place_api/icons/v1/png_71/school-71.png", "name": "Tejas Institute", "opening_hours": {"open_now": true}, "photos": [{"height": 3000, "html_attributions": ["<a href=\"https://maps.google.com/maps/contrib/109117923895639906226\">Tejas Learning Class</a>"], "photo_reference": "ATtYBwIRMTLo40JsaDtDU_QgLdZZt1hTlRPzmOi8_W9OVP9cE9nIoBrM8LnjAaWX9DDt7k3KarI4o0Wk5lj8vjpPuFatOqFpG3ON0M7dggYajh8K8SYaVzHtNGxaOzwW9IdajVmSkLwXHmthAQbEZeWo_xYOfXHDXTIglh5M1dxkPpWT8QWv", "width": 4000}], "place_id": "ChIJizpC7Lij9jkRPFhsEP0LPSc", "plus_code": {"compound_code": "Q9M5+HQ Loyabad, Jharkhand, India", "global_code": "7MM8Q9M5+HQ"}, "rating": 5, "reference": "ChIJizpC7Lij9jkRPFhsEP0LPSc", "scope": "GOOGLE", "types": ["school", "point_of_interest", "establishment"], "user_ratings_total": 5, "vicinity": "Dhanbad Road, Loyabad"}, {"business_status": "OPERATIONAL", "geometry": {"location": {"lat": 23.7786101, "lng": 86.381636}, "viewport": {"northeast": {"lat": 23.7799575302915, "lng": 86.38298783029151}, "southwest": {"lat": 23.7772595697085, "lng": 86.3802898697085}}}, "icon": "https://maps.gstatic.com/mapfiles/place_api/icons/v1/png_71/school-71.png", "name": "DHARMENDRA CLASSES", "place_id": "ChIJY0bQWgaj9jkR7xSZvFLX8HE", "plus_code": {"compound_code": "Q9HJ+CM Kusunda, Jharkhand, India", "global_code": "7MM8Q9HJ+CM"}, "rating": 5, "reference": "ChIJY0bQWgaj9jkR7xSZvFLX8HE", "scope": "GOOGLE", "types": ["school", "point_of_interest", "establishment"], "user_ratings_total": 1, "vicinity": "Kusunda"}, {"business_status": "OPERATIONAL", "geometry": {"location": {"lat": 23.784826, "lng": 86.3578907}, "viewport": {"northeast": {"lat": 23.7861402302915, "lng": 86.3592246302915}, "southwest": {"lat": 23.7834422697085, "lng": 86.35652666970849}}}, "icon": "https://maps.gstatic.com/mapfiles/place_api/icons/v1/png_71/school-71.png", "name": "Dynamic institute", "opening_hours": {"open_now": true}, "photos": [{"height": 900, "html_attributions": ["<a href=\"https://maps.google.com/maps/contrib/118382991122089226533\">aliya naaz</a>"], "photo_reference": "ATtYBwI-71gA0PtgjzO4NMrcqG7zvRjYmkZ4Fu21OS_EXuhdtVn6zs7U7rQlRo0gULCpT44IevfF3rvYTRfazUuc5CQ7oxVnOsM5BdhtCqs-L5eHyEJ2cwZGY54QGqM3c6_FK63YXE4GbFjmp_uMGdFqSu1N_6V2pRMs413OAyVUQ3i97WKX", "width": 900}], "place_id": "ChIJB6gfA06j9jkRgASKTOqu92U", "plus_code": {"compound_code": "Q9M5+W5 Loyabad, Jharkhand, India", "global_code": "7MM8Q9M5+W5"}, "rating": 4.5, "reference": "ChIJB6gfA06j9jkRgASKTOqu92U", "scope": "GOOGLE", "types": ["school", "point_of_interest", "establishment"], "user_ratings_total": 8, "vicinity": "Mahatma Gandhi Main Road, Loyabad"}, {"business_status": "OPERATIONAL", "geometry": {"location": {"lat": 23.7882554, "lng": 86.379852}, "viewport": {"northeast": {"lat": 23.7895048302915, "lng": 86.3812968802915}, "southwest": {"lat": 23.7868068697085, "lng": 86.3785989197085}}}, "icon": "https://maps.gstatic.com/mapfiles/place_api/icons/v1/png_71/school-71.png", "name": "Upgraded high school baseriya no 2", "place_id": "ChIJhRaTpHqj9jkRGqUPaKclZto", "plus_code": {"compound_code": "Q9QH+8W Dhanbad, Jharkhand, India", "global_code": "7MM8Q9QH+8W"}, "rating": 5, "reference": "ChIJhRaTpHqj9jkRGqUPaKclZto", "scope": "GOOGLE", "types": ["secondary_school", "school", "point_of_interest", "establishment"], "user_ratings_total": 1, "vicinity": "Dhanbad"}, {"business_status": "OPERATIONAL", "geometry": {"location": {"lat": 23.7750145, "lng": 86.3822955}, "viewport": {"northeast": {"lat": 23.7762170302915, "lng": 86.3835775302915}, "southwest": {"lat": 23.7735190697085, "lng": 86.3808795697085}}}, "icon": "https://maps.gstatic.com/mapfiles/place_api/icons/v1/png_71/school-71.png", "name": "Kenduadih High School", "photos": [{"height": 3120, "html_attributions": ["<a href=\"https://maps.google.com/maps/contrib/113868162114617052123\">Basant Sinha</a>"], "photo_reference": "ATtYBwLk7X0bo0fJsgu17J1ZWrTPLjAp6meOKhDsJNn9vHwHLXKsptrULkrLAYzHkacBuB1rgwGaLrr36FVWreGxC_O1nZX_hco2IkvxSDeEsp49y77KZ2xnZtvdC-6Ef8MIJSwmRx1TRihKG2ptRfJiSb5hltjbi_oir-ArnYtC6fEPU9W6", "width": 4160}], "place_id": "ChIJzd-ntgaj9jkRck9HrvzcHhI", "plus_code": {"compound_code": "Q9GJ+2W Kusunda, Jharkhand, India", "global_code": "7MM8Q9GJ+2W"}, "rating": 5, "reference": "ChIJzd-ntgaj9jkRck9HrvzcHhI", "scope": "GOOGLE", "types": ["school", "point_of_interest", "establishment"], "user_ratings_total": 1, "vicinity": "Kusunda"}, {"business_status": "OPERATIONAL", "geometry": {"location": {"lat": 23.7797748, "lng": 86.35620929999999}, "viewport": {"northeast": {"lat": 23.7811219302915, "lng": 86.35796508029149}, "southwest": {"lat": 23.77842396970849, "lng": 86.35526711970849}}}, "icon": "https://maps.gstatic.com/mapfiles/place_api/icons/v1/png_71/school-71.png", "name": "Scio Academy", "place_id": "ChIJQYWvzyWj9jkR5zqE-2Ophrk", "plus_code": {"compound_code": "Q9H4+WF Loyabad, Jharkhand, India", "global_code": "7MM8Q9H4+WF"}, "reference": "ChIJQYWvzyWj9jkR5zqE-2Ophrk", "scope": "GOOGLE", "types": ["school", "point_of_interest", "establishment"], "vicinity": "Loyabad"}], "status": "OK"}