{"html_attributions": [], "results": [{"business_status": "OPERATIONAL", "geometry": {"location": {"lat": 23.6268117, "lng": 86.17168339999999}, "viewport": {"northeast": {"lat": 23.6282498802915, "lng": 86.1730983802915}, "southwest": {"lat": 23.6255519197085, "lng": 86.17040041970849}}}, "icon": "https://maps.gstatic.com/mapfiles/place_api/icons/v1/png_71/generic_business-71.png", "icon_background_color": "#7B9EB0", "icon_mask_base_uri": "https://maps.gstatic.com/mapfiles/place_api/icons/v2/generic_pinlet", "name": "Jaydev mahato", "opening_hours": {"open_now": true}, "photos": [{"height": 761, "html_attributions": ["<a href=\"https://maps.google.com/maps/contrib/114168723228621974293\">JAYDEV JD</a>"], "photo_reference": "Aap_uEArIufgvblgMkm2KjKdfwuXXDKqgysdgi6IB0UC6TmeW6-uXdXsfVPUiprIFwAYsdf7tkGJOYMBDA1TJKSiDs7qwIeVnwaJp_QoH8TftRfGacpgl4v42d-aX0HfPm4aYsjlEubJPgyeJaH5GT23G9qAxMNwPfpUUv26ttvyFb-i1JBi", "width": 429}], "place_id": "ChIJ1UDVnf4j9DkRxlBadoLFD68", "plus_code": {"compound_code": "J5GC+PM Chas, Jharkhand, India", "global_code": "7MM8J5GC+PM"}, "rating": 4, "reference": "ChIJ1UDVnf4j9DkRxlBadoLFD68", "scope": "GOOGLE", "types": ["doctor", "health", "point_of_interest", "establishment"], "user_ratings_total": 2, "vicinity": "Tara Nagar, Bansidih Colony, Chas"}, {"business_status": "OPERATIONAL", "geometry": {"location": {"lat": 23.633277, "lng": 86.1734769}, "viewport": {"northeast": {"lat": 23.6345255302915, "lng": 86.1748103302915}, "southwest": {"lat": 23.63182756970849, "lng": 86.17211236970849}}}, "icon": "https://maps.gstatic.com/mapfiles/place_api/icons/v1/png_71/generic_business-71.png", "icon_background_color": "#7B9EB0", "icon_mask_base_uri": "https://maps.gstatic.com/mapfiles/place_api/icons/v2/generic_pinlet", "name": "NephroPlus Dialysis Center at K M Memorial Hospital", "opening_hours": {"open_now": true}, "photos": [{"height": 4160, "html_attributions": ["<a href=\"https://maps.google.com/maps/contrib/105826195997770547105\">PRAKASH KUMAR</a>"], "photo_reference": "Aap_uEDkbCxoe5wCLmSZm60mken8yRHxMC2nxb0RTo9WdYcFuVzY1UMA-nXcoo4q_OkpHZRm8dQdewcS8atPy4AJ2cu2h3-XxnYINhpxkULUKOJUFflytR6O4TcWPNsUaj7X6NyGMP5ynhdjCzKYeRvLsI-6fXdfoIeadm9gZFZMQ7mHLFOp", "width": 3120}], "place_id": "ChIJZ7JazOIj9DkR7Ca4qi4nSLA", "plus_code": {"compound_code": "J5MF+89 Bokaro Steel City, Jharkhand, India", "global_code": "7MM8J5MF+89"}, "rating": 4.4, "reference": "ChIJZ7JazOIj9DkR7Ca4qi4nSLA", "scope": "GOOGLE", "types": ["hospital", "doctor", "health", "point_of_interest", "establishment"], "user_ratings_total": 7, "vicinity": "Bye Pass Road, Bokaro, National Highway 23,, Chas,, Bokaro Steel City"}, {"business_status": "OPERATIONAL", "geometry": {"location": {"lat": 23.62933049999999, "lng": 86.1662667}, "viewport": {"northeast": {"lat": 23.6307132302915, "lng": 86.1675587302915}, "southwest": {"lat": 23.62801526970849, "lng": 86.1648607697085}}}, "icon": "https://maps.gstatic.com/mapfiles/place_api/icons/v1/png_71/generic_business-71.png", "icon_background_color": "#7B9EB0", "icon_mask_base_uri": "https://maps.gstatic.com/mapfiles/place_api/icons/v2/generic_pinlet", "name": "Chadsi Clinic", "place_id": "ChIJXUjViycj9DkRTbHYWhRhP1I", "reference": "ChIJXUjViycj9DkRTbHYWhRhP1I", "scope": "GOOGLE", "types": ["doctor", "health", "point_of_interest", "establishment"], "vicinity": "J5H8+PGJ, Adrash Colony, Bokaro Steel City"}, {"business_status": "OPERATIONAL", "geometry": {"location": {"lat": 23.6301139, "lng": 86.16738959999999}, "viewport": {"northeast": {"lat": 23.6314605302915, "lng": 86.16873668029152}, "southwest": {"lat": 23.6287625697085, "lng": 86.1660387197085}}}, "icon": "https://maps.gstatic.com/mapfiles/place_api/icons/v1/png_71/generic_business-71.png", "icon_background_color": "#7B9EB0", "icon_mask_base_uri": "https://maps.gstatic.com/mapfiles/place_api/icons/v2/generic_pinlet", "name": "Suresh Amrit Multispeciality Hospital", "opening_hours": {"open_now": true}, "photos": [{"height": 1800, "html_attributions": ["<a href=\"https://maps.google.com/maps/contrib/110170208882156300234\">Suresh Amrit Multispeciality Hospital</a>"], "photo_reference": "Aap_uEDs37A97VQyvd2Bne0-ZVhnayFJUFpF6yGSSMuIC9Wb9KkUSIPAt8sWVa46IT3mC9v8uC1mPLrlqm2U8yrp1y4PJ78ajK4we06tbttsJuKJ0kp-pJLBLT0oEi-J_AqCVQlrf8EoRl4dn_20_Q47DzEO_MjO91MSJBLkYQ3Bboh856Z2", "width": 4000}], "place_id": "ChIJkfdgQh8j9DkR8EnqO4-Cj5U", "plus_code": {"compound_code": "J5J8+2X Chas, Jharkhand, India", "global_code": "7MM8J5J8+2X"}, "rating": 5, "reference": "ChIJkfdgQh8j9DkR8EnqO4-Cj5U", "scope": "GOOGLE", "types": ["doctor", "health", "point_of_interest", "store", "establishment"], "user_ratings_total": 6, "vicinity": "next to Dr. Jain gali, Telidih Road, next to Dr. Jain gali, Chas"}, {"business_status": "OPERATIONAL", "geometry": {"location": {"lat": 23.6301011, "lng": 86.16786739999999}, "viewport": {"northeast": {"lat": 23.6314804802915, "lng": 86.1692369302915}, "southwest": {"lat": 23.6287825197085, "lng": 86.16653896970848}}}, "icon": "https://maps.gstatic.com/mapfiles/place_api/icons/v1/png_71/generic_business-71.png", "icon_background_color": "#7B9EB0", "icon_mask_base_uri": "https://maps.gstatic.com/mapfiles/place_api/icons/v2/generic_pinlet", "name": "Dr Anwshka Kumari", "opening_hours": {"open_now": false}, "place_id": "ChIJ8c1ZfKYj9DkRbG9fH9E_1is", "plus_code": {"compound_code": "J5J9+24 Chas, Jharkhand, India", "global_code": "7MM8J5J9+24"}, "reference": "ChIJ8c1ZfKYj9DkRbG9fH9E_1is", "scope": "GOOGLE", "types": ["doctor", "health", "point_of_interest", "establishment"], "vicinity": "near Prabhat Colony, Amrit Multispeciality Hospital, Telidih More, near Prabhat Colony, Chas"}, {"business_status": "OPERATIONAL", "geometry": {"location": {"lat": 23.6321643, "lng": 86.16722589999999}, "viewport": {"northeast": {"lat": 23.63345703029151, "lng": 86.16874218029149}, "southwest": {"lat": 23.6307590697085, "lng": 86.16604421970848}}}, "icon": "https://maps.gstatic.com/mapfiles/place_api/icons/v1/png_71/generic_business-71.png", "icon_background_color": "#7B9EB0", "icon_mask_base_uri": "https://maps.gstatic.com/mapfiles/place_api/icons/v2/generic_pinlet", "name": "Chandi Automobiles", "opening_hours": {"open_now": true}, "photos": [{"height": 1970, "html_attributions": ["<a href=\"https://maps.google.com/maps/contrib/101638479909688305134\">shankar kumar</a>"], "photo_reference": "Aap_uED05QLBA1Z8usdmy9RdVCJxcN5B-gFYdZt9hj1zICOk1mTi2-itLzpBOUkudA84AvjP9n8YExwhNIr9hSRpvWNsIm8mgZG0VKrHZ5rxS2eWwTdJ3J-rjT_fA75_4q8ngsyWVg23ECAElg1BcT3JXFZg2PnJlb4pZcABlBR1UrnLzjEr", "width": 4160}], "place_id": "ChIJQyi10Poj9DkRVIWqvTbOi2c", "plus_code": {"compound_code": "J5J8+VV Chas, Jharkhand, India", "global_code": "7MM8J5J8+VV"}, "rating": 5, "reference": "ChIJQyi10Poj9DkRVIWqvTbOi2c", "scope": "GOOGLE", "types": ["doctor", "health", "point_of_interest", "establishment"], "user_ratings_total": 1, "vicinity": "Telidih Road, Bansidih Colony, Chas"}, {"business_status": "OPERATIONAL", "geometry": {"location": {"lat": 23.63127489999999, "lng": 86.17097869999999}, "viewport": {"northeast": {"lat": 23.6326333302915, "lng": 86.17220893029149}, "southwest": {"lat": 23.62993536970849, "lng": 86.16951096970848}}}, "icon": "https://maps.gstatic.com/mapfiles/place_api/icons/v1/png_71/generic_business-71.png", "icon_background_color": "#7B9EB0", "icon_mask_base_uri": "https://maps.gstatic.com/mapfiles/place_api/icons/v2/generic_pinlet", "name": "Baba Homoeo Pharmacy", "opening_hours": {"open_now": true}, "place_id": "ChIJj79mlvwj9DkR7h4AKk_a3rY", "rating": 4.5, "reference": "ChIJj79mlvwj9DkR7h4AKk_a3rY", "scope": "GOOGLE", "types": ["doctor", "health", "point_of_interest", "establishment"], "user_ratings_total": 2, "vicinity": "J5JC+G95, Bansidih Colony, Bokaro Steel City"}, {"business_status": "OPERATIONAL", "geometry": {"location": {"lat": 23.6322171, "lng": 86.1712403}, "viewport": {"northeast": {"lat": 23.6336023802915, "lng": 86.17258483029151}, "southwest": {"lat": 23.6309044197085, "lng": 86.16988686970849}}}, "icon": "https://maps.gstatic.com/mapfiles/place_api/icons/v1/png_71/generic_business-71.png", "icon_background_color": "#7B9EB0", "icon_mask_base_uri": "https://maps.gstatic.com/mapfiles/place_api/icons/v2/generic_pinlet", "name": "Jain Arogyam (Panchakarma and Ayurvedic Diagnostic )", "opening_hours": {"open_now": true}, "place_id": "ChIJvV3D92Ah9DkRajh107k4GCg", "plus_code": {"compound_code": "J5JC+VF Bokaro Steel City, Jharkhand, India", "global_code": "7MM8J5JC+VF"}, "rating": 4.4, "reference": "ChIJvV3D92Ah9DkRajh107k4GCg", "scope": "GOOGLE", "types": ["doctor", "health", "point_of_interest", "establishment"], "user_ratings_total": 9, "vicinity": "opposite TVS Showroom, Bye pass, opposite TVS Showroom, Road, Chas, Bokaro Steel City"}, {"business_status": "OPERATIONAL", "geometry": {"location": {"lat": 23.6325403, "lng": 86.1742871}, "viewport": {"northeast": {"lat": 23.6339338802915, "lng": 86.1756296302915}, "southwest": {"lat": 23.6312359197085, "lng": 86.17293166970849}}}, "icon": "https://maps.gstatic.com/mapfiles/place_api/icons/v1/png_71/generic_business-71.png", "icon_background_color": "#7B9EB0", "icon_mask_base_uri": "https://maps.gstatic.com/mapfiles/place_api/icons/v2/generic_pinlet", "name": "Janch Ghar Mahavir Path Lab", "opening_hours": {"open_now": true}, "place_id": "ChIJt2q_Tv0j9DkRpdImRBtbhOA", "plus_code": {"compound_code": "J5MF+2P Bokaro Steel City, Jharkhand, India", "global_code": "7MM8J5MF+2P"}, "reference": "ChIJt2q_Tv0j9DkRpdImRBtbhOA", "scope": "GOOGLE", "types": ["doctor", "health", "point_of_interest", "establishment"], "vicinity": "Bye Pass Road, Chas, Bokaro Steel City"}, {"business_status": "OPERATIONAL", "geometry": {"location": {"lat": 23.6297489, "lng": 86.1753761}, "viewport": {"northeast": {"lat": 23.6310779802915, "lng": 86.17672218029149}, "southwest": {"lat": 23.6283800197085, "lng": 86.17402421970849}}}, "icon": "https://maps.gstatic.com/mapfiles/place_api/icons/v1/png_71/generic_business-71.png", "icon_background_color": "#7B9EB0", "icon_mask_base_uri": "https://maps.gstatic.com/mapfiles/place_api/icons/v2/generic_pinlet", "name": "Dr. A. Kumar", "opening_hours": {"open_now": true}, "photos": [{"height": 1920, "html_attributions": ["<a href=\"https://maps.google.com/maps/contrib/104829352599070913962\">manobindu mandal</a>"], "photo_reference": "Aap_uEBivtPVlpB55fzvjMcL1FR4OR7vj4xz2kpJScxzwzhiwMRAI4H1uEE9Gz-4yW3J_GORSWKCw4zB6fXTVihe697p-RNkJQhniVPTfm5nWUJ1fK-XhQ3y2zaqE1749JuvhBaLhi3uoSvP1fKBJIGOnTxUilSatvYLgcBZb5hLfzH8ctVr", "width": 1080}], "place_id": "ChIJ_-sT_7wh9DkRebJmGt5_6SI", "reference": "ChIJ_-sT_7wh9DkRebJmGt5_6SI", "scope": "GOOGLE", "types": ["doctor", "health", "point_of_interest", "establishment"], "vicinity": "J5HG+V5R, Bansidih Colony, Chas"}, {"business_status": "OPERATIONAL", "geometry": {"location": {"lat": 23.6374821, "lng": 86.1618695}, "viewport": {"northeast": {"lat": 23.6388898302915, "lng": 86.1632590302915}, "southwest": {"lat": 23.6361918697085, "lng": 86.16056106970848}}}, "icon": "https://maps.gstatic.com/mapfiles/place_api/icons/v1/png_71/generic_business-71.png", "icon_background_color": "#7B9EB0", "icon_mask_base_uri": "https://maps.gstatic.com/mapfiles/place_api/icons/v2/generic_pinlet", "name": "Panchshil Homoeo Hall", "opening_hours": {"open_now": true}, "place_id": "ChIJ0RCl3O4j9DkRylHkSem4WU4", "plus_code": {"compound_code": "J5P6+XP Bokaro Steel City, Jharkhand, India", "global_code": "7MM8J5P6+XP"}, "rating": 5, "reference": "ChIJ0RCl3O4j9DkRylHkSem4WU4", "scope": "GOOGLE", "types": ["doctor", "health", "point_of_interest", "establishment"], "user_ratings_total": 1, "vicinity": "Patel Market Chas, Bokaro Steel City"}, {"business_status": "OPERATIONAL", "geometry": {"location": {"lat": 23.6251985, "lng": 86.175406}, "viewport": {"northeast": {"lat": 23.6265464802915, "lng": 86.1767224302915}, "southwest": {"lat": 23.6238485197085, "lng": 86.1740244697085}}}, "icon": "https://maps.gstatic.com/mapfiles/place_api/icons/v1/png_71/generic_business-71.png", "icon_background_color": "#7B9EB0", "icon_mask_base_uri": "https://maps.gstatic.com/mapfiles/place_api/icons/v2/generic_pinlet", "name": "Dr. P .K. Dasgupta (Residence)", "opening_hours": {"open_now": true}, "place_id": "ChIJgw6ai1Uh9DkRpnw9U9ySgXo", "plus_code": {"compound_code": "J5GG+35 Chas, Jharkhand, India", "global_code": "7MM8J5GG+35"}, "rating": 4.5, "reference": "ChIJgw6ai1Uh9DkRpnw9U9ySgXo", "scope": "GOOGLE", "types": ["doctor", "health", "point_of_interest", "establishment"], "user_ratings_total": 2, "vicinity": "Jharkhand National Highway 320, Sarswatinagar, Bansidih, Chas"}, {"business_status": "OPERATIONAL", "geometry": {"location": {"lat": 23.6377174, "lng": 86.1613019}, "viewport": {"northeast": {"lat": 23.6391384302915, "lng": 86.1626900802915}, "southwest": {"lat": 23.63644046970849, "lng": 86.15999211970849}}}, "icon": "https://maps.gstatic.com/mapfiles/place_api/icons/v1/png_71/generic_business-71.png", "icon_background_color": "#7B9EB0", "icon_mask_base_uri": "https://maps.gstatic.com/mapfiles/place_api/icons/v2/generic_pinlet", "name": "doctor Krishna Kant Ayurved medical", "place_id": "ChIJaWVP_EQj9DkRdpvF8C8tJV8", "plus_code": {"compound_code": "J5Q6+3G Bokaro Steel City, Jharkhand, India", "global_code": "7MM8J5Q6+3G"}, "reference": "ChIJaWVP_EQj9DkRdpvF8C8tJV8", "scope": "GOOGLE", "types": ["doctor", "health", "point_of_interest", "establishment"], "vicinity": "Checkpost, Chas, Bokaro Steel City"}, {"business_status": "OPERATIONAL", "geometry": {"location": {"lat": 23.6388374, "lng": 86.1700894}, "viewport": {"northeast": {"lat": 23.6401036302915, "lng": 86.17123328029149}, "southwest": {"lat": 23.6374056697085, "lng": 86.16853531970848}}}, "icon": "https://maps.gstatic.com/mapfiles/place_api/icons/v1/png_71/generic_business-71.png", "icon_background_color": "#7B9EB0", "icon_mask_base_uri": "https://maps.gstatic.com/mapfiles/place_api/icons/v2/generic_pinlet", "name": "Sidhhi Vinayak Opticals", "photos": [{"height": 1080, "html_attributions": ["<a href=\"https://maps.google.com/maps/contrib/113824834266887273534\">Rahul Singh</a>"], "photo_reference": "Aap_uEAWCyUMc1E4ZFPFOnJTPdzVfkrNc3BMaMJBbdW7quZQrHyjSZB8MLEpc3u6dcH4fqjPpSIMdjkwuAdflNu2u8Jxl_bk50_tmrKsPgHDOWbiMiaBc4UJEYCMeZoCPdZajRXvKsr3EUcRuUsmLub328Z2n5kjmyJTQglQM5b-4ThYO8xK", "width": 1920}], "place_id": "ChIJISxTgVMj9DkRp6yibnLASmo", "plus_code": {"compound_code": "J5QC+G2 Bokaro Steel City, Jharkhand, India", "global_code": "7MM8J5QC+G2"}, "rating": 4.8, "reference": "ChIJISxTgVMj9DkRp6yibnLASmo", "scope": "GOOGLE", "types": ["doctor", "health", "point_of_interest", "establishment"], "user_ratings_total": 4, "vicinity": "Dutta market.check post chas-827013 near-yamuna villa hotel, Bokaro Steel City"}, {"business_status": "OPERATIONAL", "geometry": {"location": {"lat": 23.6254516, "lng": 86.1776596}, "viewport": {"northeast": {"lat": 23.6268203802915, "lng": 86.17899968029151}, "southwest": {"lat": 23.6241224197085, "lng": 86.17630171970849}}}, "icon": "https://maps.gstatic.com/mapfiles/place_api/icons/v1/png_71/generic_business-71.png", "icon_background_color": "#7B9EB0", "icon_mask_base_uri": "https://maps.gstatic.com/mapfiles/place_api/icons/v2/generic_pinlet", "name": "Ashok Kumar ambastha", "photos": [{"height": 1920, "html_attributions": ["<a href=\"https://maps.google.com/maps/contrib/109020898369794776977\">Ashok Kumar Ambastha</a>"], "photo_reference": "Aap_uEDIbnPTWtPaFeIWz-oJGB2obPAJ2jTt-_nnqynXNZ214OOgzhj6BtSaMCblC2jnejwZWRnwDRdbg4MvmjqK6vcNjURCkGFAQ5YPpYRNpIXxjI3vhYV4KLxX7nS-sXq84BykQ4yxSXwCporibVoharfhNV4tf9M52Hw4QKfK6PPoCD6g", "width": 1080}], "place_id": "ChIJw6-Tzxsh9DkRxKrbnxb_NlE", "plus_code": {"compound_code": "J5GH+53 Chas, Jharkhand, India", "global_code": "7MM8J5GH+53"}, "reference": "ChIJw6-Tzxsh9DkRxKrbnxb_NlE", "scope": "GOOGLE", "types": ["doctor", "health", "point_of_interest", "establishment"], "vicinity": "Saraswati Colony, Sarswatinagar, Shivpuri Colony, Chas"}], "status": "OK"}