{"html_attributions": [], "results": [{"business_status": "OPERATIONAL", "geometry": {"location": {"lat": 23.7228829, "lng": 86.40962309999999}, "viewport": {"northeast": {"lat": 23.7242514802915, "lng": 86.4110719802915}, "southwest": {"lat": 23.7215535197085, "lng": 86.40837401970849}}}, "icon": "https://maps.gstatic.com/mapfiles/place_api/icons/v1/png_71/generic_business-71.png", "icon_background_color": "#7B9EB0", "icon_mask_base_uri": "https://maps.gstatic.com/mapfiles/place_api/icons/v2/generic_pinlet", "name": "PR Banerjee Homeopathy", "photos": [{"height": 1080, "html_attributions": ["<a href=\"https://maps.google.com/maps/contrib/117451530427699065656\">#Sushant</a>"], "photo_reference": "Aap_uEDL73LPioBGM1M0Lio0iwMfiEOwqQkeZCUmm4Uw-1ZovE-bZT_NUB0zEzXvjSd9GEb2R1V6h77NTiXIM24CxcVvk2eErY1LfmDxfzzEZ0xDv9i7HVSwxTSJDCChDnfAr56ueFN3_LR8CxyYKdazmob8G3AymsIvH7oKt5G_LobPjWOc", "width": 1920}], "place_id": "ChIJy9H6zTaj9jkRuJinMr1kvp4", "rating": 5, "reference": "ChIJy9H6zTaj9jkRuJinMr1kvp4", "scope": "GOOGLE", "types": ["doctor", "health", "point_of_interest", "establishment"], "user_ratings_total": 1, "vicinity": "PCF5+5R5, Jamadoba"}, {"business_status": "OPERATIONAL", "geometry": {"location": {"lat": 23.7209416, "lng": 86.4103269}, "viewport": {"northeast": {"lat": 23.7222875802915, "lng": 86.41166258029152}, "southwest": {"lat": 23.7195896197085, "lng": 86.4089646197085}}}, "icon": "https://maps.gstatic.com/mapfiles/place_api/icons/v1/png_71/generic_business-71.png", "icon_background_color": "#7B9EB0", "icon_mask_base_uri": "https://maps.gstatic.com/mapfiles/place_api/icons/v2/generic_pinlet", "name": "DR S M IQBAL CLINIC", "photos": [{"height": 3120, "html_attributions": ["<a href=\"https://maps.google.com/maps/contrib/110556648659934208065\">Hirdya Ranjan</a>"], "photo_reference": "Aap_uECGPJZm_XQSBxaSmvTW4-WCebjbwoZRcxpC7X9puM-UW0kbZF09WyruBB_TCPDV6iBhqtirfmcbuNSVniAksyky0e8O8LpEKg4VkkdfqncfNLKUyZxcSg3bY4vOTp8V-TCQpwQwGu77-aMNDxQ-mTYR8FdIIKres9eVYlGuCxuxMsFY", "width": 4160}], "place_id": "ChIJvyqykQeY9jkRd8jr7LPOFm8", "rating": 5, "reference": "ChIJvyqykQeY9jkRd8jr7LPOFm8", "scope": "GOOGLE", "types": ["doctor", "health", "point_of_interest", "establishment"], "user_ratings_total": 5, "vicinity": "PCC6+94G, Jamadoba"}, {"business_status": "OPERATIONAL", "geometry": {"location": {"lat": 23.7371218, "lng": 86.41220919999999}, "viewport": {"northeast": {"lat": 23.7384753802915, "lng": 86.4135343302915}, "southwest": {"lat": 23.73577741970849, "lng": 86.41083636970848}}}, "icon": "https://maps.gstatic.com/mapfiles/place_api/icons/v1/png_71/generic_business-71.png", "icon_background_color": "#7B9EB0", "icon_mask_base_uri": "https://maps.gstatic.com/mapfiles/place_api/icons/v2/generic_pinlet", "name": "Nawadah Clinic", "opening_hours": {"open_now": true}, "place_id": "ChIJPZR6DLGi9jkRkExn2TTKBNU", "plus_code": {"compound_code": "PCP6+RV Jharia, Jharkhand, India", "global_code": "7MM8PCP6+RV"}, "reference": "ChIJPZR6DLGi9jkRkExn2TTKBNU", "scope": "GOOGLE", "types": ["doctor", "health", "point_of_interest", "establishment"], "vicinity": "Unnamed Road, Shamsher Nagar, Jharia"}, {"business_status": "OPERATIONAL", "geometry": {"location": {"lat": 23.7372053, "lng": 86.41220709999999}, "viewport": {"northeast": {"lat": 23.7385548802915, "lng": 86.4135527302915}, "southwest": {"lat": 23.7358569197085, "lng": 86.4108547697085}}}, "icon": "https://maps.gstatic.com/mapfiles/place_api/icons/v1/png_71/generic_business-71.png", "icon_background_color": "#7B9EB0", "icon_mask_base_uri": "https://maps.gstatic.com/mapfiles/place_api/icons/v2/generic_pinlet", "name": "Nawadah Clinic & Dr. Rayees Ahmad Hijama Centre", "opening_hours": {"open_now": true}, "place_id": "ChIJt53pl2Cj9jkRkUOrpXaFrvM", "plus_code": {"compound_code": "PCP6+VV Jharia, Jharkhand, India", "global_code": "7MM8PCP6+VV"}, "rating": 3, "reference": "ChIJt53pl2Cj9jkRkUOrpXaFrvM", "scope": "GOOGLE", "types": ["doctor", "health", "point_of_interest", "establishment"], "user_ratings_total": 2, "vicinity": "behind STATE BANK ATM, Shamsher Nagar, Jharia"}, {"business_status": "OPERATIONAL", "geometry": {"location": {"lat": 23.7385809, "lng": 86.412532}, "viewport": {"northeast": {"lat": 23.7399288802915, "lng": 86.4138789302915}, "southwest": {"lat": 23.7372309197085, "lng": 86.4111809697085}}}, "icon": "https://maps.gstatic.com/mapfiles/place_api/icons/v1/png_71/generic_business-71.png", "icon_background_color": "#7B9EB0", "icon_mask_base_uri": "https://maps.gstatic.com/mapfiles/place_api/icons/v2/generic_pinlet", "name": "HAQ Clinic - Dr. S M Iqbal Nasir", "place_id": "ChIJM5RVp6Gj9jkRqwkMDPgANDQ", "plus_code": {"compound_code": "PCQ7+C2 Jharia, Jharkhand, India", "global_code": "7MM8PCQ7+C2"}, "rating": 5, "reference": "ChIJM5RVp6Gj9jkRqwkMDPgANDQ", "scope": "GOOGLE", "types": ["doctor", "health", "point_of_interest", "establishment"], "user_ratings_total": 2, "vicinity": "Upper Kulhi Road, Poddar Para, Jharia"}, {"business_status": "OPERATIONAL", "geometry": {"location": {"lat": 23.7387107, "lng": 86.41240020000001}, "viewport": {"northeast": {"lat": 23.7400771802915, "lng": 86.41378373029151}, "southwest": {"lat": 23.73737921970849, "lng": 86.4110857697085}}}, "icon": "https://maps.gstatic.com/mapfiles/place_api/icons/v1/png_71/generic_business-71.png", "icon_background_color": "#7B9EB0", "icon_mask_base_uri": "https://maps.gstatic.com/mapfiles/place_api/icons/v2/generic_pinlet", "name": "Ilsa Poly Clinic", "opening_hours": {"open_now": false}, "place_id": "ChIJCU2dOLGi9jkRwTXawEdY2zo", "plus_code": {"compound_code": "PCQ6+FX Dhanbad, Jharkhand, India", "global_code": "7MM8PCQ6+FX"}, "rating": 4.3, "reference": "ChIJCU2dOLGi9jkRwTXawEdY2zo", "scope": "GOOGLE", "types": ["doctor", "health", "point_of_interest", "establishment"], "user_ratings_total": 6, "vicinity": "near Mohammedia Madarsa, Uppar Kulli, Jharia, near Mohammedia Madarsa, Dhanbad"}, {"business_status": "OPERATIONAL", "geometry": {"location": {"lat": 23.7173821, "lng": 86.4005316}, "viewport": {"northeast": {"lat": 23.7187709802915, "lng": 86.40188728029149}, "southwest": {"lat": 23.7160730197085, "lng": 86.39918931970848}}}, "icon": "https://maps.gstatic.com/mapfiles/place_api/icons/v1/png_71/generic_business-71.png", "icon_background_color": "#7B9EB0", "icon_mask_base_uri": "https://maps.gstatic.com/mapfiles/place_api/icons/v2/generic_pinlet", "name": "DR GHULAM SAMDANI", "opening_hours": {"open_now": false}, "photos": [{"height": 4000, "html_attributions": ["<a href=\"https://maps.google.com/maps/contrib/104486222726471224535\">Md Ghulam samdani</a>"], "photo_reference": "Aap_uEAOAlLxoFy8Vf-4kic6aBQy3sr0tJz8Sz3qeR06mJRQ-lTPF_SR275P_jkoI6y0MjagHHfpMJ2fC9rktqGR5seRfMxo1pCFChG5_boMPFZENFTUNcf5KLQdgU8sbCuYOcEGc6G6-VGT2YUpkCVTV-xJiq7aREA1HI2FtTrZU0-8zPm6", "width": 3000}], "place_id": "ChIJ1Vthh0eZ9jkRNv7aQk7_UqE", "plus_code": {"compound_code": "PC82+X6 Dhanbad, Jharkhand, India", "global_code": "7MM8PC82+X6"}, "reference": "ChIJ1Vthh0eZ9jkRNv7aQk7_UqE", "scope": "GOOGLE", "types": ["doctor", "health", "point_of_interest", "establishment"], "vicinity": "JAMADOBA JITPUR ROAD, LIFE MEDICAL KUMARDUBI MAITHON ROAD , R B HOMEO HALL BHOWRA BAZAR ,HAZRA CLINIC, Hirapur, Dhanbad"}], "status": "OK"}