{"html_attributions": [], "next_page_token": "Aap_uEALt5EPIOYFO_Xi3lAkfCWpnbU-vxckHmPdB4eRE_OQeCmezYPoYAFZMYjU6ljEazMbjqGm1HbMP7CbSXo_tPhX6HCdEVQW-xv5JAB-8jTjlkFHmoT_Li_7KvKj3SXwEG50Mp96xRMCobWbq5foZ_410qNTi8zOnsrdW7e6qaZFswcaaAykW36tgcCbTsf0c1dr2l2dynvW82G9AJVaiItr_QfTw1FfNRRo3Is648ndbYpcSMmv4h0m9kebPh652RjJiYsjVfCaKcd8_bK36w6TrtP6JKWI9J-CwsZzD0UXipbNo1AKlWcugIzQWMV70ao9IbMZ7Rau9sH3qqdvF_I0cmTGqAZD45Z-vZgcBPZP4YZHR59nwf1BBknqWHPTLoHQJPY2TeYA-8EfoUYMOpGO1V9vUyY05O_E7G1f4otdZ7grCKA", "results": [{"business_status": "OPERATIONAL", "geometry": {"location": {"lat": 23.8091692, "lng": 86.4325755}, "viewport": {"northeast": {"lat": 23.8105322802915, "lng": 86.4338844802915}, "southwest": {"lat": 23.8078343197085, "lng": 86.43118651970849}}}, "icon": "https://maps.gstatic.com/mapfiles/place_api/icons/v1/png_71/generic_business-71.png", "icon_background_color": "#7B9EB0", "icon_mask_base_uri": "https://maps.gstatic.com/mapfiles/place_api/icons/v2/generic_pinlet", "name": "Khushi Skin Clinic, (Dr. Anjani Shukla), Dhanbad", "opening_hours": {"open_now": false}, "photos": [{"height": 370, "html_attributions": ["<a href=\"https://maps.google.com/maps/contrib/109994250504050075973\">anakhi singh</a>"], "photo_reference": "Aap_uEBiuxEC_lPIV0HaUbfvED2x0KJpoUScYAnXzcOofUb-Yc2_Z12dP9P-0EVxUr75qDYs8lV3HsTzRttcM3_ijQphblmKVId9bE6lAfW3A8Y0J-xH22XL4WNn_AvJB85lliPOix3civLwKM4kKDlZRWfLb37Vg18ChXonLA1Y1vqX9AP5", "width": 600}], "place_id": "ChIJsfthXaS89jkRcBkZG3Z6Euo", "plus_code": {"compound_code": "RC5M+M2 Dhanbad, Jharkhand, India", "global_code": "7MM8RC5M+M2"}, "rating": 4.4, "reference": "ChIJsfthXaS89jkRcBkZG3Z6Euo", "scope": "GOOGLE", "types": ["doctor", "health", "point_of_interest", "establishment"], "user_ratings_total": 111, "vicinity": "opposite BASANT SWEETS ON, FIRST FLOOR, BOB AND BOI ATM BUILDING, NEAR PANDIT CLINIC AND DHANBAD BARTAND BUS STAND.., opposite BASANT SWEETS ON, Main Road, Dhanbad"}, {"business_status": "OPERATIONAL", "geometry": {"location": {"lat": 23.8067015, "lng": 86.4346968}, "viewport": {"northeast": {"lat": 23.8081012302915, "lng": 86.4360552802915}, "southwest": {"lat": 23.8054032697085, "lng": 86.43335731970849}}}, "icon": "https://maps.gstatic.com/mapfiles/place_api/icons/v1/png_71/generic_business-71.png", "icon_background_color": "#7B9EB0", "icon_mask_base_uri": "https://maps.gstatic.com/mapfiles/place_api/icons/v2/generic_pinlet", "name": "Dr. Manisha's Multispeciality Health Clinic - Dermatologist | Sexologist|Hair Specialist in Dhanbad", "opening_hours": {"open_now": false}, "photos": [{"height": 1016, "html_attributions": ["<a href=\"https://maps.google.com/maps/contrib/101430205527920186905\">Dr. Manisha&#39;s Multispeciality Health Clinic - Dermatologist | Sexologist|Hair Specialist in Dhanbad</a>"], "photo_reference": "Aap_uEB_6J5oaxXvvpQMR_Xaaa30I6PRG3mAQQRRkB3QRrJo_OL7PfAJ0nVMRJshG0vzn11rMsXQiy7NBRVE1zwXjDwhKnL3Icd3OXOIusANfhUo2XaF339U4EQTfTuEdnqiM1_vjwFyENiF8SplVI6yaU7y6eqw4Va3naAJX7UXmb9RnxnT", "width": 1760}], "place_id": "ChIJ965aoqS89jkRBz15EGgLEl8", "plus_code": {"compound_code": "RC4M+MV Dhanbad, Jharkhand, India", "global_code": "7MM8RC4M+MV"}, "rating": 4.3, "reference": "ChIJ965aoqS89jkRBz15EGgLEl8", "scope": "GOOGLE", "types": ["doctor", "health", "point_of_interest", "establishment"], "user_ratings_total": 126, "vicinity": "HIG Plot No 28 Housing Colony Road Sardar Patel Nagar Bartand, Housing Colony, Dhanbad"}, {"business_status": "OPERATIONAL", "geometry": {"location": {"lat": 23.8059938, "lng": 86.4266202}, "viewport": {"northeast": {"lat": 23.8073486302915, "lng": 86.4279564802915}, "southwest": {"lat": 23.80465066970849, "lng": 86.42525851970849}}}, "icon": "https://maps.gstatic.com/mapfiles/place_api/icons/v1/png_71/generic_business-71.png", "icon_background_color": "#7B9EB0", "icon_mask_base_uri": "https://maps.gstatic.com/mapfiles/place_api/icons/v2/generic_pinlet", "name": "Narayan Niwas (Dr. Ganga Prashad)(Best Dermetologist in Dhanbad) - Best Dermetologist in Dhanbad", "opening_hours": {"open_now": false}, "photos": [{"height": 1080, "html_attributions": ["<a href=\"https://maps.google.com/maps/contrib/108495008568356663566\">Explore &amp; More</a>"], "photo_reference": "Aap_uEArGXyYqss_a43ga4dIqhZntD4Ib7pGFr8zkg7wxoUFdsD52EejW-0QF--DkK_WYZ_Iqj5-Y2bUchBbk5ZzMQwttzHj8jvwajGMkMN5JV2Jp9PqGG0427Vf3FPKUgm2HKUxNMDcMaVep6-8KrxcCaYQkuK1Q9t1S8TNu99e1dRYsCRx", "width": 1920}], "place_id": "ChIJGchb2haj9jkR4xMCbcYrY2Y", "plus_code": {"compound_code": "RC4G+9J Dhanbad, Jharkhand, India", "global_code": "7MM8RC4G+9J"}, "rating": 4, "reference": "ChIJGchb2haj9jkR4xMCbcYrY2Y", "scope": "GOOGLE", "types": ["doctor", "health", "point_of_interest", "establishment"], "user_ratings_total": 23, "vicinity": "near Hanuman Mandir, Carmel School Road, near Hanuman Mandir, Jharudih, Dhanbad"}, {"business_status": "OPERATIONAL", "geometry": {"location": {"lat": 23.8061165, "lng": 86.4307563}, "viewport": {"northeast": {"lat": 23.8076681802915, "lng": 86.4321201802915}, "southwest": {"lat": 23.8049702197085, "lng": 86.42942221970848}}}, "icon": "https://maps.gstatic.com/mapfiles/place_api/icons/v1/png_71/generic_business-71.png", "icon_background_color": "#7B9EB0", "icon_mask_base_uri": "https://maps.gstatic.com/mapfiles/place_api/icons/v2/generic_pinlet", "name": "Dr Kunal Kishore -Best Neurosurgeon and Spine surgeon in Dhanbad", "opening_hours": {"open_now": true}, "photos": [{"height": 768, "html_attributions": ["<a href=\"https://maps.google.com/maps/contrib/112196025390485383779\">Dr Kunal Kishore -Best Neurosurgeon and Spine surgeon in Dhanbad</a>"], "photo_reference": "Aap_uEDjTvSYTRbCrZw4IldloPRHr-Mvqfg6TYVhb49-Vi6GnhMCX9kH2f3Y-oSMXjtIjeUwAGsTHKfdGni5EUBAwXTMm6qeeZUBbvzaHftx-Vx51WAbx4GIqgBaUdZHMqolwlyPc3Rb9YckWiMKy0bV7oFzqSeQgu-6Za8BWP7XdM4s6zkN", "width": 1024}], "place_id": "ChIJlwWBja699jkRcOQLk7tihGE", "plus_code": {"compound_code": "RC4J+C8 Dhanbad, Jharkhand, India", "global_code": "7MM8RC4J+C8"}, "rating": 5, "reference": "ChIJlwWBja699jkRcOQLk7tihGE", "scope": "GOOGLE", "types": ["doctor", "health", "point_of_interest", "establishment"], "user_ratings_total": 8, "vicinity": "Asian jalan hospital, near City Centre, Bartand, Dhanbad"}, {"business_status": "OPERATIONAL", "geometry": {"location": {"lat": 23.8067867, "lng": 86.4314543}, "viewport": {"northeast": {"lat": 23.8081061802915, "lng": 86.4328943802915}, "southwest": {"lat": 23.8054082197085, "lng": 86.4301964197085}}}, "icon": "https://maps.gstatic.com/mapfiles/place_api/icons/v1/png_71/generic_business-71.png", "icon_background_color": "#7B9EB0", "icon_mask_base_uri": "https://maps.gstatic.com/mapfiles/place_api/icons/v2/generic_pinlet", "name": "Dr. Nishikant Tirkey", "place_id": "ChIJea7iM4K99jkR_1Gkh2aqBxs", "plus_code": {"compound_code": "RC4J+PH Dhanbad, Jharkhand, India", "global_code": "7MM8RC4J+PH"}, "rating": 4.5, "reference": "ChIJea7iM4K99jkR_1Gkh2aqBxs", "scope": "GOOGLE", "types": ["doctor", "health", "point_of_interest", "establishment"], "user_ratings_total": 2, "vicinity": "Shree balajee clinic, near Bus stand, Bartand, Dhanbad"}, {"business_status": "OPERATIONAL", "geometry": {"location": {"lat": 23.8076291, "lng": 86.4318728}, "viewport": {"northeast": {"lat": 23.8089676302915, "lng": 86.43326053029149}, "southwest": {"lat": 23.8062696697085, "lng": 86.43056256970848}}}, "icon": "https://maps.gstatic.com/mapfiles/place_api/icons/v1/png_71/generic_business-71.png", "icon_background_color": "#7B9EB0", "icon_mask_base_uri": "https://maps.gstatic.com/mapfiles/place_api/icons/v2/generic_pinlet", "name": "Dr Lal Pathlab", "place_id": "ChIJWy-GRyO99jkR8SONzIcOIo0", "plus_code": {"compound_code": "RC5J+3P Dhanbad, Jharkhand, India", "global_code": "7MM8RC5J+3P"}, "rating": 4, "reference": "ChIJWy-GRyO99jkR8SONzIcOIo0", "scope": "GOOGLE", "types": ["doctor", "health", "point_of_interest", "establishment"], "user_ratings_total": 1, "vicinity": "Outside bus stand, Bartand, Dhanbad"}, {"business_status": "OPERATIONAL", "geometry": {"location": {"lat": 23.8077275, "lng": 86.43191019999999}, "viewport": {"northeast": {"lat": 23.8090667302915, "lng": 86.4332952802915}, "southwest": {"lat": 23.8063687697085, "lng": 86.4305973197085}}}, "icon": "https://maps.gstatic.com/mapfiles/place_api/icons/v1/png_71/generic_business-71.png", "icon_background_color": "#7B9EB0", "icon_mask_base_uri": "https://maps.gstatic.com/mapfiles/place_api/icons/v2/generic_pinlet", "name": "Best sexologist doctor for Ayurveda Clinic Dhanbad Jharkhand", "opening_hours": {"open_now": true}, "place_id": "ChIJX8Igow699jkRUE45liz0cZw", "plus_code": {"compound_code": "RC5J+3Q Dhanbad, Jharkhand, India", "global_code": "7MM8RC5J+3Q"}, "reference": "ChIJX8Igow699jkRUE45liz0cZw", "scope": "GOOGLE", "types": ["doctor", "health", "point_of_interest", "establishment"], "vicinity": "Jamtara - Dhanbad Road, Jay Prakash Nagar, Sardar Patel Nagar, Dhanbad"}, {"business_status": "OPERATIONAL", "geometry": {"location": {"lat": 23.8051974, "lng": 86.4304929}, "viewport": {"northeast": {"lat": 23.8064197302915, "lng": 86.4318689302915}, "southwest": {"lat": 23.8037217697085, "lng": 86.4291709697085}}}, "icon": "https://maps.gstatic.com/mapfiles/place_api/icons/v1/png_71/generic_business-71.png", "icon_background_color": "#7B9EB0", "icon_mask_base_uri": "https://maps.gstatic.com/mapfiles/place_api/icons/v2/generic_pinlet", "name": "Aarogya Neurospine & wellness centre", "opening_hours": {"open_now": true}, "place_id": "ChIJX-5VA1O99jkRVHfZblG2vnI", "plus_code": {"compound_code": "RC4J+35 Dhanbad, Jharkhand, India", "global_code": "7MM8RC4J+35"}, "reference": "ChIJX-5VA1O99jkRVHfZblG2vnI", "scope": "GOOGLE", "types": ["doctor", "health", "point_of_interest", "establishment"], "vicinity": "City Centre, 1st Floor, Luby Circular Road, Dhanbad"}, {"business_status": "OPERATIONAL", "geometry": {"location": {"lat": 23.80538079999999, "lng": 86.4306857}, "viewport": {"northeast": {"lat": 23.8066789302915, "lng": 86.43222043029151}, "southwest": {"lat": 23.8039809697085, "lng": 86.4295224697085}}}, "icon": "https://maps.gstatic.com/mapfiles/place_api/icons/v1/png_71/generic_business-71.png", "icon_background_color": "#7B9EB0", "icon_mask_base_uri": "https://maps.gstatic.com/mapfiles/place_api/icons/v2/generic_pinlet", "name": "DR. A.K.P SINGH", "opening_hours": {"open_now": false}, "photos": [{"height": 3000, "html_attributions": ["<a href=\"https://maps.google.com/maps/contrib/108147026681859745616\">Anurag Kumar</a>"], "photo_reference": "Aap_uEDu2fEWFyCOfEA6kAQ7vaW6Iw1zpdL5p1Zwpw7pT4CjgeAH-Ms5Hf7fImK8MiYiDlLTOVFWbXm2tViv4tnvIVOU-ADK0eMJ2JXJQRb3gUAm0RqzQAEOPjCMW2xCuTv4-q4uSP6I_R_Zauk2lGqnsmYOMGiYVa1O4LNsCVj4RNmo87me", "width": 4000}], "place_id": "ChIJAZTfxqS89jkRq5XqQ8d2rk4", "plus_code": {"compound_code": "RC4J+57 Dhanbad, Jharkhand, India", "global_code": "7MM8RC4J+57"}, "rating": 3.9, "reference": "ChIJAZTfxqS89jkRq5XqQ8d2rk4", "scope": "GOOGLE", "types": ["doctor", "health", "point_of_interest", "establishment"], "user_ratings_total": 18, "vicinity": "Sardar Patel Nagar, Dhanbad"}, {"business_status": "OPERATIONAL", "geometry": {"location": {"lat": 23.8058848, "lng": 86.4311847}, "viewport": {"northeast": {"lat": 23.8072147802915, "lng": 86.4325984302915}, "southwest": {"lat": 23.8045168197085, "lng": 86.4299004697085}}}, "icon": "https://maps.gstatic.com/mapfiles/place_api/icons/v1/png_71/generic_business-71.png", "icon_background_color": "#7B9EB0", "icon_mask_base_uri": "https://maps.gstatic.com/mapfiles/place_api/icons/v2/generic_pinlet", "name": "Sai Grace Diagnostic Centre-2", "opening_hours": {"open_now": true}, "place_id": "ChIJWxAUKaW89jkRDP9QRbqcl0o", "plus_code": {"compound_code": "RC4J+9F Dhanbad, Jharkhand, India", "global_code": "7MM8RC4J+9F"}, "reference": "ChIJWxAUKaW89jkRDP9QRbqcl0o", "scope": "GOOGLE", "types": ["doctor", "health", "point_of_interest", "establishment"], "vicinity": "City Centre, Dhanbad"}, {"business_status": "OPERATIONAL", "geometry": {"location": {"lat": 23.8076887, "lng": 86.4320429}, "viewport": {"northeast": {"lat": 23.8090452802915, "lng": 86.4333634802915}, "southwest": {"lat": 23.8063473197085, "lng": 86.43066551970848}}}, "icon": "https://maps.gstatic.com/mapfiles/place_api/icons/v1/png_71/generic_business-71.png", "icon_background_color": "#7B9EB0", "icon_mask_base_uri": "https://maps.gstatic.com/mapfiles/place_api/icons/v2/generic_pinlet", "name": "Best Sexologist doctor Consult for Ayurveda Dhanbad Jharkhand", "opening_hours": {"open_now": true}, "photos": [{"height": 1493, "html_attributions": ["<a href=\"https://maps.google.com/maps/contrib/110079481488278805063\">Best Sexologist doctor Consult for Ayurveda Dhanbad Jharkhand</a>"], "photo_reference": "Aap_uEA5H1Zlp3MttNdIgl9SUmDGG8whhr1BqK0HPCK15qAqPJgoM7tBn6n2sES1D2MG_XoIs5ozRODzz_DQYxN3U9tkkUfHMk3MfBccDqYCPJhmzasBwyMffLuX4NIpv2E6YcM2YQ9wlPcOTXzUrWdbSZv7om6iskdI68EtCjaRgXtOEs1b", "width": 2000}], "place_id": "ChIJtx1qcYa99jkR2bpCQk5usrQ", "plus_code": {"compound_code": "RC5J+3R Dhanbad, Jharkhand, India", "global_code": "7MM8RC5J+3R"}, "rating": 3, "reference": "ChIJtx1qcYa99jkR2bpCQk5usrQ", "scope": "GOOGLE", "types": ["doctor", "health", "point_of_interest", "establishment"], "user_ratings_total": 2, "vicinity": "near Baba Sweet, Ayurveda Bhawan, near Baba Sweet, Dhanbad Road, Jay Prakash Nagar, Sardar Patel Nagar, Dhanbad"}, {"business_status": "OPERATIONAL", "geometry": {"location": {"lat": 23.805247, "lng": 86.43073299999999}, "viewport": {"northeast": {"lat": 23.8064867802915, "lng": 86.4321199802915}, "southwest": {"lat": 23.8037888197085, "lng": 86.4294220197085}}}, "icon": "https://maps.gstatic.com/mapfiles/place_api/icons/v1/png_71/generic_business-71.png", "icon_background_color": "#7B9EB0", "icon_mask_base_uri": "https://maps.gstatic.com/mapfiles/place_api/icons/v2/generic_pinlet", "name": "Dental square - Best Dentist in Dhanbad", "opening_hours": {"open_now": true}, "photos": [{"height": 3096, "html_attributions": ["<a href=\"https://maps.google.com/maps/contrib/100657806710883890081\">abhishek agarwal</a>"], "photo_reference": "Aap_uEDKld5HVTk6DEdv_gqLIoPr0WVzNIbYVdNI19yLmaj6u4e6TT8aoaaIhFASk74OZvFlsJPUmaxHNr2KPeQfMSRuNDiQgHr6U671QamPlEqDBkdOyfZNYn77CQ2vYkHW841_WtxO8HvcXCuzUaaex-QUxF221rs1-vrtEjKlfndYBc3_", "width": 4128}], "place_id": "ChIJm6Xzy7q89jkR7gumd5n0EMM", "plus_code": {"compound_code": "RC4J+37 Dhanbad, Jharkhand, India", "global_code": "7MM8RC4J+37"}, "rating": 4.7, "reference": "ChIJm6Xzy7q89jkR7gumd5n0EMM", "scope": "GOOGLE", "types": ["dentist", "doctor", "health", "point_of_interest", "establishment"], "user_ratings_total": 31, "vicinity": "Luby circular road, Dhanbad"}, {"business_status": "OPERATIONAL", "geometry": {"location": {"lat": 23.8052041, "lng": 86.43073969999999}, "viewport": {"northeast": {"lat": 23.8064642302915, "lng": 86.4321195802915}, "southwest": {"lat": 23.80376626970849, "lng": 86.42942161970849}}}, "icon": "https://maps.gstatic.com/mapfiles/place_api/icons/v1/png_71/generic_business-71.png", "icon_background_color": "#7B9EB0", "icon_mask_base_uri": "https://maps.gstatic.com/mapfiles/place_api/icons/v2/generic_pinlet", "name": "Dr Sudhir Kumar", "opening_hours": {"open_now": true}, "place_id": "ChIJ0zk2DMC99jkRGZcywAi87io", "plus_code": {"compound_code": "RC4J+37 Dhanbad, Jharkhand, India", "global_code": "7MM8RC4J+37"}, "reference": "ChIJ0zk2DMC99jkRGZcywAi87io", "scope": "GOOGLE", "types": ["doctor", "health", "point_of_interest", "establishment"], "vicinity": "City Centre, 318, 1st Floor, Luby Circular Road, Dhanbad"}, {"business_status": "OPERATIONAL", "geometry": {"location": {"lat": 23.8035612, "lng": 86.423624}, "viewport": {"northeast": {"lat": 23.8049250802915, "lng": 86.42497893029149}, "southwest": {"lat": 23.8022271197085, "lng": 86.42228096970848}}}, "icon": "https://maps.gstatic.com/mapfiles/place_api/icons/v1/png_71/generic_business-71.png", "icon_background_color": "#7B9EB0", "icon_mask_base_uri": "https://maps.gstatic.com/mapfiles/place_api/icons/v2/generic_pinlet", "name": "Dr. B K Singh", "opening_hours": {"open_now": false}, "place_id": "ChIJSf1HpSK99jkRcfoNxPf_xCk", "plus_code": {"compound_code": "RC3F+CC Dhanbad, Jharkhand, India", "global_code": "7MM8RC3F+CC"}, "rating": 3.3, "reference": "ChIJSf1HpSK99jkRcfoNxPf_xCk", "scope": "GOOGLE", "types": ["doctor", "health", "point_of_interest", "establishment"], "user_ratings_total": 3, "vicinity": "178, Government Polytechnic Road, Jharudih, Dhanbad"}, {"business_status": "OPERATIONAL", "geometry": {"location": {"lat": 23.807149, "lng": 86.4332725}, "viewport": {"northeast": {"lat": 23.8084460802915, "lng": 86.4346112802915}, "southwest": {"lat": 23.8057481197085, "lng": 86.43191331970849}}}, "icon": "https://maps.gstatic.com/mapfiles/place_api/icons/v1/png_71/generic_business-71.png", "icon_background_color": "#7B9EB0", "icon_mask_base_uri": "https://maps.gstatic.com/mapfiles/place_api/icons/v2/generic_pinlet", "name": "Sinha\u2019s residence, Dr.S.P Sinha, Dr. Siddharth Sinha", "photos": [{"height": 3024, "html_attributions": ["<a href=\"https://maps.google.com/maps/contrib/100519969382838563603\">Siddharth Sinha</a>"], "photo_reference": "Aap_uEBxdisPqzzzpWci7AUKMbHsXOYKHW1RDYppfZmzKn_7LqDoeniPcoQBKFXUEcH85MExLdAzGhFXUosrjqH_0Asf7BL5ykj5GWr44q-CS-9yo-r0wpArGGEh15_Dx0taXjD1wIIq-AF7VFocZZzjayNmTUMrv4JZJah9wnD8w0Vmhofw", "width": 4032}], "place_id": "ChIJPX-Il6S89jkRiiHeCbvmOGA", "rating": 5, "reference": "ChIJPX-Il6S89jkRiiHeCbvmOGA", "scope": "GOOGLE", "types": ["doctor", "health", "point_of_interest", "establishment"], "user_ratings_total": 1, "vicinity": "RC4M+V82, Sardar Patel Nagar, Dhanbad"}, {"business_status": "OPERATIONAL", "geometry": {"location": {"lat": 23.8127851, "lng": 86.4324017}, "viewport": {"northeast": {"lat": 23.81409088029151, "lng": 86.43374088029151}, "southwest": {"lat": 23.8113929197085, "lng": 86.43104291970849}}}, "icon": "https://maps.gstatic.com/mapfiles/place_api/icons/v1/png_71/generic_business-71.png", "icon_background_color": "#7B9EB0", "icon_mask_base_uri": "https://maps.gstatic.com/mapfiles/place_api/icons/v2/generic_pinlet", "name": "Klement Lab", "opening_hours": {"open_now": true}, "photos": [{"height": 3468, "html_attributions": ["<a href=\"https://maps.google.com/maps/contrib/100370128338226789801\">Klement Lab</a>"], "photo_reference": "Aap_uEDOQnkCaVqiLsPH2Y5VEJhuUEm0ti-gTTo6oz-cUKnQZ120rvpjEnWwgfnRfk2QvsXY2YfZ2EpMohH6AKxbAlK-bZGmHSJ1X75SV4GWbyys5bnO-SOE-VbyZOKhnKHKFm2hn-li36gTf3hONsIO6B4QHkY1rbR3Wyj8cu7XI3bta0vx", "width": 4624}], "place_id": "ChIJG1GtEG299jkRU8ZvwTRfRGM", "plus_code": {"compound_code": "RC7J+4X Dhanbad, Jharkhand, India", "global_code": "7MM8RC7J+4X"}, "rating": 4.7, "reference": "ChIJG1GtEG299jkRU8ZvwTRfRGM", "scope": "GOOGLE", "types": ["doctor", "health", "point_of_interest", "establishment"], "user_ratings_total": 12, "vicinity": "101, Sanyukt Towers, Commercial Block, Tundi Katnia Barwa Road, Dhaiya, Dhanbad"}, {"business_status": "OPERATIONAL", "geometry": {"location": {"lat": 23.8114861, "lng": 86.43319079999999}, "viewport": {"northeast": {"lat": 23.8128570302915, "lng": 86.43454133029151}, "southwest": {"lat": 23.8101590697085, "lng": 86.43184336970849}}}, "icon": "https://maps.gstatic.com/mapfiles/place_api/icons/v1/png_71/generic_business-71.png", "icon_background_color": "#7B9EB0", "icon_mask_base_uri": "https://maps.gstatic.com/mapfiles/place_api/icons/v2/generic_pinlet", "name": "Dr. Bhadani Clinic", "photos": [{"height": 4608, "html_attributions": ["<a href=\"https://maps.google.com/maps/contrib/107676951513613869125\">Nirasindhu Desinayak</a>"], "photo_reference": "Aap_uEBcTAg0Bsjr576m8NQMSysXdUJG2uAxqqSzSvoce9jMHA_jxrnaM8bzrTj1h9P-kNJC9FQgTz2Ckf9xG_xOX61-NGifk-riRg-Lgq0LJCelZ_saODZAgNq_eMcRTFC0ZSUXZDPTH5p0VcJbvZxtP7iFgzoFsRT9kcef0Df3OyKhQQLH", "width": 3456}], "place_id": "ChIJ-cyMp6a89jkRVh3PAPNApu4", "plus_code": {"compound_code": "RC6M+H7 Dhanbad, Jharkhand, India", "global_code": "7MM8RC6M+H7"}, "rating": 4.1, "reference": "ChIJ-cyMp6a89jkRVh3PAPNApu4", "scope": "GOOGLE", "types": ["doctor", "health", "point_of_interest", "establishment"], "user_ratings_total": 16, "vicinity": "Hans Bihar colony, Dhaiya, Dhanbad"}, {"business_status": "OPERATIONAL", "geometry": {"location": {"lat": 23.8140721, "lng": 86.4320932}, "viewport": {"northeast": {"lat": 23.8154329802915, "lng": 86.43342308029149}, "southwest": {"lat": 23.8127350197085, "lng": 86.43072511970848}}}, "icon": "https://maps.gstatic.com/mapfiles/place_api/icons/v1/png_71/generic_business-71.png", "icon_background_color": "#7B9EB0", "icon_mask_base_uri": "https://maps.gstatic.com/mapfiles/place_api/icons/v2/generic_pinlet", "name": "Dr. Gaurav", "place_id": "ChIJS922cmG99jkREhg_sIn8_oU", "plus_code": {"compound_code": "RC7J+JR Dhanbad, Jharkhand, India", "global_code": "7MM8RC7J+JR"}, "rating": 5, "reference": "ChIJS922cmG99jkREhg_sIn8_oU", "scope": "GOOGLE", "types": ["doctor", "health", "point_of_interest", "establishment"], "user_ratings_total": 20, "vicinity": "Flat no.8 , 4th floor , bhusaniya enclave Barwa road"}, {"business_status": "OPERATIONAL", "geometry": {"location": {"lat": 23.8095941, "lng": 86.43468179999999}, "viewport": {"northeast": {"lat": 23.8109126802915, "lng": 86.43603983029152}, "southwest": {"lat": 23.8082147197085, "lng": 86.4333418697085}}}, "icon": "https://maps.gstatic.com/mapfiles/place_api/icons/v1/png_71/generic_business-71.png", "icon_background_color": "#7B9EB0", "icon_mask_base_uri": "https://maps.gstatic.com/mapfiles/place_api/icons/v2/generic_pinlet", "name": "DMIT smartbrain", "place_id": "ChIJgaWkwju99jkRBME3t2d23S4", "plus_code": {"compound_code": "RC5M+RV Dhanbad, Jharkhand, India", "global_code": "7MM8RC5M+RV"}, "reference": "ChIJgaWkwju99jkRBME3t2d23S4", "scope": "GOOGLE", "types": ["doctor", "health", "point_of_interest", "establishment"], "vicinity": "bus stand, near, 3rd floor shree durga market, Pandit Clinic Road, Bartand, Dhanbad"}, {"business_status": "OPERATIONAL", "geometry": {"location": {"lat": 23.8005225, "lng": 86.42703449999999}, "viewport": {"northeast": {"lat": 23.8019026302915, "lng": 86.4284377802915}, "southwest": {"lat": 23.7992046697085, "lng": 86.4257398197085}}}, "icon": "https://maps.gstatic.com/mapfiles/place_api/icons/v1/png_71/generic_business-71.png", "icon_background_color": "#7B9EB0", "icon_mask_base_uri": "https://maps.gstatic.com/mapfiles/place_api/icons/v2/generic_pinlet", "name": "Hermitage Family Clinic", "place_id": "ChIJlV8sl1q99jkRIqKZVXptTRQ", "plus_code": {"compound_code": "RC2G+6R Dhanbad, Jharkhand, India", "global_code": "7MM8RC2G+6R"}, "reference": "ChIJlV8sl1q99jkRIqKZVXptTRQ", "scope": "GOOGLE", "types": ["doctor", "health", "point_of_interest", "establishment"], "vicinity": "Bekarbandh,Opposite to Surya mandir,Shop No. UG-7 , Aastha prithivi trade centre, Bekarbandh, Forest Colony, Dhanbad"}], "status": "OK"}