{"html_attributions": [], "next_page_token": "Aap_uEDsEBGtbKbi4VNZTLZBXJWj2Lp6NBuJvRR0gZR0HhOkkL_AfHkfyt_R1hnM812EpAs06yYTmBVhHcky2bDQcNFS8WxbdyqyzdZPurDshQUemc-dcsAWbElTJlHhVtxWrKkupy9NJrgnH4we1nfaoG4lAJ81gCfhB3XVgObthVgdMJYd-dFt7xh_rk2Hn7CJNu0s7hTDNoit7_nZQnfDBEftRZ4MK-C6eV0XQzZHS66BvrfugaNqUO2Vu5NBCvNAJ_y191SfXVYaXgiie6DcK3wASXSWtM4AgX4D5n27XeZ1SrMK_zxPZHkZeoNDV2n_yn8Ya5yJzURaCx0KxXv7b1GdYUcgkBGNYUOwPSIoBPE62UZIRPDmueUkFx5945g3-ulED4WlqInJ2nnYJ4my8MS1Odyz2db-l8M5EeLN10tMjD-GVVo", "results": [{"business_status": "OPERATIONAL", "geometry": {"location": {"lat": 23.7955568, "lng": 86.44237129999999}, "viewport": {"northeast": {"lat": 23.7969419802915, "lng": 86.4437339302915}, "southwest": {"lat": 23.7942440197085, "lng": 86.4410359697085}}}, "icon": "https://maps.gstatic.com/mapfiles/place_api/icons/v1/png_71/generic_business-71.png", "icon_background_color": "#7B9EB0", "icon_mask_base_uri": "https://maps.gstatic.com/mapfiles/place_api/icons/v2/generic_pinlet", "name": "Gupt bardhan homeopathic treatment center", "photos": [{"height": 4032, "html_attributions": ["<a href=\"https://maps.google.com/maps/contrib/101306289675803432117\">Vikash Kumar</a>"], "photo_reference": "Aap_uEBgQ_A3SKW4C8H9xxKeBg471c-0sdCZT4rqIlkYNzRHrHofK0yKpDfFVzhDsT18gmmgxbJQoS-5ypB3lBNyj4IsxXR9NmKoe6mpNY618y8rh-Eo1gIVnlTZylkLcJQDHqnWqdJIdco64m0KDHSovqM8qhNs8k63cLGkM40hDqvI9JHw", "width": 1960}], "place_id": "ChIJy6qqqr689jkROIfdBh9ANg0", "plus_code": {"compound_code": "QCWR+6W Dhanbad, Jharkhand, India", "global_code": "7MM8QCWR+6W"}, "rating": 4.5, "reference": "ChIJy6qqqr689jkROIfdBh9ANg0", "scope": "GOOGLE", "types": ["doctor", "health", "point_of_interest", "establishment"], "user_ratings_total": 2, "vicinity": "Dhobatand near jain mandir bank mod, Dhanbad"}, {"business_status": "OPERATIONAL", "geometry": {"location": {"lat": 23.7802709, "lng": 86.4418164}, "viewport": {"northeast": {"lat": 23.7816167802915, "lng": 86.4431630302915}, "southwest": {"lat": 23.7789188197085, "lng": 86.4404650697085}}}, "icon": "https://maps.gstatic.com/mapfiles/place_api/icons/v1/png_71/generic_business-71.png", "icon_background_color": "#7B9EB0", "icon_mask_base_uri": "https://maps.gstatic.com/mapfiles/place_api/icons/v2/generic_pinlet", "name": "Neha Clinic", "place_id": "ChIJEUGUSea89jkRhunvXnh92bw", "plus_code": {"compound_code": "QCJR+4P Dhanbad, Jharkhand, India", "global_code": "7MM8QCJR+4P"}, "rating": 5, "reference": "ChIJEUGUSea89jkRhunvXnh92bw", "scope": "GOOGLE", "types": ["doctor", "health", "point_of_interest", "establishment"], "user_ratings_total": 1, "vicinity": "Panchwati, Dhanbad"}, {"business_status": "OPERATIONAL", "geometry": {"location": {"lat": 23.8003556, "lng": 86.4425517}, "viewport": {"northeast": {"lat": 23.8017316302915, "lng": 86.4438722802915}, "southwest": {"lat": 23.7990336697085, "lng": 86.4411743197085}}}, "icon": "https://maps.gstatic.com/mapfiles/place_api/icons/v1/png_71/generic_business-71.png", "icon_background_color": "#7B9EB0", "icon_mask_base_uri": "https://maps.gstatic.com/mapfiles/place_api/icons/v2/generic_pinlet", "name": "Sangeeta Health Care Pvt.", "opening_hours": {"open_now": true}, "photos": [{"height": 960, "html_attributions": ["<a href=\"https://maps.google.com/maps/contrib/103843606033845528086\">Sangeeta Health Care Pvt.</a>"], "photo_reference": "Aap_uEARRGggs1t6ntv8JJvOXIdhLkw2HxaN3hQCT27K2F6JJWNE-fh0Woig2Xv74iyCbyu2BLO5TgJTlOtpbxCE_2hG4KGLjnds69LKhOwGqHXrI8fNIx5AuRY5tGSfeW2gkMEYyE2J9v2kANIjlvLY9cnP81coUY7qD6dIGnrw9VGg2Fmj", "width": 1280}], "place_id": "ChIJU1VVpZa89jkRw6ahK-uyjQ0", "plus_code": {"compound_code": "RC2V+42 Dhanbad, Jharkhand, India", "global_code": "7MM8RC2V+42"}, "rating": 2.8, "reference": "ChIJU1VVpZa89jkRw6ahK-uyjQ0", "scope": "GOOGLE", "types": ["hospital", "doctor", "health", "point_of_interest", "establishment"], "user_ratings_total": 70, "vicinity": "Yashoban Plaza, Park Market Road, Hirapur, Dhanbad"}, {"business_status": "OPERATIONAL", "geometry": {"location": {"lat": 23.790421, "lng": 86.4499975}, "viewport": {"northeast": {"lat": 23.79179393029151, "lng": 86.45131653029149}, "southwest": {"lat": 23.7890959697085, "lng": 86.44861856970849}}}, "icon": "https://maps.gstatic.com/mapfiles/place_api/icons/v1/png_71/generic_business-71.png", "icon_background_color": "#7B9EB0", "icon_mask_base_uri": "https://maps.gstatic.com/mapfiles/place_api/icons/v2/generic_pinlet", "name": "Sinha clinic", "opening_hours": {"open_now": true}, "photos": [{"height": 1920, "html_attributions": ["<a href=\"https://maps.google.com/maps/contrib/105224651372099561388\">Manish Kumar</a>"], "photo_reference": "Aap_uEA67VSCzRvsXDSuMOmLs-ETFUZhDMHNSmI6R3KijwINzCKJcUEihwOHvPJQ25qihWiec1-5o_Qn7b4_fU83pPvhiSbLyX8nDVcrNTt9Z6kLIcxfh7UBaylwPW59SLVWErAYzdtuz80ZEyGXf2rzNzJij5CpjLwsBYLJAelEJYKRsIZv", "width": 1080}], "place_id": "ChIJfyWVoBi99jkRMSBuQYIwCVY", "plus_code": {"compound_code": "QCRX+5X Dhanbad, Jharkhand, India", "global_code": "7MM8QCRX+5X"}, "reference": "ChIJfyWVoBi99jkRMSBuQYIwCVY", "scope": "GOOGLE", "types": ["doctor", "health", "point_of_interest", "establishment"], "vicinity": "Sankat Mochan Road, Vinod Nagar, Binod Nagar, Dhanbad"}, {"business_status": "OPERATIONAL", "geometry": {"location": {"lat": 23.7916646, "lng": 86.4515936}, "viewport": {"northeast": {"lat": 23.7930352302915, "lng": 86.45295143029149}, "southwest": {"lat": 23.7903372697085, "lng": 86.45025346970849}}}, "icon": "https://maps.gstatic.com/mapfiles/place_api/icons/v1/png_71/generic_business-71.png", "icon_background_color": "#7B9EB0", "icon_mask_base_uri": "https://maps.gstatic.com/mapfiles/place_api/icons/v2/generic_pinlet", "name": "Mithila medical", "photos": [{"height": 3072, "html_attributions": ["<a href=\"https://maps.google.com/maps/contrib/113668664268823579115\">Raju Kumar Singh</a>"], "photo_reference": "Aap_uEDpOU4lxuYAwyhAXDC57Xz8Iobuog3kUMWzBgO5p4u7FN_CNAj6cpuS2wEHggGz1fJVy9mHuNYdNn7CoBhmcHJXnYQ6rS7T9V6K93V8PE_UsGzasFGLm5RF03Ik4BAoSF3-S8UuhC6WQgFCPYLRjck5rpQxjfFq8U7Zd3ugmkljnhPN", "width": 1879}], "place_id": "ChIJ880YhEe99jkRnH-ybdETVUM", "rating": 5, "reference": "ChIJ880YhEe99jkRnH-ybdETVUM", "scope": "GOOGLE", "types": ["doctor", "health", "point_of_interest", "establishment"], "user_ratings_total": 2, "vicinity": "QFR2+MJ8, Balaji Nagar, Binod Nagar, Dhanbad"}, {"business_status": "OPERATIONAL", "geometry": {"location": {"lat": 23.7860056, "lng": 86.4393552}, "viewport": {"northeast": {"lat": 23.7873602802915, "lng": 86.44068343029151}, "southwest": {"lat": 23.7846623197085, "lng": 86.43798546970851}}}, "icon": "https://maps.gstatic.com/mapfiles/place_api/icons/v1/png_71/generic_business-71.png", "icon_background_color": "#7B9EB0", "icon_mask_base_uri": "https://maps.gstatic.com/mapfiles/place_api/icons/v2/generic_pinlet", "name": "Dr.c.p.sinha", "opening_hours": {"open_now": false}, "place_id": "ChIJ0xqEn2K99jkR64MvoJMFOxc", "plus_code": {"compound_code": "QCPQ+CP Dhanbad, Jharkhand, India", "global_code": "7MM8QCPQ+CP"}, "rating": 5, "reference": "ChIJ0xqEn2K99jkR64MvoJMFOxc", "scope": "GOOGLE", "types": ["doctor", "health", "point_of_interest", "establishment"], "user_ratings_total": 2, "vicinity": "House no. 1 Barmasia"}, {"business_status": "OPERATIONAL", "geometry": {"location": {"lat": 23.7961414, "lng": 86.440781}, "viewport": {"northeast": {"lat": 23.7974902302915, "lng": 86.44213558029152}, "southwest": {"lat": 23.7947922697085, "lng": 86.4394376197085}}}, "icon": "https://maps.gstatic.com/mapfiles/place_api/icons/v1/png_71/generic_business-71.png", "icon_background_color": "#7B9EB0", "icon_mask_base_uri": "https://maps.gstatic.com/mapfiles/place_api/icons/v2/generic_pinlet", "name": "Dr D. Sinha", "place_id": "ChIJ4X0hLAO99jkRUnkgiy8phws", "plus_code": {"compound_code": "QCWR+F8 Dhanbad, Jharkhand, India", "global_code": "7MM8QCWR+F8"}, "reference": "ChIJ4X0hLAO99jkRUnkgiy8phws", "scope": "GOOGLE", "types": ["doctor", "health", "point_of_interest", "establishment"], "vicinity": "PK Roy Road, Pandey Muhalla, Dhanbad"}, {"business_status": "OPERATIONAL", "geometry": {"location": {"lat": 23.7958412, "lng": 86.4396458}, "viewport": {"northeast": {"lat": 23.7971816802915, "lng": 86.4409941302915}, "southwest": {"lat": 23.7944837197085, "lng": 86.4382961697085}}}, "icon": "https://maps.gstatic.com/mapfiles/place_api/icons/v1/png_71/generic_business-71.png", "icon_background_color": "#7B9EB0", "icon_mask_base_uri": "https://maps.gstatic.com/mapfiles/place_api/icons/v2/generic_pinlet", "name": "Karan Kumar LLB", "opening_hours": {"open_now": true}, "place_id": "ChIJW9OCb5W89jkRVOYgg41Lneo", "rating": 4, "reference": "ChIJW9OCb5W89jkRVOYgg41Lneo", "scope": "GOOGLE", "types": ["doctor", "health", "point_of_interest", "establishment"], "user_ratings_total": 2, "vicinity": "QCWQ+8VJ, Pandey Muhalla, Dhanbad"}, {"business_status": "OPERATIONAL", "geometry": {"location": {"lat": 23.797091, "lng": 86.4402463}, "viewport": {"northeast": {"lat": 23.7984121802915, "lng": 86.4415790802915}, "southwest": {"lat": 23.79571421970849, "lng": 86.4388811197085}}}, "icon": "https://maps.gstatic.com/mapfiles/place_api/icons/v1/png_71/generic_business-71.png", "icon_background_color": "#7B9EB0", "icon_mask_base_uri": "https://maps.gstatic.com/mapfiles/place_api/icons/v2/generic_pinlet", "name": "Sinha Patho Clinic", "place_id": "ChIJjfrk2-e99jkRAnvO4umhQPw", "plus_code": {"compound_code": "QCWR+R3 Dhanbad, Jharkhand, India", "global_code": "7MM8QCWR+R3"}, "reference": "ChIJjfrk2-e99jkRAnvO4umhQPw", "scope": "GOOGLE", "types": ["doctor", "health", "point_of_interest", "establishment"], "vicinity": "Gyan Mukherjee Road, Pandey Muhalla, Dhanbad"}, {"business_status": "OPERATIONAL", "geometry": {"location": {"lat": 23.7972974, "lng": 86.43997069999999}, "viewport": {"northeast": {"lat": 23.7986241802915, "lng": 86.44130608029151}, "southwest": {"lat": 23.7959262197085, "lng": 86.4386081197085}}}, "icon": "https://maps.gstatic.com/mapfiles/place_api/icons/v1/png_71/generic_business-71.png", "icon_background_color": "#7B9EB0", "icon_mask_base_uri": "https://maps.gstatic.com/mapfiles/place_api/icons/v2/generic_pinlet", "name": "Speech and Hearing Clinic", "opening_hours": {"open_now": true}, "photos": [{"height": 3456, "html_attributions": ["<a href=\"https://maps.google.com/maps/contrib/116116029022237665182\">suraj kumar</a>"], "photo_reference": "Aap_uEAcYE_lCu0xNj181BPBOxn_v7p9lGnc7Gz3a_IfVpzT1KB4pPBFXkODOeWdJRSaVcGm34V_TtfccUpT6eiozWPHg5vPVU9oIoaHY-7Gc4WiPpOs7qlivGt4_Iq0ob4jCNa1CVQemm64MbNwK_kcL48yupmTQvdUCBahQGfEiXG-tI4b", "width": 4608}], "place_id": "ChIJO9pwmZW89jkRK_N-iH2cF24", "plus_code": {"compound_code": "QCWQ+WX Dhanbad, Jharkhand, India", "global_code": "7MM8QCWQ+WX"}, "rating": 2.8, "reference": "ChIJO9pwmZW89jkRK_N-iH2cF24", "scope": "GOOGLE", "types": ["doctor", "health", "point_of_interest", "establishment"], "user_ratings_total": 5, "vicinity": "BIHAR HOMEO HALL, Gyan Mukherjee Road, Pandey Muhalla, Dhanbad"}, {"business_status": "OPERATIONAL", "geometry": {"location": {"lat": 23.7973367, "lng": 86.439995}, "viewport": {"northeast": {"lat": 23.7986411302915, "lng": 86.4413167302915}, "southwest": {"lat": 23.79594316970849, "lng": 86.4386187697085}}}, "icon": "https://maps.gstatic.com/mapfiles/place_api/icons/v1/png_71/generic_business-71.png", "icon_background_color": "#7B9EB0", "icon_mask_base_uri": "https://maps.gstatic.com/mapfiles/place_api/icons/v2/generic_pinlet", "name": "Ganesh Charkwarti", "place_id": "ChIJx0qXlye99jkRkLazXcwV-Tg", "plus_code": {"compound_code": "QCWQ+WX Dhanbad, Jharkhand, India", "global_code": "7MM8QCWQ+WX"}, "reference": "ChIJx0qXlye99jkRkLazXcwV-Tg", "scope": "GOOGLE", "types": ["doctor", "health", "point_of_interest", "establishment"], "vicinity": "Gyan Mukherjee Road, Pandey Muhalla, Dhanbad"}, {"business_status": "OPERATIONAL", "geometry": {"location": {"lat": 23.7973985, "lng": 86.43951609999999}, "viewport": {"northeast": {"lat": 23.7987640802915, "lng": 86.44087963029149}, "southwest": {"lat": 23.7960661197085, "lng": 86.43818166970848}}}, "icon": "https://maps.gstatic.com/mapfiles/place_api/icons/v1/png_71/generic_business-71.png", "icon_background_color": "#7B9EB0", "icon_mask_base_uri": "https://maps.gstatic.com/mapfiles/place_api/icons/v2/generic_pinlet", "name": "Ayug Treatment", "photos": [{"height": 3120, "html_attributions": ["<a href=\"https://maps.google.com/maps/contrib/105718859157848370362\">Goutam sengupta</a>"], "photo_reference": "Aap_uEBJn2_7WjGOVlco6HdWaDY20GkKZKhGPXvRRLG0dmBP0EXwQmNjlskMPMr0pqNIhSOJtQYIwCSuKyLxoI73BNrUL7S-mC6Vhjjd08rI-m44Zsz4CItGi2Uv4vvmj0lrxgVrkIscw7PQVcqUPQp6Idax5XuMCMCk-dFsBhRCPaYA8c6X", "width": 4160}], "place_id": "ChIJh7RBhZW89jkRbeqTnuximLM", "plus_code": {"compound_code": "QCWQ+XR Dhanbad, Jharkhand, India", "global_code": "7MM8QCWQ+XR"}, "rating": 3, "reference": "ChIJh7RBhZW89jkRbeqTnuximLM", "scope": "GOOGLE", "types": ["doctor", "health", "point_of_interest", "establishment"], "user_ratings_total": 1, "vicinity": "Gyan Mukherjee Road, Pandey Muhalla, Dhanbad"}, {"business_status": "OPERATIONAL", "geometry": {"location": {"lat": 23.799063, "lng": 86.442438}, "viewport": {"northeast": {"lat": 23.8004583802915, "lng": 86.4438155802915}, "southwest": {"lat": 23.7977604197085, "lng": 86.44111761970849}}}, "icon": "https://maps.gstatic.com/mapfiles/place_api/icons/v1/png_71/generic_business-71.png", "icon_background_color": "#7B9EB0", "icon_mask_base_uri": "https://maps.gstatic.com/mapfiles/place_api/icons/v2/generic_pinlet", "name": "SKIN & VD CLINIC", "opening_hours": {"open_now": false}, "place_id": "ChIJlwqrJJS89jkRVmpk8SyELs4", "plus_code": {"compound_code": "QCXR+JX Dhanbad, Jharkhand, India", "global_code": "7MM8QCXR+JX"}, "rating": 3.8, "reference": "ChIJlwqrJJS89jkRVmpk8SyELs4", "scope": "GOOGLE", "types": ["doctor", "health", "point_of_interest", "establishment"], "user_ratings_total": 11, "vicinity": "Savitri Apartment, Ground, Jharia Road, Shastri Nagar, Dhanbad"}, {"business_status": "OPERATIONAL", "geometry": {"location": {"lat": 23.7998284, "lng": 86.4415977}, "viewport": {"northeast": {"lat": 23.8011338302915, "lng": 86.44298763029151}, "southwest": {"lat": 23.7984358697085, "lng": 86.4402896697085}}}, "icon": "https://maps.gstatic.com/mapfiles/place_api/icons/v1/png_71/generic_business-71.png", "icon_background_color": "#7B9EB0", "icon_mask_base_uri": "https://maps.gstatic.com/mapfiles/place_api/icons/v2/generic_pinlet", "name": "Dr. Sangeeta Karan- Obstetrician & Gynecologist In Dhanbad", "opening_hours": {"open_now": true}, "place_id": "ChIJb4QVMAS99jkRWCjnmHP-eRE", "plus_code": {"compound_code": "QCXR+WJ Dhanbad, Jharkhand, India", "global_code": "7MM8QCXR+WJ"}, "reference": "ChIJb4QVMAS99jkRWCjnmHP-eRE", "scope": "GOOGLE", "types": ["doctor", "health", "point_of_interest", "establishment"], "vicinity": "Park Clinic, Yashwant Plaza, Park Market Road, Hirapur, Dhanbad"}, {"business_status": "OPERATIONAL", "geometry": {"location": {"lat": 23.8001617, "lng": 86.4426683}, "viewport": {"northeast": {"lat": 23.8015140302915, "lng": 86.4440128302915}, "southwest": {"lat": 23.7988160697085, "lng": 86.44131486970849}}}, "icon": "https://maps.gstatic.com/mapfiles/place_api/icons/v1/png_71/generic_business-71.png", "icon_background_color": "#7B9EB0", "icon_mask_base_uri": "https://maps.gstatic.com/mapfiles/place_api/icons/v2/generic_pinlet", "name": "Park Saito Pathology Center", "opening_hours": {"open_now": true}, "place_id": "ChIJE3szn5a89jkRDua87b1NZnk", "plus_code": {"compound_code": "RC2V+33 Dhanbad, Jharkhand, India", "global_code": "7MM8RC2V+33"}, "reference": "ChIJE3szn5a89jkRDua87b1NZnk", "scope": "GOOGLE", "types": ["doctor", "health", "point_of_interest", "establishment"], "vicinity": "Park Market, Hirapur, Pandey Muhalla, Dhanbad"}, {"business_status": "OPERATIONAL", "geometry": {"location": {"lat": 23.8002414, "lng": 86.4425838}, "viewport": {"northeast": {"lat": 23.8015599802915, "lng": 86.4438956802915}, "southwest": {"lat": 23.7988620197085, "lng": 86.44119771970848}}}, "icon": "https://maps.gstatic.com/mapfiles/place_api/icons/v1/png_71/generic_business-71.png", "icon_background_color": "#7B9EB0", "icon_mask_base_uri": "https://maps.gstatic.com/mapfiles/place_api/icons/v2/generic_pinlet", "name": "Dr. Chandan Kr. Sahu", "place_id": "ChIJ3Y8jmZa89jkR-40LePxnKDE", "plus_code": {"compound_code": "RC2V+32 Dhanbad, Jharkhand, India", "global_code": "7MM8RC2V+32"}, "rating": 3.2, "reference": "ChIJ3Y8jmZa89jkR-40LePxnKDE", "scope": "GOOGLE", "types": ["doctor", "health", "point_of_interest", "establishment"], "user_ratings_total": 5, "vicinity": "Hirapur Park Market"}, {"business_status": "OPERATIONAL", "geometry": {"location": {"lat": 23.8005591, "lng": 86.4434011}, "viewport": {"northeast": {"lat": 23.8020096802915, "lng": 86.44475638029151}, "southwest": {"lat": 23.79931171970849, "lng": 86.4420584197085}}}, "icon": "https://maps.gstatic.com/mapfiles/place_api/icons/v1/png_71/generic_business-71.png", "icon_background_color": "#7B9EB0", "icon_mask_base_uri": "https://maps.gstatic.com/mapfiles/place_api/icons/v2/generic_pinlet", "name": "Dr Ashok Kumar singh", "opening_hours": {"open_now": false}, "place_id": "ChIJLfogZCu99jkRQqsOGSuzPco", "plus_code": {"compound_code": "RC2V+69 Dhanbad, Jharkhand, India", "global_code": "7MM8RC2V+69"}, "reference": "ChIJLfogZCu99jkRQqsOGSuzPco", "scope": "GOOGLE", "types": ["doctor", "health", "point_of_interest", "establishment"], "vicinity": "Ashirvad poly clinic, Hirapur, Pandey Muhalla, Dhanbad"}, {"business_status": "OPERATIONAL", "geometry": {"location": {"lat": 23.8006584, "lng": 86.4433876}, "viewport": {"northeast": {"lat": 23.8020598302915, "lng": 86.4447398302915}, "southwest": {"lat": 23.7993618697085, "lng": 86.44204186970849}}}, "icon": "https://maps.gstatic.com/mapfiles/place_api/icons/v1/png_71/generic_business-71.png", "icon_background_color": "#7B9EB0", "icon_mask_base_uri": "https://maps.gstatic.com/mapfiles/place_api/icons/v2/generic_pinlet", "name": "Dr Gaurav Prakash", "opening_hours": {"open_now": false}, "photos": [{"height": 422, "html_attributions": ["<a href=\"https://maps.google.com/maps/contrib/111263534826606753203\">Dr Gaurav Prakash</a>"], "photo_reference": "Aap_uEAFe0IURwNGqv_KXXpSxnO48UI1yyzzoyfuOWsJK9VMOsCS1ccR7jVJ3tKLrzQQ7DD1-irWV25c8ASVpJur7SaI1pQC1rckvDyhfeamG310rKAslbaz8Fk4sk54qV9FvOnm0fIk4emBJC74sgo8pzlMDRkxYKFpziLT_GdsnGbHQprZ", "width": 750}], "place_id": "ChIJu27EPIq99jkRxzrE4t-yu78", "plus_code": {"compound_code": "RC2V+79 Dhanbad, Jharkhand, India", "global_code": "7MM8RC2V+79"}, "rating": 4.9, "reference": "ChIJu27EPIq99jkRxzrE4t-yu78", "scope": "GOOGLE", "types": ["doctor", "health", "point_of_interest", "establishment"], "user_ratings_total": 76, "vicinity": "PARK CLINIC, Park Market Road, Dhanbad"}, {"business_status": "OPERATIONAL", "geometry": {"location": {"lat": 23.8008092, "lng": 86.4433373}, "viewport": {"northeast": {"lat": 23.80214683029151, "lng": 86.44468553029151}, "southwest": {"lat": 23.7994488697085, "lng": 86.4419875697085}}}, "icon": "https://maps.gstatic.com/mapfiles/place_api/icons/v1/png_71/generic_business-71.png", "icon_background_color": "#7B9EB0", "icon_mask_base_uri": "https://maps.gstatic.com/mapfiles/place_api/icons/v2/generic_pinlet", "name": "CARDIO DIABETIC MEDICLINIC", "opening_hours": {"open_now": false}, "photos": [{"height": 3120, "html_attributions": ["<a href=\"https://maps.google.com/maps/contrib/110839987665391762988\">ADITYA KUMAR MANDAL.</a>"], "photo_reference": "Aap_uEAeG-SjwZeXK0HLo3ZfI_sgKm-C4u8DmukUrm8kRIxMCLtBwkhE6fDTWcTOB-SLYJm7ILFOQfi51QGYt3BY5BpQBgfskNhwInRLX6Rj1mt6vj2_HqRm9DBh_1yRQv9F7edbEs20AQ0fGCa54VVlSztSiS9rqL4N1hNb17RenHqvzcv4", "width": 4160}], "place_id": "ChIJsfGjp5a89jkRb3M486qW9c0", "plus_code": {"compound_code": "RC2V+88 Dhanbad, Jharkhand, India", "global_code": "7MM8RC2V+88"}, "rating": 4.9, "reference": "ChIJsfGjp5a89jkRb3M486qW9c0", "scope": "GOOGLE", "types": ["doctor", "hospital", "health", "point_of_interest", "establishment"], "user_ratings_total": 12, "vicinity": "Madhav Apartment, Durga Mandir Road, Hirapur, Pandey Muhalla, Dhanbad"}, {"business_status": "OPERATIONAL", "geometry": {"location": {"lat": 23.80114, "lng": 86.44407000000001}, "viewport": {"northeast": {"lat": 23.8024856802915, "lng": 86.44542878029152}, "southwest": {"lat": 23.7997877197085, "lng": 86.4427308197085}}}, "icon": "https://maps.gstatic.com/mapfiles/place_api/icons/v1/png_71/generic_business-71.png", "icon_background_color": "#7B9EB0", "icon_mask_base_uri": "https://maps.gstatic.com/mapfiles/place_api/icons/v2/generic_pinlet", "name": "Dr. Priyadarshi Gupta's Clinic", "opening_hours": {"open_now": true}, "place_id": "ChIJfZDXSpG89jkRpq6OolBbrsM", "plus_code": {"compound_code": "RC2V+FJ Dhanbad, Jharkhand, India", "global_code": "7MM8RC2V+FJ"}, "rating": 4.7, "reference": "ChIJfZDXSpG89jkRpq6OolBbrsM", "scope": "GOOGLE", "types": ["doctor", "health", "point_of_interest", "establishment"], "user_ratings_total": 9, "vicinity": "826001, Baba Colony, Hirapur, Dhanbad"}], "status": "OK"}