{"html_attributions": [], "next_page_token": "Aap_uEB5yHYTrHeJCXnC5A88SGuBG9zdn3EHPsvBXMtKGa53JP55e86LDZkxU7bNzB3vHuHGtFFs0eFh55QIhbrXx_cLhEi_Xdl3EnSY-eYGu2UGAIf59lSFWr0R6RKmGT2o81_e69QO2JguSF3CEKHw_FyzD-igThAmNQpAm0enHQDS8obETn6YvX3n9RvMih0u4w4R_fQ3ti5PqGTlPpDB7z7i9xSPCDpGHIdI2_350xWqTxhKe4TBu26OWE_xWkIsQbnUibLMhR26sXTy1eYMerKERUdpiXfMzbqqO8G0YbYq9OE_Dsl1bYIlIUb3DiEt49wxQKkzIfULH9RNdbj8kzmxmeZwDEwY6Y-wrl2MwxgCF0daK_gM6QdoQZkuqR02VCpXNLzLZ_fySqRWPdjgop4J8Dbs885KzfHnNhFy7b5sz-7C1mI", "results": [{"business_status": "OPERATIONAL", "geometry": {"location": {"lat": 23.8003556, "lng": 86.4425517}, "viewport": {"northeast": {"lat": 23.8017316302915, "lng": 86.4438722802915}, "southwest": {"lat": 23.7990336697085, "lng": 86.4411743197085}}}, "icon": "https://maps.gstatic.com/mapfiles/place_api/icons/v1/png_71/generic_business-71.png", "icon_background_color": "#7B9EB0", "icon_mask_base_uri": "https://maps.gstatic.com/mapfiles/place_api/icons/v2/generic_pinlet", "name": "Sangeeta Health Care Pvt.", "opening_hours": {"open_now": true}, "photos": [{"height": 960, "html_attributions": ["<a href=\"https://maps.google.com/maps/contrib/103843606033845528086\">Sangeeta Health Care Pvt.</a>"], "photo_reference": "Aap_uEBoycKO6RJk_pvf06k7NF3tJ9nqElnFSjdr-lBmJH1IGfjE2oyKE00B5ntWzIdhzk7dJRxEgvfukEA4lYE57Nwi02BL2LLfNJBVuSb7WYntE-EAlnAFFwJbZ5oond26VOnsmhn1afmM_GKQBLLxkz9AIY54qefS8sUiyUdfeCf2xnUZ", "width": 1280}], "place_id": "ChIJU1VVpZa89jkRw6ahK-uyjQ0", "plus_code": {"compound_code": "RC2V+42 Dhanbad, Jharkhand, India", "global_code": "7MM8RC2V+42"}, "rating": 2.8, "reference": "ChIJU1VVpZa89jkRw6ahK-uyjQ0", "scope": "GOOGLE", "types": ["hospital", "doctor", "health", "point_of_interest", "establishment"], "user_ratings_total": 70, "vicinity": "Yashoban Plaza, Park Market Road, Hirapur, Dhanbad"}, {"business_status": "OPERATIONAL", "geometry": {"location": {"lat": 23.8067015, "lng": 86.4346968}, "viewport": {"northeast": {"lat": 23.8081012302915, "lng": 86.4360552802915}, "southwest": {"lat": 23.8054032697085, "lng": 86.43335731970849}}}, "icon": "https://maps.gstatic.com/mapfiles/place_api/icons/v1/png_71/generic_business-71.png", "icon_background_color": "#7B9EB0", "icon_mask_base_uri": "https://maps.gstatic.com/mapfiles/place_api/icons/v2/generic_pinlet", "name": "Dr. Manisha's Multispeciality Health Clinic - Dermatologist | Sexologist|Hair Specialist in Dhanbad", "opening_hours": {"open_now": false}, "photos": [{"height": 1016, "html_attributions": ["<a href=\"https://maps.google.com/maps/contrib/101430205527920186905\">Dr. Manisha&#39;s Multispeciality Health Clinic - Dermatologist | Sexologist|Hair Specialist in Dhanbad</a>"], "photo_reference": "Aap_uEBlv3jyvJC3qc3mAFh2LxThRHUuvTdf45lhpR5WP9Kf3Z_B4DWkjQpK3o3TZMTCa3xC6ODy4hii_t_jTW4_Tzv0aVK4MEHYKJx5Yf-zi-7dM104Ak42gGsRh_VZChsxcfXHYQ56Q2Lckn5ryEW1yfaMszrO2eQu1FCbYCkg1QJzoVxg", "width": 1760}], "place_id": "ChIJ965aoqS89jkRBz15EGgLEl8", "plus_code": {"compound_code": "RC4M+MV Dhanbad, Jharkhand, India", "global_code": "7MM8RC4M+MV"}, "rating": 4.3, "reference": "ChIJ965aoqS89jkRBz15EGgLEl8", "scope": "GOOGLE", "types": ["doctor", "health", "point_of_interest", "establishment"], "user_ratings_total": 126, "vicinity": "HIG Plot No 28 Housing Colony Road Sardar Patel Nagar Bartand, Housing Colony, Dhanbad"}, {"business_status": "OPERATIONAL", "geometry": {"location": {"lat": 23.8091692, "lng": 86.4325755}, "viewport": {"northeast": {"lat": 23.8105322802915, "lng": 86.4338844802915}, "southwest": {"lat": 23.8078343197085, "lng": 86.43118651970849}}}, "icon": "https://maps.gstatic.com/mapfiles/place_api/icons/v1/png_71/generic_business-71.png", "icon_background_color": "#7B9EB0", "icon_mask_base_uri": "https://maps.gstatic.com/mapfiles/place_api/icons/v2/generic_pinlet", "name": "Khushi Skin Clinic, (Dr. Anjani Shukla), Dhanbad", "opening_hours": {"open_now": false}, "photos": [{"height": 370, "html_attributions": ["<a href=\"https://maps.google.com/maps/contrib/109994250504050075973\">anakhi singh</a>"], "photo_reference": "Aap_uEB4WAIEEmjHlTIcvhTqwtMB1Dbufgnv5Q7hZnPAB7lFSqVIiOF7rDnivHISDMLJpyxb920pZB0ytEKosq2SKpmmdpocwbq_q4x-NprZhu0qUCjoIbSCKWa1EQWgqRirtsuHZ7JJvW1pRJv7rMZruEtJpN_ljpgKCWi9qXu21j5FhNNj", "width": 600}], "place_id": "ChIJsfthXaS89jkRcBkZG3Z6Euo", "plus_code": {"compound_code": "RC5M+M2 Dhanbad, Jharkhand, India", "global_code": "7MM8RC5M+M2"}, "rating": 4.4, "reference": "ChIJsfthXaS89jkRcBkZG3Z6Euo", "scope": "GOOGLE", "types": ["doctor", "health", "point_of_interest", "establishment"], "user_ratings_total": 111, "vicinity": "opposite BASANT SWEETS ON, FIRST FLOOR, BOB AND BOI ATM BUILDING, NEAR PANDIT CLINIC AND DHANBAD BARTAND BUS STAND.., opposite BASANT SWEETS ON, Main Road, Dhanbad"}, {"business_status": "OPERATIONAL", "geometry": {"location": {"lat": 23.8043529, "lng": 86.4434689}, "viewport": {"northeast": {"lat": 23.8056832802915, "lng": 86.44481933029151}, "southwest": {"lat": 23.8029853197085, "lng": 86.4421213697085}}}, "icon": "https://maps.gstatic.com/mapfiles/place_api/icons/v1/png_71/generic_business-71.png", "icon_background_color": "#4B96F3", "icon_mask_base_uri": "https://maps.gstatic.com/mapfiles/place_api/icons/v2/generic_pinlet", "name": "R. B. Homoeo Hall", "opening_hours": {"open_now": true}, "photos": [{"height": 3144, "html_attributions": ["<a href=\"https://maps.google.com/maps/contrib/108791824254722760593\">R. B. Homoeo Hall</a>"], "photo_reference": "Aap_uED0hv9iY4KeOSAXU_xYwJX-jnP7Q8h2FVvUupZxFOHXsoA83JFfAlZJwl6NnmPaZw0GGli2Pr08xBnOJh7E1ekA6_d7ByAVJxak2RliARyRk3FltmGy8AowpiWifKkIcwNdueuJje6GzQCl3wNn8gFhgiIYlugjA5WzVZMptx4ARnlk", "width": 4192}], "place_id": "ChIJ9547SJe89jkRbtCZUQCQ3Sc", "plus_code": {"compound_code": "RC3V+P9 Dhanbad, Jharkhand, India", "global_code": "7MM8RC3V+P9"}, "rating": 5, "reference": "ChIJ9547SJe89jkRbtCZUQCQ3Sc", "scope": "GOOGLE", "types": ["drugstore", "pharmacy", "doctor", "health", "point_of_interest", "store", "establishment"], "user_ratings_total": 16, "vicinity": "behind HDFC Bank, Police Line, behind HDFC Bank, Dhanbad"}, {"business_status": "OPERATIONAL", "geometry": {"location": {"lat": 23.8043102, "lng": 86.44345899999999}, "viewport": {"northeast": {"lat": 23.8056581302915, "lng": 86.44479673029151}, "southwest": {"lat": 23.80296016970849, "lng": 86.4420987697085}}}, "icon": "https://maps.gstatic.com/mapfiles/place_api/icons/v1/png_71/generic_business-71.png", "icon_background_color": "#7B9EB0", "icon_mask_base_uri": "https://maps.gstatic.com/mapfiles/place_api/icons/v2/generic_pinlet", "name": "Dr Dev Narayan Shaw", "opening_hours": {"open_now": false}, "photos": [{"height": 1625, "html_attributions": ["<a href=\"https://maps.google.com/maps/contrib/104763749323759157598\">Dr Dev Narayan Shaw</a>"], "photo_reference": "Aap_uEAIi5yoeNKVLsbfymUIbaqyfxzzZtnzLLEr9kFajdoldiSVPo7eM-bZorIxiGFdyamMM-uB4TzFKQZejgDiol0RVElrAeuyDfMEtjSd1e6KXr8A6SUOr-LgfgTwqVnGKknFvgJTLJAIZPa0QN8XvsBYgJ8ipZ1pCxkBE8KLC1GQhFBe", "width": 4192}], "place_id": "ChIJcXR38gG99jkRsavAQOgqAsQ", "plus_code": {"compound_code": "RC3V+P9 Dhanbad, Jharkhand, India", "global_code": "7MM8RC3V+P9"}, "reference": "ChIJcXR38gG99jkRsavAQOgqAsQ", "scope": "GOOGLE", "types": ["doctor", "health", "point_of_interest", "establishment"], "vicinity": "behind HDFC Bank, Police Line Road, Dhanbad"}, {"business_status": "OPERATIONAL", "geometry": {"location": {"lat": 23.80407, "lng": 86.44261}, "viewport": {"northeast": {"lat": 23.8054440302915, "lng": 86.4442202802915}, "southwest": {"lat": 23.8027460697085, "lng": 86.4415223197085}}}, "icon": "https://maps.gstatic.com/mapfiles/place_api/icons/v1/png_71/generic_business-71.png", "icon_background_color": "#7B9EB0", "icon_mask_base_uri": "https://maps.gstatic.com/mapfiles/place_api/icons/v2/generic_pinlet", "name": "Dr Lal PathLabs", "opening_hours": {"open_now": true}, "place_id": "ChIJ_YosOgq99jkRKvU-6Pj9b88", "plus_code": {"compound_code": "RC3V+J2 Dhanbad, Jharkhand, India", "global_code": "7MM8RC3V+J2"}, "rating": 5, "reference": "ChIJ_YosOgq99jkRKvU-6Pj9b88", "scope": "GOOGLE", "types": ["doctor", "health", "point_of_interest", "establishment"], "user_ratings_total": 2, "vicinity": "JC Mallick Road, Hirapur, CMPF Colony, Dhanbad"}, {"business_status": "OPERATIONAL", "geometry": {"location": {"lat": 23.8033582, "lng": 86.4434187}, "viewport": {"northeast": {"lat": 23.80470113029151, "lng": 86.4446976802915}, "southwest": {"lat": 23.8020031697085, "lng": 86.44199971970849}}}, "icon": "https://maps.gstatic.com/mapfiles/place_api/icons/v1/png_71/generic_business-71.png", "icon_background_color": "#7B9EB0", "icon_mask_base_uri": "https://maps.gstatic.com/mapfiles/place_api/icons/v2/generic_pinlet", "name": "Dr. Rita Gupta", "opening_hours": {"open_now": false}, "place_id": "ChIJ48ENHDa99jkRB2MCgoKyoRo", "plus_code": {"compound_code": "RC3V+89 Dhanbad, Jharkhand, India", "global_code": "7MM8RC3V+89"}, "rating": 4, "reference": "ChIJ48ENHDa99jkRB2MCgoKyoRo", "scope": "GOOGLE", "types": ["doctor", "health", "point_of_interest", "establishment"], "user_ratings_total": 1, "vicinity": "opposite Police Line, Main Road, opposite Police Line, Hirapur, CMPF Colony, Dhanbad"}, {"business_status": "OPERATIONAL", "geometry": {"location": {"lat": 23.8098831, "lng": 86.4389109}, "viewport": {"northeast": {"lat": 23.8112095802915, "lng": 86.4402598802915}, "southwest": {"lat": 23.80851161970849, "lng": 86.4375619197085}}}, "icon": "https://maps.gstatic.com/mapfiles/place_api/icons/v1/png_71/generic_business-71.png", "icon_background_color": "#7B9EB0", "icon_mask_base_uri": "https://maps.gstatic.com/mapfiles/place_api/icons/v2/generic_pinlet", "name": "Arogya Clinic Housing Colony Dhanbad", "opening_hours": {"open_now": false}, "photos": [{"height": 4608, "html_attributions": ["<a href=\"https://maps.google.com/maps/contrib/104917806736795295587\">Arogya Clinic Housing Colony Dhanbad</a>"], "photo_reference": "Aap_uEBrvzrv9lIhTJ8YpuMOey16nZ6ilSN48KwSPPlpdGRp6omguzi4efCclC-J_CsTzJlvGJskONxXKHMc7CZZDD4-_PM8VPDrImhpRDZlnnO6hR75Za2Sa_4ZR7855CdxXXIgi98wttUA5oylqYc2R4RuFfd0IqYnIpp4K17X7SzjvroY", "width": 3456}], "place_id": "ChIJ8yeXdaK89jkRZmaXYCslzhE", "plus_code": {"compound_code": "RC5Q+XH Dhanbad, Jharkhand, India", "global_code": "7MM8RC5Q+XH"}, "rating": 5, "reference": "ChIJ8yeXdaK89jkRZmaXYCslzhE", "scope": "GOOGLE", "types": ["doctor", "health", "point_of_interest", "establishment"], "user_ratings_total": 1, "vicinity": "M. I. G. - B/69, HOUSING COLONY, Dhanbad"}, {"business_status": "OPERATIONAL", "geometry": {"location": {"lat": 23.802278, "lng": 86.443564}, "viewport": {"northeast": {"lat": 23.8035856802915, "lng": 86.4448868802915}, "southwest": {"lat": 23.80088771970849, "lng": 86.4421889197085}}}, "icon": "https://maps.gstatic.com/mapfiles/place_api/icons/v1/png_71/generic_business-71.png", "icon_background_color": "#7B9EB0", "icon_mask_base_uri": "https://maps.gstatic.com/mapfiles/place_api/icons/v2/generic_pinlet", "name": "Dr. Vaibhav Srivastava", "opening_hours": {"open_now": false}, "place_id": "ChIJLVZ587e99jkRFzK0rzTQgFc", "plus_code": {"compound_code": "RC2V+WC Dhanbad, Jharkhand, India", "global_code": "7MM8RC2V+WC"}, "rating": 4.2, "reference": "ChIJLVZ587e99jkRFzK0rzTQgFc", "scope": "GOOGLE", "types": ["doctor", "health", "point_of_interest", "establishment"], "user_ratings_total": 5, "vicinity": "Durga Mandir Road, Hirapur, Dhanbad"}, {"business_status": "OPERATIONAL", "geometry": {"location": {"lat": 23.8022993, "lng": 86.44334529999999}, "viewport": {"northeast": {"lat": 23.8036605302915, "lng": 86.44470148029151}, "southwest": {"lat": 23.8009625697085, "lng": 86.44200351970849}}}, "icon": "https://maps.gstatic.com/mapfiles/place_api/icons/v1/png_71/generic_business-71.png", "icon_background_color": "#7B9EB0", "icon_mask_base_uri": "https://maps.gstatic.com/mapfiles/place_api/icons/v2/generic_pinlet", "name": "Dr Priyanka's Clinic", "opening_hours": {"open_now": false}, "place_id": "ChIJa3fL4G299jkRVe_6NHcR-v8", "plus_code": {"compound_code": "RC2V+W8 Dhanbad, Jharkhand, India", "global_code": "7MM8RC2V+W8"}, "rating": 5, "reference": "ChIJa3fL4G299jkRVe_6NHcR-v8", "scope": "GOOGLE", "types": ["doctor", "health", "point_of_interest", "establishment"], "user_ratings_total": 1, "vicinity": "Durga Mandir Road, No 2, Patel Chowk, Hirapur, Dhanbad"}, {"business_status": "OPERATIONAL", "geometry": {"location": {"lat": 23.8018912, "lng": 86.4446049}, "viewport": {"northeast": {"lat": 23.8032645302915, "lng": 86.44591198029151}, "southwest": {"lat": 23.8005665697085, "lng": 86.4432140197085}}}, "icon": "https://maps.gstatic.com/mapfiles/place_api/icons/v1/png_71/generic_business-71.png", "icon_background_color": "#7B9EB0", "icon_mask_base_uri": "https://maps.gstatic.com/mapfiles/place_api/icons/v2/generic_pinlet", "name": "Dr. Subir Chaudhary", "opening_hours": {"open_now": false}, "place_id": "ChIJDcWTpDO99jkRFVMnpeyZ5VI", "plus_code": {"compound_code": "RC2V+QR Dhanbad, Jharkhand, India", "global_code": "7MM8RC2V+QR"}, "rating": 3.8, "reference": "ChIJDcWTpDO99jkRFVMnpeyZ5VI", "scope": "GOOGLE", "types": ["doctor", "health", "point_of_interest", "establishment"], "user_ratings_total": 31, "vicinity": "Ritu Health Clinic, Road Number 3, Hirapur, Dhanbad"}, {"business_status": "OPERATIONAL", "geometry": {"location": {"lat": 23.8113078, "lng": 86.4535002}, "viewport": {"northeast": {"lat": 23.8126956302915, "lng": 86.4548434802915}, "southwest": {"lat": 23.8099976697085, "lng": 86.45214551970848}}}, "icon": "https://maps.gstatic.com/mapfiles/place_api/icons/v1/png_71/generic_business-71.png", "icon_background_color": "#7B9EB0", "icon_mask_base_uri": "https://maps.gstatic.com/mapfiles/place_api/icons/v2/generic_pinlet", "name": "Nath Niwas Clinic", "opening_hours": {"open_now": true}, "photos": [{"height": 3456, "html_attributions": ["<a href=\"https://maps.google.com/maps/contrib/118265542715897899698\">Business View India 22</a>"], "photo_reference": "Aap_uEDhi4XpV5Wm8Ni7dKn_nGkNc1kQxW7s_RPDdLumh31-BuyRombOprIh4XbxdAsI3_sBat91Xb0niGDe29-RkoYQxtnRimHiO4_d56nYRKuut25F8-aScIB3RRsnT4JKOBUexDxX9ZPRPjpfkC_Fig65GKqDilqTpzBiez3xpEqB8_8j", "width": 5184}], "place_id": "ChIJ2e--EIS89jkRN5nhE6v7-20", "plus_code": {"compound_code": "RF63+GC Saraidhella, Jharkhand, India", "global_code": "7MM8RF63+GC"}, "rating": 3.6, "reference": "ChIJ2e--EIS89jkRN5nhE6v7-20", "scope": "GOOGLE", "types": ["doctor", "health", "point_of_interest", "establishment"], "user_ratings_total": 27, "vicinity": "near Chuna Godam, Nath Niwas, near Chuna Godam, Main Road, Saraidhella"}, {"business_status": "OPERATIONAL", "geometry": {"location": {"lat": 23.80178020000001, "lng": 86.4442478}, "viewport": {"northeast": {"lat": 23.80309433029151, "lng": 86.44561043029151}, "southwest": {"lat": 23.8003963697085, "lng": 86.44291246970849}}}, "icon": "https://maps.gstatic.com/mapfiles/place_api/icons/v1/png_71/generic_business-71.png", "icon_background_color": "#7B9EB0", "icon_mask_base_uri": "https://maps.gstatic.com/mapfiles/place_api/icons/v2/generic_pinlet", "name": "Ritu Health Clinic", "opening_hours": {"open_now": false}, "photos": [{"height": 2988, "html_attributions": ["<a href=\"https://maps.google.com/maps/contrib/115060367072503011210\">Shivesh Karan</a>"], "photo_reference": "Aap_uEABFzPS5e5svOFfl2e_GJBpxmnxtwnWx9wE8Tlrc4Sxcskgm-O96qM3-K4XmLsUOqbkvrfqhu9oLYHzqL7kQqTQQJz0VelKtvTHPMnMhkp3mOyGg-Q374GdI9n4F3NDJvIDXDMVjxiNI7b3pt9KQs-h40go17fa9DNo_3z2cyv3mtou", "width": 5312}], "place_id": "ChIJy5bCM5G89jkR8088j-KU0qs", "plus_code": {"compound_code": "RC2V+PM Dhanbad, Jharkhand, India", "global_code": "7MM8RC2V+PM"}, "rating": 4.4, "reference": "ChIJy5bCM5G89jkR8088j-KU0qs", "scope": "GOOGLE", "types": ["doctor", "health", "point_of_interest", "establishment"], "user_ratings_total": 7, "vicinity": "Baba Colony, Hirapur, CMPF Colony, Dhanbad"}, {"business_status": "OPERATIONAL", "geometry": {"location": {"lat": 23.8148581, "lng": 86.45162189999999}, "viewport": {"northeast": {"lat": 23.8161417802915, "lng": 86.4529417302915}, "southwest": {"lat": 23.8134438197085, "lng": 86.45024376970849}}}, "icon": "https://maps.gstatic.com/mapfiles/place_api/icons/v1/png_71/generic_business-71.png", "icon_background_color": "#7B9EB0", "icon_mask_base_uri": "https://maps.gstatic.com/mapfiles/place_api/icons/v2/generic_pinlet", "name": "Shwet Shree Clinic", "place_id": "ChIJq6qqqoO89jkRlaSXBTJpKBc", "plus_code": {"compound_code": "RF72+WJ Dhanbad, Jharkhand, India", "global_code": "7MM8RF72+WJ"}, "rating": 3.8, "reference": "ChIJq6qqqoO89jkRlaSXBTJpKBc", "scope": "GOOGLE", "types": ["doctor", "health", "point_of_interest", "establishment"], "user_ratings_total": 8, "vicinity": "Lohar Kulli, Dhanbad"}, {"business_status": "OPERATIONAL", "geometry": {"location": {"lat": 23.80114, "lng": 86.44407000000001}, "viewport": {"northeast": {"lat": 23.8024856802915, "lng": 86.44542878029152}, "southwest": {"lat": 23.7997877197085, "lng": 86.4427308197085}}}, "icon": "https://maps.gstatic.com/mapfiles/place_api/icons/v1/png_71/generic_business-71.png", "icon_background_color": "#7B9EB0", "icon_mask_base_uri": "https://maps.gstatic.com/mapfiles/place_api/icons/v2/generic_pinlet", "name": "Dr. Priyadarshi Gupta's Clinic", "opening_hours": {"open_now": true}, "place_id": "ChIJfZDXSpG89jkRpq6OolBbrsM", "plus_code": {"compound_code": "RC2V+FJ Dhanbad, Jharkhand, India", "global_code": "7MM8RC2V+FJ"}, "rating": 4.7, "reference": "ChIJfZDXSpG89jkRpq6OolBbrsM", "scope": "GOOGLE", "types": ["doctor", "health", "point_of_interest", "establishment"], "user_ratings_total": 9, "vicinity": "826001, Baba Colony, Hirapur, Dhanbad"}, {"business_status": "OPERATIONAL", "geometry": {"location": {"lat": 23.8069311, "lng": 86.4372931}, "viewport": {"northeast": {"lat": 23.8083412302915, "lng": 86.43865318029151}, "southwest": {"lat": 23.8056432697085, "lng": 86.43595521970849}}}, "icon": "https://maps.gstatic.com/mapfiles/place_api/icons/v1/png_71/generic_business-71.png", "icon_background_color": "#7B9EB0", "icon_mask_base_uri": "https://maps.gstatic.com/mapfiles/place_api/icons/v2/generic_pinlet", "name": "Dr M K Sinha Urology and Laparoscopy Clinic", "opening_hours": {"open_now": false}, "photos": [{"height": 4608, "html_attributions": ["<a href=\"https://maps.google.com/maps/contrib/102758276260069784362\">Mrityunjay Sinha</a>"], "photo_reference": "Aap_uEA3ETLkKpJWi2ji0x_Q2rG3cUET3TstU8IttLsJRnPzVOkBYYOn1RNVGiEzm33TU3iUox6hBLVtYFOKriHIgZ-LK5lBr47K0CxYbO49fS6Z5lt3TcsGXCLCF9NYPOrS5sIY_InBPlItAIrGBc-ABpNoxOiieDbqkcs9GNqPJS5ZiAEL", "width": 3456}], "place_id": "ChIJl0D9c4a99jkRRmFL33ZGYkI", "plus_code": {"compound_code": "RC4P+QW Dhanbad, Jharkhand, India", "global_code": "7MM8RC4P+QW"}, "rating": 4.3, "reference": "ChIJl0D9c4a99jkRRmFL33ZGYkI", "scope": "GOOGLE", "types": ["doctor", "health", "point_of_interest", "establishment"], "user_ratings_total": 6, "vicinity": "MIG-B /8, Housing Colony, Sardar Patel Nagar, Dhanbad"}, {"business_status": "OPERATIONAL", "geometry": {"location": {"lat": 23.8162123, "lng": 86.4504467}, "viewport": {"northeast": {"lat": 23.8175528302915, "lng": 86.45179723029149}, "southwest": {"lat": 23.81485486970849, "lng": 86.44909926970848}}}, "icon": "https://maps.gstatic.com/mapfiles/place_api/icons/v1/png_71/generic_business-71.png", "icon_background_color": "#7B9EB0", "icon_mask_base_uri": "https://maps.gstatic.com/mapfiles/place_api/icons/v2/generic_pinlet", "name": "Shwet shree clinic", "photos": [{"height": 4160, "html_attributions": ["<a href=\"https://maps.google.com/maps/contrib/118009668519476829894\">Udit Bhatia</a>"], "photo_reference": "Aap_uEALJ0chKFL2uApZ4Vnhtd1F5mivmbdTza2vTX0B4wKhQQ1NZuBkbHXFSEUMj1FJHQtrRwdpg7llvUr4rQ4ttdqVNzdrEmxbGLsJ7qJWyXfhLRirtpxbuv3WAGeeX__d0UX4VNEdENYt92cJb7ZQlzPopevO-SwbyjOlDECjHXNkKQbZ", "width": 3120}], "place_id": "ChIJh1quCPW99jkR4_G6j9f7Cek", "plus_code": {"compound_code": "RF82+F5 Dhanbad, Jharkhand, India", "global_code": "7MM8RF82+F5"}, "rating": 4.7, "reference": "ChIJh1quCPW99jkR4_G6j9f7Cek", "scope": "GOOGLE", "types": ["doctor", "health", "point_of_interest", "establishment"], "user_ratings_total": 3, "vicinity": "Unnamed Road, Lohar Kulli, Dhanbad"}, {"business_status": "OPERATIONAL", "geometry": {"location": {"lat": 23.8071407, "lng": 86.43707359999999}, "viewport": {"northeast": {"lat": 23.8084716302915, "lng": 86.4384193302915}, "southwest": {"lat": 23.8057736697085, "lng": 86.43572136970849}}}, "icon": "https://maps.gstatic.com/mapfiles/place_api/icons/v1/png_71/generic_business-71.png", "icon_background_color": "#7B9EB0", "icon_mask_base_uri": "https://maps.gstatic.com/mapfiles/place_api/icons/v2/generic_pinlet", "name": "Surya Clinic, Dr Nupur Chandan", "opening_hours": {"open_now": true}, "photos": [{"height": 3456, "html_attributions": ["<a href=\"https://maps.google.com/maps/contrib/118265542715897899698\">Business View India 22</a>"], "photo_reference": "Aap_uEDGR7XeDA9D7V9fC8hd6d6sb2j2naIeLIC4bKOwVekl-JPHHjAZRieO-w3tgoa8kqrmojd0joZiabq4EycPaVwMhQQfKVGa7h7mUB5pRT2zyWBWAxio4dPoV1c0eXIFmpVmRn33LgSNpcTuFZXkbDF0OwrQlbEXCKoNcWRK_9CclULE", "width": 5184}], "place_id": "ChIJD0X956K89jkRsEevitrNm8o", "plus_code": {"compound_code": "RC4P+VR Dhanbad, Jharkhand, India", "global_code": "7MM8RC4P+VR"}, "rating": 3.3, "reference": "ChIJD0X956K89jkRsEevitrNm8o", "scope": "GOOGLE", "types": ["doctor", "health", "point_of_interest", "establishment"], "user_ratings_total": 28, "vicinity": "HIG-61, Housing Colony Road, Housing Colony, Sardar Patel Nagar, Dhanbad"}, {"business_status": "OPERATIONAL", "geometry": {"location": {"lat": 23.8077153, "lng": 86.4369072}, "viewport": {"northeast": {"lat": 23.8090629802915, "lng": 86.4382656302915}, "southwest": {"lat": 23.8063650197085, "lng": 86.43556766970849}}}, "icon": "https://maps.gstatic.com/mapfiles/place_api/icons/v1/png_71/generic_business-71.png", "icon_background_color": "#7B9EB0", "icon_mask_base_uri": "https://maps.gstatic.com/mapfiles/place_api/icons/v2/generic_pinlet", "name": "Dr RK Singh clinic", "place_id": "ChIJ7dPNF6m99jkR8NH2QtS12nY", "plus_code": {"compound_code": "RC5P+3Q Dhanbad, Jharkhand, India", "global_code": "7MM8RC5P+3Q"}, "rating": 5, "reference": "ChIJ7dPNF6m99jkR8NH2QtS12nY", "scope": "GOOGLE", "types": ["doctor", "health", "point_of_interest", "establishment"], "user_ratings_total": 1, "vicinity": "MIG B69, Housing Colony, Sardar Patel Nagar, Dhanbad"}, {"business_status": "OPERATIONAL", "geometry": {"location": {"lat": 23.8162796, "lng": 86.4506033}, "viewport": {"northeast": {"lat": 23.8175863302915, "lng": 86.45195898029151}, "southwest": {"lat": 23.81488836970849, "lng": 86.44926101970849}}}, "icon": "https://maps.gstatic.com/mapfiles/place_api/icons/v1/png_71/generic_business-71.png", "icon_background_color": "#7B9EB0", "icon_mask_base_uri": "https://maps.gstatic.com/mapfiles/place_api/icons/v2/generic_pinlet", "name": "DR A K CHOURASIA CLINIC Rohit Clinic", "place_id": "ChIJGV5I64K89jkRROwICjo_3s8", "rating": 3.5, "reference": "ChIJGV5I64K89jkRROwICjo_3s8", "scope": "GOOGLE", "types": ["doctor", "health", "point_of_interest", "establishment"], "user_ratings_total": 4, "vicinity": "RF82+G69, Lohar Kulli, Dhanbad"}], "status": "OK"}