{"html_attributions": [], "results": [{"business_status": "OPERATIONAL", "geometry": {"location": {"lat": 23.7834933, "lng": 86.0147205}, "viewport": {"northeast": {"lat": 23.7848245302915, "lng": 86.0160887302915}, "southwest": {"lat": 23.7821265697085, "lng": 86.0133907697085}}}, "icon": "https://maps.gstatic.com/mapfiles/place_api/icons/v1/png_71/generic_business-71.png", "icon_background_color": "#7B9EB0", "icon_mask_base_uri": "https://maps.gstatic.com/mapfiles/place_api/icons/v2/generic_pinlet", "name": "Dr.R.N.Gupta", "opening_hours": {"open_now": true}, "place_id": "ChIJuZSDIqAW9DkRKjnmDZB_g_E", "plus_code": {"compound_code": "Q2M7+9V Central Colony, Jharkhand, India", "global_code": "7MM8Q2M7+9V"}, "reference": "ChIJuZSDIqAW9DkRKjnmDZB_g_E", "scope": "GOOGLE", "types": ["doctor", "health", "point_of_interest", "establishment"], "vicinity": "Central Colony - Sharda Colony Road, Central Colony"}, {"business_status": "OPERATIONAL", "geometry": {"location": {"lat": 23.7818304, "lng": 86.01567469999999}, "viewport": {"northeast": {"lat": 23.7831861302915, "lng": 86.01700808029149}, "southwest": {"lat": 23.7804881697085, "lng": 86.01431011970848}}}, "icon": "https://maps.gstatic.com/mapfiles/place_api/icons/v1/png_71/generic_business-71.png", "icon_background_color": "#7B9EB0", "icon_mask_base_uri": "https://maps.gstatic.com/mapfiles/place_api/icons/v2/generic_pinlet", "name": "Dr. Anwar Clinic", "place_id": "ChIJF0uCFJ8W9DkR9N2HH7zfF6w", "reference": "ChIJF0uCFJ8W9DkR9N2HH7zfF6w", "scope": "GOOGLE", "types": ["doctor", "health", "point_of_interest", "establishment"], "vicinity": "Q2J8+P7M, Central Colony"}, {"business_status": "OPERATIONAL", "geometry": {"location": {"lat": 23.7813677, "lng": 86.01600719999999}, "viewport": {"northeast": {"lat": 23.7827320302915, "lng": 86.0173671802915}, "southwest": {"lat": 23.7800340697085, "lng": 86.0146692197085}}}, "icon": "https://maps.gstatic.com/mapfiles/place_api/icons/v1/png_71/generic_business-71.png", "icon_background_color": "#7B9EB0", "icon_mask_base_uri": "https://maps.gstatic.com/mapfiles/place_api/icons/v2/generic_pinlet", "name": "Dr.B.mitra", "opening_hours": {"open_now": false}, "place_id": "ChIJEadmPZ8W9DkRRCY0IUsUtic", "plus_code": {"compound_code": "Q2J8+GC Central Colony, Jharkhand, India", "global_code": "7MM8Q2J8+GC"}, "reference": "ChIJEadmPZ8W9DkRRCY0IUsUtic", "scope": "GOOGLE", "types": ["doctor", "health", "point_of_interest", "establishment"], "vicinity": "Market Road, Central Colony"}], "status": "OK"}