{"html_attributions": [], "results": [{"business_status": "OPERATIONAL", "geometry": {"location": {"lat": 23.635459, "lng": 86.1086936}, "viewport": {"northeast": {"lat": 23.63680498029151, "lng": 86.11003938029151}, "southwest": {"lat": 23.6341070197085, "lng": 86.10734141970849}}}, "icon": "https://maps.gstatic.com/mapfiles/place_api/icons/v1/png_71/generic_business-71.png", "icon_background_color": "#7B9EB0", "icon_mask_base_uri": "https://maps.gstatic.com/mapfiles/place_api/icons/v2/generic_pinlet", "name": "Dr shri niwas singh", "place_id": "ChIJMSgUwJIj9DkRqYDzFVCVECo", "reference": "ChIJMSgUwJIj9DkRqYDzFVCVECo", "scope": "GOOGLE", "types": ["doctor", "health", "point_of_interest", "establishment"], "vicinity": "J4P5+5FP, Azad Nagar, Siwandih, Bokaro Steel City"}, {"business_status": "OPERATIONAL", "geometry": {"location": {"lat": 23.6314229, "lng": 86.0988256}, "viewport": {"northeast": {"lat": 23.6329837302915, "lng": 86.10030628029149}, "southwest": {"lat": 23.6302857697085, "lng": 86.09760831970848}}}, "icon": "https://maps.gstatic.com/mapfiles/place_api/icons/v1/png_71/generic_business-71.png", "icon_background_color": "#7B9EB0", "icon_mask_base_uri": "https://maps.gstatic.com/mapfiles/place_api/icons/v2/generic_pinlet", "name": "Pubg Ground", "place_id": "ChIJp4rcEvkj9DkRqSnrGSJjXPQ", "rating": 5, "reference": "ChIJp4rcEvkj9DkRqSnrGSJjXPQ", "scope": "GOOGLE", "types": ["doctor", "health", "point_of_interest", "establishment"], "user_ratings_total": 2, "vicinity": "J3JX+HG8, Makhdumpur, ansar mohallah, Bokaro Steel City"}, {"business_status": "OPERATIONAL", "geometry": {"location": {"lat": 23.6415075, "lng": 86.1072262}, "viewport": {"northeast": {"lat": 23.6428780802915, "lng": 86.1085237802915}, "southwest": {"lat": 23.64018011970849, "lng": 86.1058258197085}}}, "icon": "https://maps.gstatic.com/mapfiles/place_api/icons/v1/png_71/generic_business-71.png", "icon_background_color": "#7B9EB0", "icon_mask_base_uri": "https://maps.gstatic.com/mapfiles/place_api/icons/v2/generic_pinlet", "name": "Dr.Shankar Prasad, Homeopathic, Bokaro", "opening_hours": {"open_now": true}, "photos": [{"height": 1522, "html_attributions": ["<a href=\"https://maps.google.com/maps/contrib/109828180655118322335\">Dr.Shankar Prasad, Homeopathic, Bokaro</a>"], "photo_reference": "Aap_uEAX1lv3m1oDfoPIfJzIRSeqQsaqm7tpSevEM76A_mU7mdABmVdgcQ314tg7Eg3GVcS8NTaZdktWFRsxecAJkS0zJ8xJ1sAQ6R6YQAdb4NoGBqSBIybpfZngeP9l75F4Ev-EzwHsv0yDqz_8vcoN_VyJOc3SvH0ivLaNQlRt5Ha7W4Py", "width": 963}], "place_id": "ChIJvxxxFEcj9DkRddWrdde4ZVc", "plus_code": {"compound_code": "J4R4+JV Bokaro Steel City, Jharkhand, India", "global_code": "7MM8J4R4+JV"}, "rating": 5, "reference": "ChIJvxxxFEcj9DkRddWrdde4ZVc", "scope": "GOOGLE", "types": ["doctor", "health", "point_of_interest", "establishment"], "user_ratings_total": 3, "vicinity": "Azad Nager, Bokaro Steel City"}], "status": "OK"}