{"html_attributions": [], "results": [{"business_status": "OPERATIONAL", "geometry": {"location": {"lat": 23.6419281, "lng": 86.10399570000001}, "viewport": {"northeast": {"lat": 23.6433020302915, "lng": 86.10536568029151}, "southwest": {"lat": 23.6406040697085, "lng": 86.1026677197085}}}, "icon": "https://maps.gstatic.com/mapfiles/place_api/icons/v1/png_71/generic_business-71.png", "icon_background_color": "#7B9EB0", "icon_mask_base_uri": "https://maps.gstatic.com/mapfiles/place_api/icons/v2/generic_pinlet", "name": "Dr. Md Kafeel Ahmad", "place_id": "ChIJQ6zIgMwj9DkRUOJdBSnaS-Y", "plus_code": {"compound_code": "J4R3+QH Bokaro Steel City, Jharkhand, India", "global_code": "7MM8J4R3+QH"}, "reference": "ChIJQ6zIgMwj9DkRUOJdBSnaS-Y", "scope": "GOOGLE", "types": ["doctor", "health", "point_of_interest", "establishment"], "vicinity": "Unnamed Road, Siwandih, Bokaro Steel City"}, {"business_status": "OPERATIONAL", "geometry": {"location": {"lat": 23.6415075, "lng": 86.1072262}, "viewport": {"northeast": {"lat": 23.6428780802915, "lng": 86.1085237802915}, "southwest": {"lat": 23.64018011970849, "lng": 86.1058258197085}}}, "icon": "https://maps.gstatic.com/mapfiles/place_api/icons/v1/png_71/generic_business-71.png", "icon_background_color": "#7B9EB0", "icon_mask_base_uri": "https://maps.gstatic.com/mapfiles/place_api/icons/v2/generic_pinlet", "name": "Dr.Shankar Prasad, Homeopathic, Bokaro", "opening_hours": {"open_now": true}, "photos": [{"height": 1522, "html_attributions": ["<a href=\"https://maps.google.com/maps/contrib/109828180655118322335\">Dr.Shankar Prasad, Homeopathic, Bokaro</a>"], "photo_reference": "Aap_uEAjRGxKlywnIlzfKujPOnAFGgrgGXj7wUJK7yw0rDrkBun6D1_5hmc1u9HaeSERwoGTav-cUcth5EXKMGDVlvMJAIkAa2uCxMq2VzOUtFyij7yOtWMWVPVzk-a5AsFbsBQVxuiefIQK1HyXtW67HBisdPYRCSYoCGds82Tajf5WRNwE", "width": 963}], "place_id": "ChIJvxxxFEcj9DkRddWrdde4ZVc", "plus_code": {"compound_code": "J4R4+JV Bokaro Steel City, Jharkhand, India", "global_code": "7MM8J4R4+JV"}, "rating": 5, "reference": "ChIJvxxxFEcj9DkRddWrdde4ZVc", "scope": "GOOGLE", "types": ["doctor", "health", "point_of_interest", "establishment"], "user_ratings_total": 3, "vicinity": "Azad Nager, Bokaro Steel City"}, {"business_status": "OPERATIONAL", "geometry": {"location": {"lat": 23.6406592, "lng": 86.1136018}, "viewport": {"northeast": {"lat": 23.6418883302915, "lng": 86.11486468029149}, "southwest": {"lat": 23.6391903697085, "lng": 86.11216671970848}}}, "icon": "https://maps.gstatic.com/mapfiles/place_api/icons/v1/png_71/generic_business-71.png", "icon_background_color": "#7B9EB0", "icon_mask_base_uri": "https://maps.gstatic.com/mapfiles/place_api/icons/v2/generic_pinlet", "name": "AIIMS TOPPER DHIRAJ BOKARO", "place_id": "ChIJeyOCuQEj9DkRRQYg0melSsM", "plus_code": {"compound_code": "J4R7+7C Bokaro Steel City, Jharkhand, India", "global_code": "7MM8J4R7+7C"}, "reference": "ChIJeyOCuQEj9DkRRQYg0melSsM", "scope": "GOOGLE", "types": ["doctor", "health", "point_of_interest", "establishment"], "vicinity": "Unnamed Road, Siwandih, Bokaro Steel City"}], "status": "OK"}