{"html_attributions": [], "results": [{"business_status": "OPERATIONAL", "geometry": {"location": {"lat": 23.64779, "lng": 86.13431}, "viewport": {"northeast": {"lat": 23.6492056302915, "lng": 86.1355245302915}, "southwest": {"lat": 23.64650766970849, "lng": 86.1328265697085}}}, "icon": "https://maps.gstatic.com/mapfiles/place_api/icons/v1/png_71/generic_business-71.png", "icon_background_color": "#7B9EB0", "icon_mask_base_uri": "https://maps.gstatic.com/mapfiles/place_api/icons/v2/generic_pinlet", "name": "Dr Lal PathLabs", "opening_hours": {"open_now": false}, "place_id": "ChIJ5Wa1Df8j9DkRMvUi3Q-wlws", "plus_code": {"compound_code": "J4XM+4P Bokaro Steel City, Jharkhand, India", "global_code": "7MM8J4XM+4P"}, "rating": 4.9, "reference": "ChIJ5Wa1Df8j9DkRMvUi3Q-wlws", "scope": "GOOGLE", "types": ["doctor", "health", "point_of_interest", "establishment"], "user_ratings_total": 30, "vicinity": "Plot - 56, Co-operative colony, Police Line, Bokaro Steel City"}, {"business_status": "OPERATIONAL", "geometry": {"location": {"lat": 23.6501852, "lng": 86.13466939999999}, "viewport": {"northeast": {"lat": 23.6515703302915, "lng": 86.1360399302915}, "southwest": {"lat": 23.6488723697085, "lng": 86.1333419697085}}}, "icon": "https://maps.gstatic.com/mapfiles/place_api/icons/v1/png_71/generic_business-71.png", "icon_background_color": "#7B9EB0", "icon_mask_base_uri": "https://maps.gstatic.com/mapfiles/place_api/icons/v2/generic_pinlet", "name": "New City X-Ray & Patho Lab Centre", "opening_hours": {"open_now": true}, "place_id": "ChIJ-TYmVKcj9DkR5SV4ObsyOAY", "plus_code": {"compound_code": "M42M+3V Bokaro Steel City, Jharkhand, India", "global_code": "7MM8M42M+3V"}, "reference": "ChIJ-TYmVKcj9DkR5SV4ObsyOAY", "scope": "GOOGLE", "types": ["doctor", "health", "point_of_interest", "establishment"], "vicinity": "Co-operative Colony, Bokaro Steel City"}, {"business_status": "OPERATIONAL", "geometry": {"location": {"lat": 23.6495925, "lng": 86.134807}, "viewport": {"northeast": {"lat": 23.65089903029151, "lng": 86.1362422302915}, "southwest": {"lat": 23.6482010697085, "lng": 86.1335442697085}}}, "icon": "https://maps.gstatic.com/mapfiles/place_api/icons/v1/png_71/generic_business-71.png", "icon_background_color": "#7B9EB0", "icon_mask_base_uri": "https://maps.gstatic.com/mapfiles/place_api/icons/v2/generic_pinlet", "name": "Dr V S Singh Clinic", "place_id": "ChIJI-lzrKAj9DkRVRtuQAV4I_k", "plus_code": {"compound_code": "J4XM+RW Bokaro Steel City, Jharkhand, India", "global_code": "7MM8J4XM+RW"}, "rating": 4.5, "reference": "ChIJI-lzrKAj9DkRVRtuQAV4I_k", "scope": "GOOGLE", "types": ["doctor", "health", "point_of_interest", "establishment"], "user_ratings_total": 4, "vicinity": "111, Co-Operative Colony, Police Line, Bokaro Steel City"}, {"business_status": "OPERATIONAL", "geometry": {"location": {"lat": 23.654547, "lng": 86.132858}, "viewport": {"northeast": {"lat": 23.6557220802915, "lng": 86.13430413029151}, "southwest": {"lat": 23.6530241197085, "lng": 86.13160616970849}}}, "icon": "https://maps.gstatic.com/mapfiles/place_api/icons/v1/png_71/hospital-71.png", "icon_background_color": "#F88181", "icon_mask_base_uri": "https://maps.gstatic.com/mapfiles/place_api/icons/v2/hospital-H_pinlet", "name": "Wellmark Hospital [ \u0935\u0947\u0932\u092e\u093e\u0930\u094d\u0915 \u0939\u0949\u0938\u094d\u092a\u093f\u091f\u0932 ]", "photos": [{"height": 1040, "html_attributions": ["<a href=\"https://maps.google.com/maps/contrib/112584350232696235924\">Wellmark Hospital [ \u0935\u0947\u0932\u092e\u093e\u0930\u094d\u0915 \u0939\u0949\u0938\u094d\u092a\u093f\u091f\u0932 ]</a>"], "photo_reference": "Aap_uECYnDz6KXt2qyBZeailgWT2YiZdb_YkuNI0hPfnppy_BGpTYdG7oU-Wz4qASVJMDCfCWaX7JTGNBYVz8j42Z0dJWjSfu2ZYpjBZfBRcjZsm2DhuR4WCti1bx8Req132SsT_6JhG9gMFMifkZ5A5hMtoI7BvIT6Z-R1sB9q1eGIen6KQ", "width": 492}], "place_id": "ChIJ25VEIgYj9DkRva0GcWUF5d8", "plus_code": {"compound_code": "M43M+R4 Bokaro Steel City, Jharkhand, India", "global_code": "7MM8M43M+R4"}, "rating": 4.8, "reference": "ChIJ25VEIgYj9DkRva0GcWUF5d8", "scope": "GOOGLE", "types": ["hospital", "doctor", "health", "point_of_interest", "establishment"], "user_ratings_total": 101, "vicinity": "15E/3, Western Avenue, Marafari Road, Naya More, Bokaro Steel City"}, {"business_status": "OPERATIONAL", "geometry": {"location": {"lat": 23.6485786, "lng": 86.135312}, "viewport": {"northeast": {"lat": 23.6498397302915, "lng": 86.13661698029149}, "southwest": {"lat": 23.6471417697085, "lng": 86.13391901970849}}}, "icon": "https://maps.gstatic.com/mapfiles/place_api/icons/v1/png_71/generic_business-71.png", "icon_background_color": "#7B9EB0", "icon_mask_base_uri": "https://maps.gstatic.com/mapfiles/place_api/icons/v2/generic_pinlet", "name": "Vita dental lab", "photos": [{"height": 4608, "html_attributions": ["<a href=\"https://maps.google.com/maps/contrib/100920167053550158072\">Ramashish Sah</a>"], "photo_reference": "Aap_uEDeD59tW6j7viMDT3_mM9XjHFi8JJ12L-sMmNgEm4HgBI-7sJjckO3PlofKfziK8kNNAZjF049Y5wwNP8bruATYWpDIENmSata7PBaFUB1eJL13kJDulmg_m8cN8EAM9rzN9CorFpZlOiXcSoHPsN0Xx9q1PA8XGGhMW4UxsJ2UwnDA", "width": 2128}], "place_id": "ChIJQwegSjMj9DkREnptQekZsb0", "reference": "ChIJQwegSjMj9DkREnptQekZsb0", "scope": "GOOGLE", "types": ["doctor", "health", "point_of_interest", "establishment"], "vicinity": "J4XP+C4M, Cooperative Colony, Bokaro Steel City"}, {"business_status": "OPERATIONAL", "geometry": {"location": {"lat": 23.6503871, "lng": 86.13529679999999}, "viewport": {"northeast": {"lat": 23.6516952802915, "lng": 86.1367275302915}, "southwest": {"lat": 23.6489973197085, "lng": 86.13402956970849}}}, "icon": "https://maps.gstatic.com/mapfiles/place_api/icons/v1/png_71/generic_business-71.png", "icon_background_color": "#7B9EB0", "icon_mask_base_uri": "https://maps.gstatic.com/mapfiles/place_api/icons/v2/generic_pinlet", "name": "Dr. Sinha Pathological Clinic", "opening_hours": {"open_now": true}, "place_id": "ChIJqw_7Tqcj9DkRrGwbU8QAVwo", "plus_code": {"compound_code": "M42P+54 Bokaro Steel City, Jharkhand, India", "global_code": "7MM8M42P+54"}, "rating": 5, "reference": "ChIJqw_7Tqcj9DkRrGwbU8QAVwo", "scope": "GOOGLE", "types": ["doctor", "health", "point_of_interest", "establishment"], "user_ratings_total": 4, "vicinity": "Plot No. 39, Co-Operative Colony, Police Line, Bokaro Steel City"}, {"business_status": "OPERATIONAL", "geometry": {"location": {"lat": 23.6497824, "lng": 86.1354982}, "viewport": {"northeast": {"lat": 23.6512014802915, "lng": 86.1367114302915}, "southwest": {"lat": 23.6485035197085, "lng": 86.13401346970849}}}, "icon": "https://maps.gstatic.com/mapfiles/place_api/icons/v1/png_71/generic_business-71.png", "icon_background_color": "#7B9EB0", "icon_mask_base_uri": "https://maps.gstatic.com/mapfiles/place_api/icons/v2/generic_pinlet", "name": "Dr sweta Shankar clinic", "opening_hours": {"open_now": false}, "photos": [{"height": 1726, "html_attributions": ["<a href=\"https://maps.google.com/maps/contrib/104109093819145801657\">Dr Sweta Shankar</a>"], "photo_reference": "Aap_uEDNhL418bgC8ZBDzCqXSirTIo5lFd8IWIH8kNC4J6OeIlUCIQDdyQH5wO5xrCfd6QcPBJ_dxC389Gr2FucEpyouu4how2fgqnYEspQ2MdLuuuyF084S0kMNHLBhEV48nr3g0_dHKI_CRofx3a1W02UdvZWmRtcqB2_lunfkEGmJ66Mk", "width": 1080}], "place_id": "ChIJkc4KxD8j9DkR21_Y_WMBK28", "plus_code": {"compound_code": "J4XP+W5 Bokaro Steel City, Jharkhand, India", "global_code": "7MM8J4XP+W5"}, "rating": 4.8, "reference": "ChIJkc4KxD8j9DkR21_Y_WMBK28", "scope": "GOOGLE", "types": ["doctor", "health", "point_of_interest", "establishment"], "user_ratings_total": 4, "vicinity": "Co-operative Colony Road, Police Line, Bokaro Steel City"}, {"business_status": "OPERATIONAL", "geometry": {"location": {"lat": 23.6497063, "lng": 86.13562069999999}, "viewport": {"northeast": {"lat": 23.6510024802915, "lng": 86.13693568029149}, "southwest": {"lat": 23.6483045197085, "lng": 86.13423771970848}}}, "icon": "https://maps.gstatic.com/mapfiles/place_api/icons/v1/png_71/hospital-71.png", "icon_background_color": "#F88181", "icon_mask_base_uri": "https://maps.gstatic.com/mapfiles/place_api/icons/v2/hospital-H_pinlet", "name": "Dr.S.K.Patra", "opening_hours": {"open_now": false}, "photos": [{"height": 4616, "html_attributions": ["<a href=\"https://maps.google.com/maps/contrib/114791881186335871554\">Ghanshyam Raj</a>"], "photo_reference": "Aap_uEBJfBXQfmeQkvY_JNcEatJZQbzDz652tfzqteOI3ObGvjKVcD3tsDZmPaU-0PamDVcLRTEHIYsJfpRsImhLuMr1_WIMRHsQbefp2zNuPYnKK2avruji1C-ngNgkOKmKvxdlHPzkIX2a4wAtiQyzF730wzBZpbiBybvGlP_35_UNCjdr", "width": 3465}], "place_id": "ChIJzwcGtaAj9DkRRjOVr7CWe_Y", "plus_code": {"compound_code": "J4XP+V6 Bokaro Steel City, Jharkhand, India", "global_code": "7MM8J4XP+V6"}, "rating": 4.5, "reference": "ChIJzwcGtaAj9DkRRjOVr7CWe_Y", "scope": "GOOGLE", "types": ["hospital", "doctor", "health", "point_of_interest", "establishment"], "user_ratings_total": 21, "vicinity": "60, Cooperative Colony, Bokaro Steel City"}, {"business_status": "OPERATIONAL", "geometry": {"location": {"lat": 23.6503724, "lng": 86.1356522}, "viewport": {"northeast": {"lat": 23.6517506302915, "lng": 86.13694253029152}, "southwest": {"lat": 23.64905266970849, "lng": 86.13424456970851}}}, "icon": "https://maps.gstatic.com/mapfiles/place_api/icons/v1/png_71/generic_business-71.png", "icon_background_color": "#7B9EB0", "icon_mask_base_uri": "https://maps.gstatic.com/mapfiles/place_api/icons/v2/generic_pinlet", "name": "Dr. Anil Kumar Jha , Skin specialist, Dermatologist, Bokaro, Jharkhand", "opening_hours": {"open_now": false}, "place_id": "ChIJAXBzQ4kj9DkRc5ub-jQnfn8", "plus_code": {"compound_code": "M42P+47 Bokaro Steel City, Jharkhand, India", "global_code": "7MM8M42P+47"}, "rating": 2.4, "reference": "ChIJAXBzQ4kj9DkRc5ub-jQnfn8", "scope": "GOOGLE", "types": ["doctor", "health", "point_of_interest", "establishment"], "user_ratings_total": 15, "vicinity": "MEDICO Plot No. 56, Cooperative Colony, Bokaro Steel City"}, {"business_status": "OPERATIONAL", "geometry": {"location": {"lat": 23.6507161, "lng": 86.1358594}, "viewport": {"northeast": {"lat": 23.6520304302915, "lng": 86.1371893302915}, "southwest": {"lat": 23.6493324697085, "lng": 86.1344913697085}}}, "icon": "https://maps.gstatic.com/mapfiles/place_api/icons/v1/png_71/generic_business-71.png", "icon_background_color": "#7B9EB0", "icon_mask_base_uri": "https://maps.gstatic.com/mapfiles/place_api/icons/v2/generic_pinlet", "name": "Dr Pradeep Dermatologist Bokaro", "opening_hours": {"open_now": false}, "photos": [{"height": 4000, "html_attributions": ["<a href=\"https://maps.google.com/maps/contrib/117268246990080883377\">Dr Pradeep Dermatologist Bokaro</a>"], "photo_reference": "Aap_uECOrfTtIpNmrWx5ChT1eYVsm6dr5TAqTwUKNoAhs1WrV-EMs_fqZN1VEJSq4GLZ8UyzVgpUnqmEl_a_bzaZLK81HJCbMOBbSJKP7MkEqYZd4sBbyisSrMwFEZUODkVo-epAP1tOhacos6IBghWmhKIw9947QlpMhgVLfklooFJtbba4", "width": 6000}], "place_id": "ChIJF82NO-Uj9DkR5a_zVmwEUFI", "plus_code": {"compound_code": "M42P+78 Bokaro Steel City, Jharkhand, India", "global_code": "7MM8M42P+78"}, "rating": 5, "reference": "ChIJF82NO-Uj9DkR5a_zVmwEUFI", "scope": "GOOGLE", "types": ["doctor", "health", "point_of_interest", "establishment"], "user_ratings_total": 23, "vicinity": "SHRI RAM MEDICAL, Plot no.51, Co-operative Colony, Police Line, Bokaro Steel City"}, {"business_status": "OPERATIONAL", "geometry": {"location": {"lat": 23.65090000000001, "lng": 86.13606159999999}, "viewport": {"northeast": {"lat": 23.65222293029151, "lng": 86.13747658029149}, "southwest": {"lat": 23.6495249697085, "lng": 86.13477861970848}}}, "icon": "https://maps.gstatic.com/mapfiles/place_api/icons/v1/png_71/generic_business-71.png", "icon_background_color": "#7B9EB0", "icon_mask_base_uri": "https://maps.gstatic.com/mapfiles/place_api/icons/v2/generic_pinlet", "name": "Raj Digital Patholab", "opening_hours": {"open_now": true}, "place_id": "ChIJVfnfO6cj9DkRKr6XtEycmG4", "plus_code": {"compound_code": "M42P+9C Bokaro Steel City, Jharkhand, India", "global_code": "7MM8M42P+9C"}, "rating": 1, "reference": "ChIJVfnfO6cj9DkRKr6XtEycmG4", "scope": "GOOGLE", "types": ["doctor", "health", "point_of_interest", "establishment"], "user_ratings_total": 1, "vicinity": "50, Cooperative Colony, Bokaro Steel City"}, {"business_status": "OPERATIONAL", "geometry": {"location": {"lat": 23.65150929999999, "lng": 86.13602569999999}, "viewport": {"northeast": {"lat": 23.6528305302915, "lng": 86.1374313302915}, "southwest": {"lat": 23.65013256970849, "lng": 86.13473336970848}}}, "icon": "https://maps.gstatic.com/mapfiles/place_api/icons/v1/png_71/generic_business-71.png", "icon_background_color": "#7B9EB0", "icon_mask_base_uri": "https://maps.gstatic.com/mapfiles/place_api/icons/v2/generic_pinlet", "name": "ENT Specialist and Surgeon (Dr. S. K. Banerji)", "opening_hours": {"open_now": false}, "photos": [{"height": 4608, "html_attributions": ["<a href=\"https://maps.google.com/maps/contrib/109213632055527296581\">ENT Specialist and Surgeon (Dr. S. K. Banerji)</a>"], "photo_reference": "Aap_uEApcK3Eb8kiMFWBwD-UdzzJ27O8GTfwNCppR7qrw5ikvmRej0EIeC7Pe8qjgRHObMg-nESCWI1gYCxXB498zVaxBWk2RpTkTjxpupDQHviEZkj6TCQ7V9ZvhrepnBVXysEE7lf4aI_wkyvnJhZtt80aXzrhzkesmLcTsOy9Q7jNfKat", "width": 3456}], "place_id": "ChIJf4vJ1NYj9DkRiEs1ZZ14NRQ", "plus_code": {"compound_code": "M42P+JC Bokaro Steel City, Jharkhand, India", "global_code": "7MM8M42P+JC"}, "rating": 5, "reference": "ChIJf4vJ1NYj9DkRiEs1ZZ14NRQ", "scope": "GOOGLE", "types": ["doctor", "health", "point_of_interest", "establishment"], "user_ratings_total": 5, "vicinity": "opposite Manpasand sweets, New Tirupati Medical Plot-9, opposite Manpasand sweets, Cooperative Colony, Bokaro Steel City"}, {"business_status": "OPERATIONAL", "geometry": {"location": {"lat": 23.6512375, "lng": 86.1366567}, "viewport": {"northeast": {"lat": 23.6525643802915, "lng": 86.1380500802915}, "southwest": {"lat": 23.6498664197085, "lng": 86.1353521197085}}}, "icon": "https://maps.gstatic.com/mapfiles/place_api/icons/v1/png_71/generic_business-71.png", "icon_background_color": "#7B9EB0", "icon_mask_base_uri": "https://maps.gstatic.com/mapfiles/place_api/icons/v2/generic_pinlet", "name": "Bokaro Pathological Laboratory", "opening_hours": {"open_now": true}, "photos": [{"height": 1080, "html_attributions": ["<a href=\"https://maps.google.com/maps/contrib/116009144172800383125\">Sukesh Kumar</a>"], "photo_reference": "Aap_uEBTggXDgVNjOckSXkSbzv3zcu0b9OgSTz2OW1ypsZvRVuByKn72TvNFQQbmEyc6CoEXhMs1weBl2dVCUhUQUO6asc8erFrClmBQYQRPrI4jXvky4ePBxwZMIei7ovt1hKyn1IeTEUZh0O8237f0k4CTgDjjYZdOLxW45AxlS4TGrNb_", "width": 1920}], "place_id": "ChIJnR0wIqcj9DkRuCLtXoZFyhQ", "plus_code": {"compound_code": "M42P+FM Bokaro Steel City, Jharkhand, India", "global_code": "7MM8M42P+FM"}, "rating": 2.7, "reference": "ChIJnR0wIqcj9DkRuCLtXoZFyhQ", "scope": "GOOGLE", "types": ["doctor", "health", "point_of_interest", "establishment"], "user_ratings_total": 3, "vicinity": "44, Cooperative Colony, Bokaro Steel City"}, {"business_status": "OPERATIONAL", "geometry": {"location": {"lat": 23.6509548, "lng": 86.1367233}, "viewport": {"northeast": {"lat": 23.65232763029151, "lng": 86.13802613029151}, "southwest": {"lat": 23.6496296697085, "lng": 86.13532816970849}}}, "icon": "https://maps.gstatic.com/mapfiles/place_api/icons/v1/png_71/generic_business-71.png", "icon_background_color": "#7B9EB0", "icon_mask_base_uri": "https://maps.gstatic.com/mapfiles/place_api/icons/v2/generic_pinlet", "name": "Pioneer X-Ray Clinic", "place_id": "ChIJkWuxznQj9DkRt6t0mA9ltaQ", "plus_code": {"compound_code": "M42P+9M Bokaro Steel City, Jharkhand, India", "global_code": "7MM8M42P+9M"}, "rating": 5, "reference": "ChIJkWuxznQj9DkRt6t0mA9ltaQ", "scope": "GOOGLE", "types": ["doctor", "health", "point_of_interest", "establishment"], "user_ratings_total": 1, "vicinity": "75, Cooperative Colony, Bokaro Steel City"}, {"business_status": "OPERATIONAL", "geometry": {"location": {"lat": 23.6510121, "lng": 86.1367774}, "viewport": {"northeast": {"lat": 23.6523878302915, "lng": 86.1380725802915}, "southwest": {"lat": 23.6496898697085, "lng": 86.1353746197085}}}, "icon": "https://maps.gstatic.com/mapfiles/place_api/icons/v1/png_71/generic_business-71.png", "icon_background_color": "#7B9EB0", "icon_mask_base_uri": "https://maps.gstatic.com/mapfiles/place_api/icons/v2/generic_pinlet", "name": "X - Ray House & Pathological Lab", "opening_hours": {"open_now": true}, "photos": [{"height": 1844, "html_attributions": ["<a href=\"https://maps.google.com/maps/contrib/103441318206589225259\">rajesh choudhary</a>"], "photo_reference": "Aap_uEBYoJJK8K_rbJQdQkwT29UOKIFEg8VzGgnt_BpJ31H3iweOIlyfpK4kCjZkNoXjulny707hFQRxhQN6doafr70Bvjw4MpI1NOwqadR0hDFkJaH3KQi3hH6OOAFnaW5ssQLRsWA9EsFV4u3ZsoqK0PWYOneUQCi0EzSV_-IvUAawog0n", "width": 4000}], "place_id": "ChIJq1Q1Iacj9DkRqQfrZdh4gIE", "plus_code": {"compound_code": "M42P+CP Bokaro Steel City, Jharkhand, India", "global_code": "7MM8M42P+CP"}, "rating": 5, "reference": "ChIJq1Q1Iacj9DkRqQfrZdh4gIE", "scope": "GOOGLE", "types": ["doctor", "health", "point_of_interest", "establishment"], "user_ratings_total": 3, "vicinity": "72, Cooperative Colony, Bokaro Steel City"}, {"business_status": "OPERATIONAL", "geometry": {"location": {"lat": 23.6367993, "lng": 86.1289018}, "viewport": {"northeast": {"lat": 23.6382479302915, "lng": 86.1299229302915}, "southwest": {"lat": 23.6355499697085, "lng": 86.1272249697085}}}, "icon": "https://maps.gstatic.com/mapfiles/place_api/icons/v1/png_71/generic_business-71.png", "icon_background_color": "#7B9EB0", "icon_mask_base_uri": "https://maps.gstatic.com/mapfiles/place_api/icons/v2/generic_pinlet", "name": "Ukrid Play Ground", "place_id": "ChIJB1ntzlgj9DkRkt_AYQglt4g", "reference": "ChIJB1ntzlgj9DkRkt_AYQglt4g", "scope": "GOOGLE", "types": ["doctor", "health", "point_of_interest", "establishment"], "vicinity": "J4PH+PH6, Ritudih, Bokaro Steel City"}], "status": "OK"}