{"html_attributions": [], "results": [{"business_status": "OPERATIONAL", "geometry": {"location": {"lat": 27.56187139999999, "lng": 80.6893628}, "viewport": {"northeast": {"lat": 27.5631172802915, "lng": 80.69068518029151}, "southwest": {"lat": 27.5604193197085, "lng": 80.6879872197085}}}, "icon": "https://maps.gstatic.com/mapfiles/place_api/icons/v1/png_71/generic_business-71.png", "icon_background_color": "#7B9EB0", "icon_mask_base_uri": "https://maps.gstatic.com/mapfiles/place_api/icons/v2/generic_pinlet", "name": "Krishna Care Collection Lal Patholgy Lab", "photos": [{"height": 1920, "html_attributions": ["<a href=\"https://maps.google.com/maps/contrib/114427898247193643880\">Syed Kalbey Hasan</a>"], "photo_reference": "Aap_uEAhIjhq-PxpC5-Fj1pJ8N3mL-EP_fQATUvoSQxUZGhuvInqVnDhsn5wJzLbxchmtcO0cYSxvarsrZHMj73rMx8ZTBehFvRm2iDPy6wxOTcHNN3Djqep5mBnDxCh-rpCJJsxlSrgP0e7AXEHCMv5VSSh-BeD1x7Sf3LQIwlakYdfu0e1", "width": 1080}], "place_id": "ChIJJ9QDAoTXnjkRz0UnZmcjths", "plus_code": {"compound_code": "HM6Q+PP Sitapur, Uttar Pradesh, India", "global_code": "7MV2HM6Q+PP"}, "reference": "ChIJJ9QDAoTXnjkRz0UnZmcjths", "scope": "GOOGLE", "types": ["doctor", "health", "point_of_interest", "establishment"], "vicinity": "near Cashka Restaurant, Roadways Chauraha, near Cashka Restaurant, Station Road, Arya Nagar, Sitapur"}, {"business_status": "OPERATIONAL", "geometry": {"location": {"lat": 27.5659044, "lng": 80.6852542}, "viewport": {"northeast": {"lat": 27.5672533802915, "lng": 80.68660318029151}, "southwest": {"lat": 27.5645554197085, "lng": 80.68390521970849}}}, "icon": "https://maps.gstatic.com/mapfiles/place_api/icons/v1/png_71/generic_business-71.png", "icon_background_color": "#7B9EB0", "icon_mask_base_uri": "https://maps.gstatic.com/mapfiles/place_api/icons/v2/generic_pinlet", "name": "SPANDAN HOMOEO HEALING CENTRE", "place_id": "ChIJm5BwM1bWnjkRtvrFnVWU0eU", "plus_code": {"compound_code": "HM8P+94 Sitapur, Uttar Pradesh, India", "global_code": "7MV2HM8P+94"}, "rating": 3.3, "reference": "ChIJm5BwM1bWnjkRtvrFnVWU0eU", "scope": "GOOGLE", "types": ["doctor", "health", "point_of_interest", "establishment"], "user_ratings_total": 3, "vicinity": "Jail Road, Sitapur"}, {"business_status": "OPERATIONAL", "geometry": {"location": {"lat": 27.56139199999999, "lng": 80.69245370000002}, "viewport": {"northeast": {"lat": 27.5626884302915, "lng": 80.69379133029152}, "southwest": {"lat": 27.5599904697085, "lng": 80.69109336970851}}}, "icon": "https://maps.gstatic.com/mapfiles/place_api/icons/v1/png_71/generic_business-71.png", "icon_background_color": "#7B9EB0", "icon_mask_base_uri": "https://maps.gstatic.com/mapfiles/place_api/icons/v2/generic_pinlet", "name": "Dr Kumar Skin Hair Cosmetic Clinic and Products", "place_id": "ChIJRdzGta_XnjkR5KC05sUxQv8", "plus_code": {"compound_code": "HM6R+HX Sitapur, Uttar Pradesh, India", "global_code": "7MV2HM6R+HX"}, "reference": "ChIJRdzGta_XnjkR5KC05sUxQv8", "scope": "GOOGLE", "types": ["doctor", "health", "point_of_interest", "establishment"], "vicinity": "Sethi Hospital, Sitapur"}, {"business_status": "OPERATIONAL", "geometry": {"location": {"lat": 27.5645906, "lng": 80.6809688}, "viewport": {"northeast": {"lat": 27.5659697302915, "lng": 80.68224618029151}, "southwest": {"lat": 27.56327176970849, "lng": 80.67954821970851}}}, "icon": "https://maps.gstatic.com/mapfiles/place_api/icons/v1/png_71/generic_business-71.png", "icon_background_color": "#7B9EB0", "icon_mask_base_uri": "https://maps.gstatic.com/mapfiles/place_api/icons/v2/generic_pinlet", "name": "Advance ENT &Thyroid Care Clinic", "opening_hours": {"open_now": false}, "photos": [{"height": 956, "html_attributions": ["<a href=\"https://maps.google.com/maps/contrib/100593941425176802146\">Advance ENT &amp;Thyroid Care Clinic</a>"], "photo_reference": "Aap_uEDpoBG-Bna0hLehe_h8N6CSE5icd1mVSBXk2MyfhF43yJdzMJYDBkhsl-kxe5znhzUxAJSIRbe_84lp2UfpZW8NaLfVPCXL-4cI1VmkIMIXM6NStZ6yMW4OEeZxNq9EHDWLxTRYCy80MrnntGwH_Cm81rEpQkbaGNMWGqeihss2yQM", "width": 1699}], "place_id": "ChIJ863zzz3XnjkRv4c3ObzYj34", "plus_code": {"compound_code": "HM7J+R9 Sitapur, Uttar Pradesh, India", "global_code": "7MV2HM7J+R9"}, "rating": 5, "reference": "ChIJ863zzz3XnjkRv4c3ObzYj34", "scope": "GOOGLE", "types": ["doctor", "health", "point_of_interest", "establishment"], "user_ratings_total": 4, "vicinity": "opp. Saigal Ultra Sound, 13, Lohar Bagh, Arya Nagar, Sitapur"}, {"business_status": "OPERATIONAL", "geometry": {"location": {"lat": 27.5645906, "lng": 80.6809688}, "viewport": {"northeast": {"lat": 27.5659697302915, "lng": 80.68224618029151}, "southwest": {"lat": 27.56327176970849, "lng": 80.67954821970851}}}, "icon": "https://maps.gstatic.com/mapfiles/place_api/icons/v1/png_71/generic_business-71.png", "icon_background_color": "#7B9EB0", "icon_mask_base_uri": "https://maps.gstatic.com/mapfiles/place_api/icons/v2/generic_pinlet", "name": "A+hearing aid and speech clinic/best speech therapy center /best hearing aid Centre /Sitapur", "opening_hours": {"open_now": false}, "photos": [{"height": 694, "html_attributions": ["<a href=\"https://maps.google.com/maps/contrib/103689534623464398499\">A+hearing aid and speech clinic/best speech therapy center /best hearing aid Centre /Sitapur</a>"], "photo_reference": "Aap_uECuJ5YkpuWwK7M6_M8sM3gzN0ScQmUpNM_ATTvaoLSTPU_D94u5hG19X0VYnc3Go2QSYpIvEmQN773-3r1zJ6PDNXUrqtuSc1kGoHrt-un_LRWiGRDtpOxHNP_p5SxdxsC1fJm9D7VHNyivTscZbW_xMzLNCRlTr96RXU170cfZHFrA", "width": 575}], "place_id": "ChIJzcsIEYbXnjkRHNco7_1tWXk", "plus_code": {"compound_code": "HM7J+R9 Sitapur, Uttar Pradesh, India", "global_code": "7MV2HM7J+R9"}, "rating": 5, "reference": "ChIJzcsIEYbXnjkRHNco7_1tWXk", "scope": "GOOGLE", "types": ["doctor", "health", "point_of_interest", "store", "establishment"], "user_ratings_total": 5, "vicinity": "near Dr dhawan, front of tirupati medical stores, 17, Lohar Bagh, Arya Nagar, Sitapur"}, {"business_status": "OPERATIONAL", "geometry": {"location": {"lat": 27.56591, "lng": 80.68189}, "viewport": {"northeast": {"lat": 27.56721828029151, "lng": 80.68312878029151}, "southwest": {"lat": 27.5645203197085, "lng": 80.68043081970849}}}, "icon": "https://maps.gstatic.com/mapfiles/place_api/icons/v1/png_71/generic_business-71.png", "icon_background_color": "#7B9EB0", "icon_mask_base_uri": "https://maps.gstatic.com/mapfiles/place_api/icons/v2/generic_pinlet", "name": "Dr Lal PathLabs", "opening_hours": {"open_now": false}, "place_id": "ChIJVaMfeU7XnjkRFcdFycdmLtU", "plus_code": {"compound_code": "HM8J+9Q Sitapur, Uttar Pradesh, India", "global_code": "7MV2HM8J+9Q"}, "rating": 4.5, "reference": "ChIJVaMfeU7XnjkRFcdFycdmLtU", "scope": "GOOGLE", "types": ["doctor", "health", "point_of_interest", "establishment"], "user_ratings_total": 2, "vicinity": "near CHASKA RESTURANT, HALWAPUR HOUSE, near CHASKA RESTURANT, Station Road, Sitapur"}, {"business_status": "OPERATIONAL", "geometry": {"location": {"lat": 27.5648258, "lng": 80.6808834}, "viewport": {"northeast": {"lat": 27.5661815802915, "lng": 80.6822349302915}, "southwest": {"lat": 27.5634836197085, "lng": 80.6795369697085}}}, "icon": "https://maps.gstatic.com/mapfiles/place_api/icons/v1/png_71/generic_business-71.png", "icon_background_color": "#7B9EB0", "icon_mask_base_uri": "https://maps.gstatic.com/mapfiles/place_api/icons/v2/generic_pinlet", "name": "Dr. Shanu Kumar Verma", "opening_hours": {"open_now": false}, "photos": [{"height": 809, "html_attributions": ["<a href=\"https://maps.google.com/maps/contrib/109971577790316738171\">Dr. S. K. VERMA</a>"], "photo_reference": "Aap_uEAG8UE_b1XNFi47sG3GG2nRHJn-6b8ESA9uQuAO2xSwOMc_w-02_OiPnelunAL2QgQRSHawGma_L4W0IsWRIxgnjZhQoFuT3TtWk78gyH7ZV829djyowg3OTw45wU2ATXnijqk8G77RuYMV12NECAnPL2CSxvhcQzy74VnIw6X3SWxw", "width": 1440}], "place_id": "ChIJH5N1vfTVnjkRDZ0trixx-1M", "plus_code": {"compound_code": "HM7J+W9 Sitapur, Uttar Pradesh, India", "global_code": "7MV2HM7J+W9"}, "rating": 5, "reference": "ChIJH5N1vfTVnjkRDZ0trixx-1M", "scope": "GOOGLE", "types": ["doctor", "health", "point_of_interest", "establishment"], "user_ratings_total": 10, "vicinity": "in front of Saigal Ultrasound, Dr. Shanu Kumar Verma SUGAM HEALTHCARE CENTRE, in front of Saigal Ultrasound, Lohar Bagh, Sitapur"}, {"business_status": "OPERATIONAL", "geometry": {"location": {"lat": 27.5659029, "lng": 80.6810876}, "viewport": {"northeast": {"lat": 27.5672441802915, "lng": 80.6824923802915}, "southwest": {"lat": 27.5645462197085, "lng": 80.6797944197085}}}, "icon": "https://maps.gstatic.com/mapfiles/place_api/icons/v1/png_71/generic_business-71.png", "icon_background_color": "#7B9EB0", "icon_mask_base_uri": "https://maps.gstatic.com/mapfiles/place_api/icons/v2/generic_pinlet", "name": "Mahavar Clinic", "opening_hours": {"open_now": false}, "photos": [{"height": 1080, "html_attributions": ["<a href=\"https://maps.google.com/maps/contrib/103554061943814162340\">Arulraj Swamy Chettiar</a>"], "photo_reference": "Aap_uECCy0DL6EIPq3prEmEviqC90B6wvithDJfEtWBSnOWAFv9hlvhJllVZhqOzCXe8qD7jQFj_TWZNyIpjqp8Gj7WkJX0Rxmy5u-is5Zgc7GwzcPeL3c8vfi7ruQ1rQBilQIydxL0xxs_37o9qO2FfnfuimoM_77gbiHoKdj8I-kdg2xy7", "width": 1920}], "place_id": "ChIJEU0PlVXWnjkRf0cpQZhK3I4", "plus_code": {"compound_code": "HM8J+9C Sitapur, Uttar Pradesh, India", "global_code": "7MV2HM8J+9C"}, "rating": 4.2, "reference": "ChIJEU0PlVXWnjkRf0cpQZhK3I4", "scope": "GOOGLE", "types": ["doctor", "health", "point_of_interest", "establishment"], "user_ratings_total": 26, "vicinity": "62, Sitapur Road, Tompson Ganj, Arya Nagar, Sitapur"}, {"business_status": "OPERATIONAL", "geometry": {"location": {"lat": 27.56703499999999, "lng": 80.68141039999999}, "viewport": {"northeast": {"lat": 27.5683855302915, "lng": 80.68274858029152}, "southwest": {"lat": 27.56568756970849, "lng": 80.6800506197085}}}, "icon": "https://maps.gstatic.com/mapfiles/place_api/icons/v1/png_71/generic_business-71.png", "icon_background_color": "#7B9EB0", "icon_mask_base_uri": "https://maps.gstatic.com/mapfiles/place_api/icons/v2/generic_pinlet", "name": "Dr.Rajkishor Tondon", "opening_hours": {"open_now": false}, "photos": [{"height": 1080, "html_attributions": ["<a href=\"https://maps.google.com/maps/contrib/113663060590838686541\">Vishal Gupta</a>"], "photo_reference": "Aap_uED1cv5ReoRnxoejjSPkKJruOGzYS8xejtiNPQFf79hpYBXH7ROXVfZBmiOkBc6yOV-uJ598ZovOVNMGpG4vBr2Pn4yMSGl6OATnOsPKiBdqZbMaiQ-U8RiuXa9c9QvpJ_SpDwU7_FoXvadf3yRIG4vg0mljDHNccqQGBHtHOfUJwLLV", "width": 1920}], "place_id": "ChIJMS9s3SfXnjkRRv6PVw4a56o", "plus_code": {"compound_code": "HM8J+RH Sitapur, Uttar Pradesh, India", "global_code": "7MV2HM8J+RH"}, "rating": 5, "reference": "ChIJMS9s3SfXnjkRRv6PVw4a56o", "scope": "GOOGLE", "types": ["doctor", "health", "point_of_interest", "establishment"], "user_ratings_total": 3, "vicinity": "Unnamed Road, Sitapur"}, {"business_status": "OPERATIONAL", "geometry": {"location": {"lat": 27.5680941, "lng": 80.6814488}, "viewport": {"northeast": {"lat": 27.5694427302915, "lng": 80.68281048029152}, "southwest": {"lat": 27.5667447697085, "lng": 80.6801125197085}}}, "icon": "https://maps.gstatic.com/mapfiles/place_api/icons/v1/png_71/generic_business-71.png", "icon_background_color": "#7B9EB0", "icon_mask_base_uri": "https://maps.gstatic.com/mapfiles/place_api/icons/v2/generic_pinlet", "name": "Dr Jilani", "opening_hours": {"open_now": false}, "photos": [{"height": 357, "html_attributions": ["<a href=\"https://maps.google.com/maps/contrib/107868219329428389763\">Dr Jilani</a>"], "photo_reference": "Aap_uEB06F1xiGYtfRznP9YSV20QjYZ2e1cmMj8jCtXlqpetj7zoWGiaR7NVYz7ipq1HOnbXNTQjkOqQ0Zfb_E0L3LJFxhhu_qLFH8qk6bkE5jkSv6NaUlX1PVoW37EMTqH5TmOS_AilrKctrLvh5TCgmfAMsu6ySeXwAOM533y1TQOeCPUe", "width": 636}], "place_id": "ChIJSYaMvjHXnjkRu-PutVpfDeE", "plus_code": {"compound_code": "HM9J+6H Sitapur, Uttar Pradesh, India", "global_code": "7MV2HM9J+6H"}, "rating": 5, "reference": "ChIJSYaMvjHXnjkRu-PutVpfDeE", "scope": "GOOGLE", "types": ["doctor", "health", "point_of_interest", "establishment"], "user_ratings_total": 1, "vicinity": "Sitapur Medical Hall Greekganj"}, {"business_status": "OPERATIONAL", "geometry": {"location": {"lat": 27.5692459, "lng": 80.6814557}, "viewport": {"northeast": {"lat": 27.5705955802915, "lng": 80.6828175302915}, "southwest": {"lat": 27.5678976197085, "lng": 80.6801195697085}}}, "icon": "https://maps.gstatic.com/mapfiles/place_api/icons/v1/png_71/generic_business-71.png", "icon_background_color": "#7B9EB0", "icon_mask_base_uri": "https://maps.gstatic.com/mapfiles/place_api/icons/v2/generic_pinlet", "name": "Dr. LN Agarwal\u2019s clinic", "opening_hours": {"open_now": false}, "place_id": "ChIJ9YLeWjjXnjkRmT8ovU9SlTk", "plus_code": {"compound_code": "HM9J+MH Sitapur, Uttar Pradesh, India", "global_code": "7MV2HM9J+MH"}, "reference": "ChIJ9YLeWjjXnjkRmT8ovU9SlTk", "scope": "GOOGLE", "types": ["doctor", "health", "point_of_interest", "establishment"], "vicinity": "near Ghantaghar, 435/A, opposite Chandra bakers, Greek Ganj, near Ghantaghar, Sitapur"}, {"business_status": "OPERATIONAL", "geometry": {"location": {"lat": 27.56606009999999, "lng": 80.6777715}, "viewport": {"northeast": {"lat": 27.5674118802915, "lng": 80.67912433029151}, "southwest": {"lat": 27.5647139197085, "lng": 80.6764263697085}}}, "icon": "https://maps.gstatic.com/mapfiles/place_api/icons/v1/png_71/generic_business-71.png", "icon_background_color": "#7B9EB0", "icon_mask_base_uri": "https://maps.gstatic.com/mapfiles/place_api/icons/v2/generic_pinlet", "name": "Jha Dentist", "place_id": "ChIJW_XpqBHXnjkRSeSNwGp201Y", "plus_code": {"compound_code": "HM8H+C4 Sitapur, Uttar Pradesh, India", "global_code": "7MV2HM8H+C4"}, "reference": "ChIJW_XpqBHXnjkRSeSNwGp201Y", "scope": "GOOGLE", "types": ["doctor", "health", "point_of_interest", "establishment"], "vicinity": "Civil Court, Sanjay Nagar, Sitapur"}, {"business_status": "OPERATIONAL", "geometry": {"location": {"lat": 27.5687787, "lng": 80.6941114}, "viewport": {"northeast": {"lat": 27.5701273802915, "lng": 80.69537708029151}, "southwest": {"lat": 27.5674294197085, "lng": 80.6926791197085}}}, "icon": "https://maps.gstatic.com/mapfiles/place_api/icons/v1/png_71/generic_business-71.png", "icon_background_color": "#7B9EB0", "icon_mask_base_uri": "https://maps.gstatic.com/mapfiles/place_api/icons/v2/generic_pinlet", "name": "Parwati Clinic Dr Amit Kashyap", "opening_hours": {"open_now": false}, "photos": [{"height": 1080, "html_attributions": ["<a href=\"https://maps.google.com/maps/contrib/114712768245950491924\">Dharmesh Kumar</a>"], "photo_reference": "Aap_uEAI99qsr27dKAnNnkwmlQnU1qOr1Al8wF80pPSHKsj9cq1qWbVfkJfXLeN1hVa8QT6W8InpBFOrZ-9GzDIyutOALKaFusimMFEnHbADnMnZ_3ZDdblkYXGtj7xC7u7QvermuqZV6SmezHIrjo4Gup1iL32nQojcR7yS6Eh4fkZG6b-j", "width": 1920}], "place_id": "ChIJwxyu1l7WnjkRSFVzeF1CxKI", "plus_code": {"compound_code": "HM9V+GJ Sitapur, Uttar Pradesh, India", "global_code": "7MV2HM9V+GJ"}, "rating": 4, "reference": "ChIJwxyu1l7WnjkRSFVzeF1CxKI", "scope": "GOOGLE", "types": ["doctor", "health", "point_of_interest", "establishment"], "user_ratings_total": 4, "vicinity": "Unnamed Road, A.P.O, A.P.O Colony, Sitapur"}, {"business_status": "OPERATIONAL", "geometry": {"location": {"lat": 27.5651849, "lng": 80.6769346}, "viewport": {"northeast": {"lat": 27.5665428802915, "lng": 80.6782676802915}, "southwest": {"lat": 27.5638449197085, "lng": 80.67556971970849}}}, "icon": "https://maps.gstatic.com/mapfiles/place_api/icons/v1/png_71/generic_business-71.png", "icon_background_color": "#7B9EB0", "icon_mask_base_uri": "https://maps.gstatic.com/mapfiles/place_api/icons/v2/generic_pinlet", "name": "Dr. Anupam Jaiswal - Darsh Neuro Care", "opening_hours": {"open_now": false}, "place_id": "ChIJKxrI6iPXnjkRT9vDAOeSev0", "plus_code": {"compound_code": "HM8G+3Q Sitapur, Uttar Pradesh, India", "global_code": "7MV2HM8G+3Q"}, "rating": 5, "reference": "ChIJKxrI6iPXnjkRT9vDAOeSev0", "scope": "GOOGLE", "types": ["doctor", "health", "point_of_interest", "establishment"], "user_ratings_total": 1, "vicinity": "Dr. Amitabh Singh Nursing Home, Civil Lines, Sitapur"}, {"business_status": "OPERATIONAL", "geometry": {"location": {"lat": 27.5561324, "lng": 80.6953844}, "viewport": {"northeast": {"lat": 27.5574851302915, "lng": 80.69673568029151}, "southwest": {"lat": 27.5547871697085, "lng": 80.6940377197085}}}, "icon": "https://maps.gstatic.com/mapfiles/place_api/icons/v1/png_71/generic_business-71.png", "icon_background_color": "#7B9EB0", "icon_mask_base_uri": "https://maps.gstatic.com/mapfiles/place_api/icons/v2/generic_pinlet", "name": "\u0927\u094d\u092f\u093e\u0928\u092e\u094d \u092f\u094b\u0917 \u090f\u0935\u0902 \u092a\u094d\u0930\u093e\u0915\u0943\u0924\u093f\u0915 \u091a\u093f\u0915\u093f\u0924\u094d\u0938\u093e \u0915\u0947\u0902\u0926\u094d\u0930", "photos": [{"height": 2304, "html_attributions": ["<a href=\"https://maps.google.com/maps/contrib/103192683128526190207\">king of kings</a>"], "photo_reference": "Aap_uEDxcEuXRKlRz2wTQH48eivc2um1SFabiaSZYFbKTK9LKRuavalrqyexGXJ1pMKajJGNGSE4GBJcvWgPG2I6OPd1JG1JKsXkVLLJsJIBWcT_rEqImEjgaVBB322cN2-Kq9VAwOC87-LDU9TZBbhrKQLiKyyO_ILTLhndIdbsMVzSZy4W", "width": 4096}], "place_id": "ChIJrTNZ9rnXnjkR1ptq6Fjb4Fg", "plus_code": {"compound_code": "HM4W+F5 Sitapur, Uttar Pradesh, India", "global_code": "7MV2HM4W+F5"}, "reference": "ChIJrTNZ9rnXnjkR1ptq6Fjb4Fg", "scope": "GOOGLE", "types": ["doctor", "health", "point_of_interest", "establishment"], "vicinity": "A-Block Shopping Complex, Avas Vikas Colony, Sitapur"}, {"business_status": "OPERATIONAL", "geometry": {"location": {"lat": 27.561707, "lng": 80.6762195}, "viewport": {"northeast": {"lat": 27.56303733029151, "lng": 80.67760153029151}, "southwest": {"lat": 27.5603393697085, "lng": 80.6749035697085}}}, "icon": "https://maps.gstatic.com/mapfiles/place_api/icons/v1/png_71/generic_business-71.png", "icon_background_color": "#7B9EB0", "icon_mask_base_uri": "https://maps.gstatic.com/mapfiles/place_api/icons/v2/generic_pinlet", "name": "Divine physiotherapy and rehabilitation clinic,sitapur", "opening_hours": {"open_now": false}, "photos": [{"height": 464, "html_attributions": ["<a href=\"https://maps.google.com/maps/contrib/113478827425629423912\">Divine physiotherapy and rehabilitation clinic,sitapur</a>"], "photo_reference": "Aap_uECa8XlHKaT5MSgV_dvdYHNm3IJt_mYsJ6gnCXjUCqySjOmCaG0ZKTuVHWuR9v503XlkKccEMTJ9Z3Yb9MXC23L6NUxgP5MB-dJ1cTthrJpl4uT4NxX079GO7cGADCrEvUH3qxfpx5pC9QWk1YeI-KiYjYmcCVNDGcU3r7irCTXVXvrb", "width": 640}], "place_id": "ChIJR7q5IjPXnjkRsw8Y9IOJ3ro", "plus_code": {"compound_code": "HM6G+MF Sitapur, Uttar Pradesh, India", "global_code": "7MV2HM6G+MF"}, "rating": 5, "reference": "ChIJR7q5IjPXnjkRsw8Y9IOJ3ro", "scope": "GOOGLE", "types": ["doctor", "health", "point_of_interest", "establishment"], "user_ratings_total": 22, "vicinity": "near income tax office, Divine hospital, near income tax office, Eye hospital road, Sanjaynagar, Sitapur"}, {"business_status": "OPERATIONAL", "geometry": {"location": {"lat": 27.56368519999999, "lng": 80.6751939}, "viewport": {"northeast": {"lat": 27.5650023802915, "lng": 80.6765643302915}, "southwest": {"lat": 27.56230441970849, "lng": 80.67386636970849}}}, "icon": "https://maps.gstatic.com/mapfiles/place_api/icons/v1/png_71/generic_business-71.png", "icon_background_color": "#7B9EB0", "icon_mask_base_uri": "https://maps.gstatic.com/mapfiles/place_api/icons/v2/generic_pinlet", "name": "Dr. O N verma", "photos": [{"height": 1881, "html_attributions": ["<a href=\"https://maps.google.com/maps/contrib/113038331921207186006\">amit shukla</a>"], "photo_reference": "Aap_uECwYi1cWTlTYYer_7bIrZE7ZcW6Pj9YlzgebxLFvNWOBX06cTNP7C6SFD-vg3CS4P-Jei5dnufMIsUwVpCwQuKVkxIw22FwzYIyV7IA8tM0HGPrpEuTMptgdhumepjHQStRVN4qseYNrDqsAeflIzpHMA1MC3nf7gTzLoOBvSp5mRSR", "width": 3000}], "place_id": "ChIJJXt-8ELXnjkRgTIMSozc27A", "plus_code": {"compound_code": "HM7G+F3 Sitapur, Uttar Pradesh, India", "global_code": "7MV2HM7G+F3"}, "rating": 4.8, "reference": "ChIJJXt-8ELXnjkRgTIMSozc27A", "scope": "GOOGLE", "types": ["doctor", "health", "point_of_interest", "establishment"], "user_ratings_total": 5, "vicinity": "near Dr. Amitabh singh, 575, Civil Lines, Prem Nagar, Sitapur"}, {"business_status": "OPERATIONAL", "geometry": {"location": {"lat": 27.56369059999999, "lng": 80.6751917}, "viewport": {"northeast": {"lat": 27.5650523302915, "lng": 80.6765323302915}, "southwest": {"lat": 27.5623543697085, "lng": 80.67383436970847}}}, "icon": "https://maps.gstatic.com/mapfiles/place_api/icons/v1/png_71/generic_business-71.png", "icon_background_color": "#7B9EB0", "icon_mask_base_uri": "https://maps.gstatic.com/mapfiles/place_api/icons/v2/generic_pinlet", "name": "Dr Pankaj Awasthi", "place_id": "ChIJW48IswzXnjkR9CoKLY0SwOY", "plus_code": {"compound_code": "HM7G+F3 Sitapur, Uttar Pradesh, India", "global_code": "7MV2HM7G+F3"}, "rating": 1, "reference": "ChIJW48IswzXnjkR9CoKLY0SwOY", "scope": "GOOGLE", "types": ["doctor", "health", "point_of_interest", "establishment"], "user_ratings_total": 1, "vicinity": "553, Civil Lines, Prem Nagar, Sitapur"}], "status": "OK"}