{"html_attributions": [], "results": [{"business_status": "OPERATIONAL", "geometry": {"location": {"lat": 27.5243982, "lng": 80.7571976}, "viewport": {"northeast": {"lat": 27.52573728029149, "lng": 80.75858373029149}, "southwest": {"lat": 27.52303931970849, "lng": 80.75588576970848}}}, "icon": "https://maps.gstatic.com/mapfiles/place_api/icons/v1/png_71/generic_business-71.png", "icon_background_color": "#7B9EB0", "icon_mask_base_uri": "https://maps.gstatic.com/mapfiles/place_api/icons/v2/generic_pinlet", "name": "Zahid mansion", "place_id": "ChIJfX29Cz_VnjkR8sWnba2M5pA", "plus_code": {"compound_code": "GQF4+QV Khairabad, Uttar Pradesh, India", "global_code": "7MV2GQF4+QV"}, "reference": "ChIJfX29Cz_VnjkR8sWnba2M5pA", "scope": "GOOGLE", "types": ["doctor", "health", "point_of_interest", "establishment"], "vicinity": "Bazdari tola, Khairabad"}, {"business_status": "OPERATIONAL", "geometry": {"location": {"lat": 27.5261027, "lng": 80.7567175}, "viewport": {"northeast": {"lat": 27.5274307302915, "lng": 80.75810308029152}, "southwest": {"lat": 27.5247327697085, "lng": 80.75540511970851}}}, "icon": "https://maps.gstatic.com/mapfiles/place_api/icons/v1/png_71/generic_business-71.png", "icon_background_color": "#7B9EB0", "icon_mask_base_uri": "https://maps.gstatic.com/mapfiles/place_api/icons/v2/generic_pinlet", "name": "Dr. Kapoor Clinic/Hospital", "place_id": "ChIJNUu8snnUnjkREdfB_85TW4s", "plus_code": {"compound_code": "GQG4+CM Khairabad, Uttar Pradesh, India", "global_code": "7MV2GQG4+CM"}, "rating": 3, "reference": "ChIJNUu8snnUnjkREdfB_85TW4s", "scope": "GOOGLE", "types": ["doctor", "health", "point_of_interest", "establishment"], "user_ratings_total": 1, "vicinity": "Purani Bazaar, Post Office Road, Khairabad"}, {"business_status": "OPERATIONAL", "geometry": {"location": {"lat": 27.5202843, "lng": 80.7531374}, "viewport": {"northeast": {"lat": 27.5216455302915, "lng": 80.7544430302915}, "southwest": {"lat": 27.51894756970849, "lng": 80.75174506970849}}}, "icon": "https://maps.gstatic.com/mapfiles/place_api/icons/v1/png_71/generic_business-71.png", "icon_background_color": "#7B9EB0", "icon_mask_base_uri": "https://maps.gstatic.com/mapfiles/place_api/icons/v2/generic_pinlet", "name": "Glorious public school khairabad", "place_id": "ChIJnweIXojTnjkRudpx7fJx9cg", "plus_code": {"compound_code": "GQC3+47 Khairabad, Uttar Pradesh, India", "global_code": "7MV2GQC3+47"}, "reference": "ChIJnweIXojTnjkRudpx7fJx9cg", "scope": "GOOGLE", "types": ["doctor", "health", "point_of_interest", "establishment"], "vicinity": "Sheikh Sarain, Joshitola, Khairabad"}], "status": "OK"}