{"html_attributions": [], "results": [{"business_status": "OPERATIONAL", "geometry": {"location": {"lat": 23.667285, "lng": 86.0670626}, "viewport": {"northeast": {"lat": 23.6686326802915, "lng": 86.06843603029151}, "southwest": {"lat": 23.6659347197085, "lng": 86.06573806970849}}}, "icon": "https://maps.gstatic.com/mapfiles/place_api/icons/v1/png_71/shopping-71.png", "icon_background_color": "#4B96F3", "icon_mask_base_uri": "https://maps.gstatic.com/mapfiles/place_api/icons/v2/shoppingcart_pinlet", "name": "Gopal Store(Kartik Store) \u0917\u094b\u092a\u093e\u0932 \u0938\u094d\u091f\u094b\u0930", "opening_hours": {"open_now": true}, "photos": [{"height": 585, "html_attributions": ["<a href=\"https://maps.google.com/maps/contrib/101094010592408723298\">krishna kumar</a>"], "photo_reference": "Aap_uEDuBBjK3cLJBySORwLNu5e6JiS0GQewOJHJqe1hxoN0KJ5472ps3sfLES2Easyj2asigDfldG0xp5YDmB-aO5XUuy2iSFX8o21m1KLqGiozLUTadxywuiYhG_6YIxSjUqvywD8j2Vs5gSrtFs7SGYRqsD22E_m6EIqZCkj2bx8Di5dk", "width": 1040}], "place_id": "ChIJM3NK-Tc99DkRGnveGZ0yJ6A", "plus_code": {"compound_code": "M388+WR Bokaro Steel City, Jharkhand, India", "global_code": "7MM8M388+WR"}, "rating": 4.8, "reference": "ChIJM3NK-Tc99DkRGnveGZ0yJ6A", "scope": "GOOGLE", "types": ["supermarket", "grocery_or_supermarket", "food", "point_of_interest", "store", "establishment"], "user_ratings_total": 5, "vicinity": "Govind Market, Balidih, Bokaro Steel City"}, {"business_status": "OPERATIONAL", "geometry": {"location": {"lat": 23.6641516, "lng": 86.0744948}, "viewport": {"northeast": {"lat": 23.6655005802915, "lng": 86.07584378029149}, "southwest": {"lat": 23.6628026197085, "lng": 86.07314581970849}}}, "icon": "https://maps.gstatic.com/mapfiles/place_api/icons/v1/png_71/shopping-71.png", "icon_background_color": "#4B96F3", "icon_mask_base_uri": "https://maps.gstatic.com/mapfiles/place_api/icons/v2/shoppingcart_pinlet", "name": "Nourish poultry & hatchery ltd madhupur -02", "place_id": "ChIJUb9h3m499DkRiWFg16iem-w", "plus_code": {"compound_code": "M37F+MQ Bokaro Steel City, Jharkhand, India", "global_code": "7MM8M37F+MQ"}, "reference": "ChIJUb9h3m499DkRiWFg16iem-w", "scope": "GOOGLE", "types": ["supermarket", "grocery_or_supermarket", "food", "point_of_interest", "store", "establishment"], "vicinity": "Biada Road, Railway Colony, Bokaro Steel City"}, {"business_status": "OPERATIONAL", "geometry": {"location": {"lat": 23.6634258, "lng": 86.0753763}, "viewport": {"northeast": {"lat": 23.6648158302915, "lng": 86.0767369802915}, "southwest": {"lat": 23.6621178697085, "lng": 86.0740390197085}}}, "icon": "https://maps.gstatic.com/mapfiles/place_api/icons/v1/png_71/shopping-71.png", "icon_background_color": "#4B96F3", "icon_mask_base_uri": "https://maps.gstatic.com/mapfiles/place_api/icons/v2/shoppingcart_pinlet", "name": "gupta sound dj", "place_id": "ChIJx-alrd889DkR6SQYf2PhjhM", "plus_code": {"compound_code": "M37G+95 Kurmidih, Jharkhand, India", "global_code": "7MM8M37G+95"}, "rating": 5, "reference": "ChIJx-alrd889DkR6SQYf2PhjhM", "scope": "GOOGLE", "types": ["supermarket", "grocery_or_supermarket", "food", "point_of_interest", "store", "establishment"], "user_ratings_total": 2, "vicinity": "Krishi Bazar Road, Satyam Nagar, Kurmidih"}, {"business_status": "OPERATIONAL", "geometry": {"location": {"lat": 23.6689837, "lng": 86.0532758}, "viewport": {"northeast": {"lat": 23.67030243029151, "lng": 86.0546078802915}, "southwest": {"lat": 23.6676044697085, "lng": 86.05190991970849}}}, "icon": "https://maps.gstatic.com/mapfiles/place_api/icons/v1/png_71/shopping-71.png", "icon_background_color": "#4B96F3", "icon_mask_base_uri": "https://maps.gstatic.com/mapfiles/place_api/icons/v2/shoppingcart_pinlet", "name": "Payal Sringar Vatika", "opening_hours": {"open_now": false}, "place_id": "ChIJ1-SDxxU99DkRl_wN9u1Bh34", "reference": "ChIJ1-SDxxU99DkRl_wN9u1Bh34", "scope": "GOOGLE", "types": ["supermarket", "grocery_or_supermarket", "food", "point_of_interest", "store", "establishment"], "vicinity": "M393+H8R, Tanr Balidih"}, {"business_status": "OPERATIONAL", "geometry": {"location": {"lat": 23.6631955, "lng": 86.0775848}, "viewport": {"northeast": {"lat": 23.6645667302915, "lng": 86.07893733029151}, "southwest": {"lat": 23.6618687697085, "lng": 86.07623936970849}}}, "icon": "https://maps.gstatic.com/mapfiles/place_api/icons/v1/png_71/shopping-71.png", "icon_background_color": "#4B96F3", "icon_mask_base_uri": "https://maps.gstatic.com/mapfiles/place_api/icons/v2/shoppingcart_pinlet", "name": "Radhika Ladies Corner", "opening_hours": {"open_now": true}, "place_id": "ChIJi-fyOIk99DkRNPJsfJ9HpU0", "plus_code": {"compound_code": "M37H+72 Bokaro Steel City, Jharkhand, India", "global_code": "7MM8M37H+72"}, "rating": 4, "reference": "ChIJi-fyOIk99DkRNPJsfJ9HpU0", "scope": "GOOGLE", "types": ["supermarket", "grocery_or_supermarket", "food", "point_of_interest", "store", "establishment"], "user_ratings_total": 3, "vicinity": "Biada Road, Balidih, Bokaro Steel City"}], "status": "OK"}