{"html_attributions": [], "results": [{"business_status": "OPERATIONAL", "geometry": {"location": {"lat": 23.81536950000001, "lng": 86.1236198}, "viewport": {"northeast": {"lat": 23.8167161802915, "lng": 86.12496913029152}, "southwest": {"lat": 23.8140182197085, "lng": 86.1222711697085}}}, "icon": "https://maps.gstatic.com/mapfiles/place_api/icons/v1/png_71/shopping-71.png", "icon_background_color": "#4B96F3", "icon_mask_base_uri": "https://maps.gstatic.com/mapfiles/place_api/icons/v2/shoppingcart_pinlet", "name": "Sunidhi Bajaj Telo", "opening_hours": {"open_now": false}, "photos": [{"height": 4160, "html_attributions": ["<a href=\"https://maps.google.com/maps/contrib/110168909279508759099\">Basant Kumar</a>"], "photo_reference": "Aap_uEBLWN6ym5u2s2XprflsxMdoSWpC2lIZxQQhFTgd4WnRVJQK2mEjtUql9Ga0B1NLi5NVW6HjO8-Oz52UUjbgc31m7E2RT_grgw4u-dElxWDLMF0nkunbIWpehcrrJe-fmhqkEPVUo77UH7J38pGagin7ffxxw6_aJgJ0TxURfWYZNZNH", "width": 3120}], "place_id": "ChIJvb2FV-cb9DkRJYVDsvmSgk8", "rating": 4, "reference": "ChIJvb2FV-cb9DkRJYVDsvmSgk8", "scope": "GOOGLE", "types": ["supermarket", "grocery_or_supermarket", "food", "point_of_interest", "store", "establishment"], "user_ratings_total": 2, "vicinity": "R48F+4CX, Telo"}, {"business_status": "OPERATIONAL", "geometry": {"location": {"lat": 23.8174405, "lng": 86.1255609}, "viewport": {"northeast": {"lat": 23.8188022302915, "lng": 86.12688358029149}, "southwest": {"lat": 23.8161042697085, "lng": 86.12418561970848}}}, "icon": "https://maps.gstatic.com/mapfiles/place_api/icons/v1/png_71/shopping-71.png", "icon_background_color": "#4B96F3", "icon_mask_base_uri": "https://maps.gstatic.com/mapfiles/place_api/icons/v2/shoppingcart_pinlet", "name": "Mahadev Mandal", "place_id": "ChIJA4fLsfwb9DkRKugmFwp5hP4", "reference": "ChIJA4fLsfwb9DkRKugmFwp5hP4", "scope": "GOOGLE", "types": ["supermarket", "grocery_or_supermarket", "food", "point_of_interest", "store", "establishment"], "vicinity": "R48G+X6F, Telo"}, {"business_status": "OPERATIONAL", "geometry": {"location": {"lat": 23.8180632, "lng": 86.1251887}, "viewport": {"northeast": {"lat": 23.8193648802915, "lng": 86.1264982302915}, "southwest": {"lat": 23.8166669197085, "lng": 86.1238002697085}}}, "icon": "https://maps.gstatic.com/mapfiles/place_api/icons/v1/png_71/shopping-71.png", "icon_background_color": "#4B96F3", "icon_mask_base_uri": "https://maps.gstatic.com/mapfiles/place_api/icons/v2/shoppingcart_pinlet", "name": "laxmi Poultry/Maa Tara herbal India", "opening_hours": {"open_now": true}, "photos": [{"height": 774, "html_attributions": ["<a href=\"https://maps.google.com/maps/contrib/109711731698207583181\">Vicky kumar varma</a>"], "photo_reference": "Aap_uEDmq3OhC6uVvYhv9RtsdEQejP5mxaGGC8e5q5yFbsYHnrIc38a29WnNTNgzMQu5qAJk5q0UI4A-flxomrnUlVi9yo8o7Jhsnag5FtboPBhOMd8HHbP2oJU9AczqzOHRCOzmAcPfoI-iuUK8tw9KqCkdE19XN9SL-R9oI6ZPZyVIxd8C", "width": 1032}], "place_id": "ChIJz1Q3bi8a9DkRYXUGwO58GoA", "rating": 4.2, "reference": "ChIJz1Q3bi8a9DkRYXUGwO58GoA", "scope": "GOOGLE", "types": ["supermarket", "grocery_or_supermarket", "food", "point_of_interest", "store", "establishment"], "user_ratings_total": 17, "vicinity": "R49G+63G, Telo"}, {"business_status": "OPERATIONAL", "geometry": {"location": {"lat": 23.8187432, "lng": 86.1247813}, "viewport": {"northeast": {"lat": 23.82005738029151, "lng": 86.1261518802915}, "southwest": {"lat": 23.8173594197085, "lng": 86.1234539197085}}}, "icon": "https://maps.gstatic.com/mapfiles/place_api/icons/v1/png_71/shopping-71.png", "icon_background_color": "#4B96F3", "icon_mask_base_uri": "https://maps.gstatic.com/mapfiles/place_api/icons/v2/shoppingcart_pinlet", "name": "Mahto Cement Store", "opening_hours": {"open_now": true}, "photos": [{"height": 2352, "html_attributions": ["<a href=\"https://maps.google.com/maps/contrib/106128278397050478734\">Vijay Kumar</a>"], "photo_reference": "Aap_uED8tzZZdaBxw5xodQPgbko9xK_HfV4hEm1UZOom1x-Z9rP-Yi151ZoVLFyuZba1sfjOXS4JiFQ4AzWW405CEgXOWA10LvWjnB7Y5ylpFSTnOkPIm5o2FyqR7tM3RgonqevGSw8s-ng6IHrKsbzgjT1r0ARzR1A1007p1MP6OXOOUtxW", "width": 4160}], "place_id": "ChIJFx5UeC8a9DkRodaA6vO7y1k", "rating": 4.6, "reference": "ChIJFx5UeC8a9DkRodaA6vO7y1k", "scope": "GOOGLE", "types": ["supermarket", "grocery_or_supermarket", "food", "point_of_interest", "store", "establishment"], "user_ratings_total": 9, "vicinity": "R49F+FWV, Telo"}], "status": "OK"}