{"html_attributions": [], "results": [{"business_status": "OPERATIONAL", "geometry": {"location": {"lat": 23.7076964, "lng": 86.3952898}, "viewport": {"northeast": {"lat": 23.7090593802915, "lng": 86.39664603029152}, "southwest": {"lat": 23.7063614197085, "lng": 86.3939480697085}}}, "icon": "https://maps.gstatic.com/mapfiles/place_api/icons/v1/png_71/shopping-71.png", "icon_background_color": "#4B96F3", "icon_mask_base_uri": "https://maps.gstatic.com/mapfiles/place_api/icons/v2/shoppingcart_pinlet", "name": "J.K.Krana Store", "photos": [{"height": 1080, "html_attributions": ["<a href=\"https://maps.google.com/maps/contrib/109032450790764808504\">Rana Pratap singh</a>"], "photo_reference": "Aap_uEAUDXPMAThgS_jUptG7DP1w42-bBeFuoV_BFT7Y7LIA4l_R5oT9r_RecRUYlPPf_6hORsk6I6sQ43-ben6UzaoTGltSeC2dUu0wVuPW1GHqUdiy4Qpwk961x7P2tRsl41zUmrOCZ4RpzS3tUIdERa1lZQ2pbLcEADIzuM2qvBJaj7Lv", "width": 1920}], "place_id": "ChIJm0dRu22Y9jkRfyEJ65ENUs0", "rating": 3.7, "reference": "ChIJm0dRu22Y9jkRfyEJ65ENUs0", "scope": "GOOGLE", "types": ["supermarket", "grocery_or_supermarket", "food", "point_of_interest", "store", "establishment"], "user_ratings_total": 6, "vicinity": "P95W+34F, Jamadoba"}, {"business_status": "OPERATIONAL", "geometry": {"location": {"lat": 23.7093022, "lng": 86.3974223}, "viewport": {"northeast": {"lat": 23.7106567802915, "lng": 86.3987874802915}, "southwest": {"lat": 23.7079588197085, "lng": 86.39608951970848}}}, "icon": "https://maps.gstatic.com/mapfiles/place_api/icons/v1/png_71/shopping-71.png", "icon_background_color": "#4B96F3", "icon_mask_base_uri": "https://maps.gstatic.com/mapfiles/place_api/icons/v2/shoppingcart_pinlet", "name": "Harihar prasad", "opening_hours": {"open_now": true}, "place_id": "ChIJeZau-qmZ9jkRbeCFcakECLk", "plus_code": {"compound_code": "P95W+PX Jamadoba, Jharkhand, India", "global_code": "7MM8P95W+PX"}, "rating": 4.3, "reference": "ChIJeZau-qmZ9jkRbeCFcakECLk", "scope": "GOOGLE", "types": ["supermarket", "grocery_or_supermarket", "food", "point_of_interest", "store", "establishment"], "user_ratings_total": 4, "vicinity": "Unnamed Road, Jamadoba"}, {"business_status": "OPERATIONAL", "geometry": {"location": {"lat": 23.7024519, "lng": 86.39746459999999}, "viewport": {"northeast": {"lat": 23.7037630302915, "lng": 86.3988017302915}, "southwest": {"lat": 23.7010650697085, "lng": 86.39610376970849}}}, "icon": "https://maps.gstatic.com/mapfiles/place_api/icons/v1/png_71/shopping-71.png", "icon_background_color": "#4B96F3", "icon_mask_base_uri": "https://maps.gstatic.com/mapfiles/place_api/icons/v2/shoppingcart_pinlet", "name": "PUJA BHANDAR, SABJI SHOP", "opening_hours": {"open_now": true}, "place_id": "ChIJv0A8QWuY9jkRQeF6LquTAsU", "plus_code": {"compound_code": "P92W+XX Jorapokhar, Jharkhand, India", "global_code": "7MM8P92W+XX"}, "rating": 3.7, "reference": "ChIJv0A8QWuY9jkRQeF6LquTAsU", "scope": "GOOGLE", "types": ["supermarket", "grocery_or_supermarket", "food", "point_of_interest", "store", "establishment"], "user_ratings_total": 11, "vicinity": "4, Dumari Road, Jorapokhar, Jharkhand 828302, Dumari Road, Jorapokhar"}], "status": "OK"}