{"html_attributions": [], "results": [{"business_status": "OPERATIONAL", "geometry": {"location": {"lat": 23.8002519, "lng": 86.41129289999999}, "viewport": {"northeast": {"lat": 23.8015991802915, "lng": 86.41265398029151}, "southwest": {"lat": 23.79890121970849, "lng": 86.4099560197085}}}, "icon": "https://maps.gstatic.com/mapfiles/place_api/icons/v1/png_71/shopping-71.png", "icon_background_color": "#4B96F3", "icon_mask_base_uri": "https://maps.gstatic.com/mapfiles/place_api/icons/v2/shoppingcart_pinlet", "name": "Faisal Bangles", "opening_hours": {"open_now": true}, "photos": [{"height": 2576, "html_attributions": ["<a href=\"https://maps.google.com/maps/contrib/117254747162041794998\">Md Afzal</a>"], "photo_reference": "Aap_uEADQFsWp5wJYUHF7YwKsBsW8Q4_cZCjvbNfHDFrpGGLy9gpZRguX-DIF92V3DXQ-u0UuEZ9GeF49oASF7qte9KBhsT0ByftiB6ozyoYaLT79dS1Q7x1ILgzOocInvyrQ_qJo7F-5zOhUbV3tOCftn3fRHNM8dyZM9w0cQ7mnuQCLNhz", "width": 1932}], "place_id": "ChIJdW8n306j9jkRgcCwOvY1Bn0", "plus_code": {"compound_code": "RC26+4G Dhanbad, Jharkhand, India", "global_code": "7MM8RC26+4G"}, "rating": 3.2, "reference": "ChIJdW8n306j9jkRgcCwOvY1Bn0", "scope": "GOOGLE", "types": ["supermarket", "grocery_or_supermarket", "food", "point_of_interest", "store", "establishment"], "user_ratings_total": 14, "vicinity": "Samsher Nagar Road, Samsher Nagar, Forest Colony, Dhanbad"}, {"business_status": "OPERATIONAL", "geometry": {"location": {"lat": 23.8110184, "lng": 86.4067596}, "viewport": {"northeast": {"lat": 23.8123855302915, "lng": 86.40807058029151}, "southwest": {"lat": 23.8096875697085, "lng": 86.4053726197085}}}, "icon": "https://maps.gstatic.com/mapfiles/place_api/icons/v1/png_71/shopping-71.png", "icon_background_color": "#4B96F3", "icon_mask_base_uri": "https://maps.gstatic.com/mapfiles/place_api/icons/v2/shoppingcart_pinlet", "name": "Rk Genral Store Pathra Gora Shiv Mandir", "place_id": "ChIJr-eqNCWj9jkRA9nsmadXutE", "reference": "ChIJr-eqNCWj9jkRA9nsmadXutE", "scope": "GOOGLE", "types": ["supermarket", "grocery_or_supermarket", "food", "point_of_interest", "store", "establishment"], "vicinity": "RC64+CP2, Bhuli, Dhanbad"}, {"business_status": "OPERATIONAL", "geometry": {"location": {"lat": 23.8104879, "lng": 86.4108255}, "viewport": {"northeast": {"lat": 23.81163563029151, "lng": 86.4123905302915}, "southwest": {"lat": 23.8089376697085, "lng": 86.4096925697085}}}, "icon": "https://maps.gstatic.com/mapfiles/place_api/icons/v1/png_71/shopping-71.png", "icon_background_color": "#4B96F3", "icon_mask_base_uri": "https://maps.gstatic.com/mapfiles/place_api/icons/v2/shoppingcart_pinlet", "name": "Rajendra Plaza", "opening_hours": {"open_now": true}, "photos": [{"height": 4008, "html_attributions": ["<a href=\"https://maps.google.com/maps/contrib/108463900776592420335\">deepak mahato</a>"], "photo_reference": "Aap_uEBM7UyUxwsQ5kfhAzfNt6vTWEjS2l6rORXc50pjff7SKGmlBSWc3R8AzYqYwvQGESSF0-oe-EOQRuDquauMaq898Qu7HT40sNg-VN-XG69-bYejybWj3ZTSRm-tPpVSm8Jgc3KLnQjPrgZ8wtYdap7HORna9YAoENQ_cE47sdY1wBNM", "width": 5344}], "place_id": "ChIJKUK11lCj9jkRJHTiQElmV8s", "rating": 3.8, "reference": "ChIJKUK11lCj9jkRJHTiQElmV8s", "scope": "GOOGLE", "types": ["supermarket", "grocery_or_supermarket", "food", "point_of_interest", "store", "establishment"], "user_ratings_total": 4, "vicinity": "RC66+58W, SHAKTI MARKET, Bhuli, Dhanbad"}, {"business_status": "OPERATIONAL", "geometry": {"location": {"lat": 23.797727, "lng": 86.410069}, "viewport": {"northeast": {"lat": 23.7990785802915, "lng": 86.41143023029151}, "southwest": {"lat": 23.7963806197085, "lng": 86.4087322697085}}}, "icon": "https://maps.gstatic.com/mapfiles/place_api/icons/v1/png_71/shopping-71.png", "icon_background_color": "#4B96F3", "icon_mask_base_uri": "https://maps.gstatic.com/mapfiles/place_api/icons/v2/shoppingcart_pinlet", "name": "Shahid chicken shop", "place_id": "ChIJp0Gg4Z-j9jkR-ERBera2OU4", "plus_code": {"compound_code": "QCX6+32 Dhanbad, Jharkhand, India", "global_code": "7MM8QCX6+32"}, "reference": "ChIJp0Gg4Z-j9jkR-ERBera2OU4", "scope": "GOOGLE", "types": ["supermarket", "grocery_or_supermarket", "food", "point_of_interest", "store", "establishment"], "vicinity": "Bhuli Road, Wassepur, Dhanbad"}], "status": "OK"}