{"html_attributions": [], "results": [{"business_status": "OPERATIONAL", "geometry": {"location": {"lat": 23.8091218, "lng": 86.42822079999999}, "viewport": {"northeast": {"lat": 23.8105263302915, "lng": 86.4295050802915}, "southwest": {"lat": 23.8078283697085, "lng": 86.4268071197085}}}, "icon": "https://maps.gstatic.com/mapfiles/place_api/icons/v1/png_71/shopping-71.png", "icon_background_color": "#4B96F3", "icon_mask_base_uri": "https://maps.gstatic.com/mapfiles/place_api/icons/v2/shoppingcart_pinlet", "name": "Shakambhari Bhawan", "opening_hours": {"open_now": true}, "photos": [{"height": 364, "html_attributions": ["<a href=\"https://maps.google.com/maps/contrib/112417835868363486115\">Shakambhari Bhawan</a>"], "photo_reference": "Aap_uEA7UzsiZzYWtzvTt9c8wxNDgAEuLypBc9u7c9IF490RfjWpsj8VB-lEc2pN5mF-cyA0fsnQP-lSXAIspapVp5UZAmR6pXtzKfYCMYLyNQnbCfNWLfrP5MuYtB90dqkyR_OYD_H3iXcqTo-angJa1rYYtl2TM1L3Vi0x9VxNODLd29NM", "width": 649}], "place_id": "ChIJL0CRwZa99jkR5l6tmbeqo5w", "plus_code": {"compound_code": "RC5H+J7 Dhanbad, Jharkhand, India", "global_code": "7MM8RC5H+J7"}, "rating": 5, "reference": "ChIJL0CRwZa99jkR5l6tmbeqo5w", "scope": "GOOGLE", "types": ["supermarket", "grocery_or_supermarket", "food", "point_of_interest", "store", "establishment"], "user_ratings_total": 1, "vicinity": "Jay Prakash Nagar, Jharudih, Dhanbad"}, {"business_status": "OPERATIONAL", "geometry": {"location": {"lat": 23.808018, "lng": 86.4286454}, "viewport": {"northeast": {"lat": 23.8094212802915, "lng": 86.4300263302915}, "southwest": {"lat": 23.8067233197085, "lng": 86.42732836970849}}}, "icon": "https://maps.gstatic.com/mapfiles/place_api/icons/v1/png_71/shopping-71.png", "icon_background_color": "#4B96F3", "icon_mask_base_uri": "https://maps.gstatic.com/mapfiles/place_api/icons/v2/shoppingcart_pinlet", "name": "Jai Maa Shakambhari General Store", "opening_hours": {"open_now": true}, "place_id": "ChIJBXH18Fu99jkRQvalX7d-phc", "rating": 4, "reference": "ChIJBXH18Fu99jkRQvalX7d-phc", "scope": "GOOGLE", "types": ["supermarket", "grocery_or_supermarket", "food", "point_of_interest", "store", "establishment"], "user_ratings_total": 4, "vicinity": "RC5H+6F2, Jay Prakash Nagar, CIMFR Colony, Dhanbad"}, {"business_status": "OPERATIONAL", "geometry": {"location": {"lat": 23.8052235, "lng": 86.4307996}, "viewport": {"northeast": {"lat": 23.8065270302915, "lng": 86.43223668029151}, "southwest": {"lat": 23.8038290697085, "lng": 86.42953871970849}}}, "icon": "https://maps.gstatic.com/mapfiles/place_api/icons/v1/png_71/shopping-71.png", "icon_background_color": "#4B96F3", "icon_mask_base_uri": "https://maps.gstatic.com/mapfiles/place_api/icons/v2/shoppingcart_pinlet", "name": "Reliance SMART", "opening_hours": {"open_now": true}, "photos": [{"height": 2250, "html_attributions": ["<a href=\"https://maps.google.com/maps/contrib/110175036802520990647\">Krishnendu Chatterjee</a>"], "photo_reference": "Aap_uEBYVIq-zJCScf39ChOtBXSHZohE9vNPM8j60gkgKSzO7lYD3oqyqbg8ys6WCp8rusdK7vXxe-4_kyZPzexlKIArv64ZMXXvUbTIgaN7FD3X__tSFyOsyrEnZMP2Qslwrt7SA_3BCVj-Oi6Oxuk7OZ_CJ1dr61n8h_3ZbHkwmyaNFzSp", "width": 4000}], "place_id": "ChIJVSQZ8M299jkRDisHMmsY-gg", "plus_code": {"compound_code": "RC4J+38 Dhanbad, Jharkhand, India", "global_code": "7MM8RC4J+38"}, "rating": 4.1, "reference": "ChIJVSQZ8M299jkRDisHMmsY-gg", "scope": "GOOGLE", "types": ["supermarket", "grocery_or_supermarket", "food", "point_of_interest", "store", "establishment"], "user_ratings_total": 1067, "vicinity": "Plot No 247-249,256, Ground floor, City Centre Combined building main Road, Jay Prakash Nagar, Hirapur, Dhanbad"}, {"business_status": "OPERATIONAL", "geometry": {"location": {"lat": 23.8028296, "lng": 86.4244586}, "viewport": {"northeast": {"lat": 23.8042677802915, "lng": 86.4259186802915}, "southwest": {"lat": 23.8015698197085, "lng": 86.42322071970848}}}, "icon": "https://maps.gstatic.com/mapfiles/place_api/icons/v1/png_71/generic_business-71.png", "icon_background_color": "#7B9EB0", "icon_mask_base_uri": "https://maps.gstatic.com/mapfiles/place_api/icons/v2/generic_pinlet", "name": "ADITYA EQUIPMENTS AND SERVICE (AES)", "opening_hours": {"open_now": false}, "photos": [{"height": 1161, "html_attributions": ["<a href=\"https://maps.google.com/maps/contrib/116512622316773275974\">ADITYA EQUIPMENTS AND SERVICE (AES)</a>"], "photo_reference": "Aap_uECtHDRJL3rVUzeAHjZW1voAIUlSEf7Ld-3UUEK4Kip4_8RcWJ1lPCEnqE53XT8kfsrVAbmsHHicDX8PzhRaAkQfdnkcmpCOirwUvHVSYSOHHokSWIzZwxKD3y0nb7TzFe_YEfSEh7-uJGg_20cRyAASNoKwYn36MfIlCw8B8ri-c-o3", "width": 1280}], "place_id": "ChIJPcuGvDK99jkRz4U5SffbPmY", "plus_code": {"compound_code": "RC3F+4Q Saraidhella, Jharkhand, India", "global_code": "7MM8RC3F+4Q"}, "rating": 3, "reference": "ChIJPcuGvDK99jkRz4U5SffbPmY", "scope": "GOOGLE", "types": ["supermarket", "grocery_or_supermarket", "local_government_office", "food", "point_of_interest", "store", "establishment"], "user_ratings_total": 3, "vicinity": "Old, Government Polytechnic Road, Saraidhella"}, {"business_status": "OPERATIONAL", "geometry": {"location": {"lat": 23.8016906, "lng": 86.42484379999999}, "viewport": {"northeast": {"lat": 23.8030110802915, "lng": 86.4261708802915}, "southwest": {"lat": 23.8003131197085, "lng": 86.42347291970849}}}, "icon": "https://maps.gstatic.com/mapfiles/place_api/icons/v1/png_71/shopping-71.png", "icon_background_color": "#4B96F3", "icon_mask_base_uri": "https://maps.gstatic.com/mapfiles/place_api/icons/v2/shoppingcart_pinlet", "name": "Hwandi godown", "place_id": "ChIJ00VpcrG89jkR5czkA_Wi9ew", "rating": 3.3, "reference": "ChIJ00VpcrG89jkR5czkA_Wi9ew", "scope": "GOOGLE", "types": ["supermarket", "grocery_or_supermarket", "food", "point_of_interest", "store", "establishment"], "user_ratings_total": 4, "vicinity": "RC2F+MWH, Bekarbandh, Kasturba Nagar, Dhanbad"}, {"business_status": "OPERATIONAL", "geometry": {"location": {"lat": 23.8007946, "lng": 86.42686239999999}, "viewport": {"northeast": {"lat": 23.8021717802915, "lng": 86.4282605802915}, "southwest": {"lat": 23.7994738197085, "lng": 86.42556261970849}}}, "icon": "https://maps.gstatic.com/mapfiles/place_api/icons/v1/png_71/shopping-71.png", "icon_background_color": "#4B96F3", "icon_mask_base_uri": "https://maps.gstatic.com/mapfiles/place_api/icons/v2/shoppingcart_pinlet", "name": "Vikash Kirana", "opening_hours": {"open_now": false}, "photos": [{"height": 2448, "html_attributions": ["<a href=\"https://maps.google.com/maps/contrib/114519190892943303936\">Arjun Deep</a>"], "photo_reference": "Aap_uEBVitN2cO_PLlzd1BDIdY5axYNB7mk60yfMoSGAGpPFZMqTTxZD31Io9FErR12DmhsKpKmp6FH-C0oZLzmNXnqrfqwBkbMBJXU4sRyp6oyVeOgSJVLrOhWGYb_YT27ojeR4uPwjqpmGWPwsycE29-zgefIeQJoNXFkpzsr1p-v-I-g", "width": 3264}], "place_id": "ChIJ04E73bC89jkRXvC8ZHso-Os", "plus_code": {"compound_code": "RC2G+8P Dhanbad, Jharkhand, India", "global_code": "7MM8RC2G+8P"}, "rating": 3.7, "reference": "ChIJ04E73bC89jkRXvC8ZHso-Os", "scope": "GOOGLE", "types": ["supermarket", "grocery_or_supermarket", "food", "point_of_interest", "store", "establishment"], "user_ratings_total": 83, "vicinity": "Bekarbandh, Kasturba Nagar, Dhanbad"}, {"business_status": "OPERATIONAL", "geometry": {"location": {"lat": 23.7997454, "lng": 86.4183722}, "viewport": {"northeast": {"lat": 23.8010975302915, "lng": 86.4197157302915}, "southwest": {"lat": 23.7983995697085, "lng": 86.41701776970848}}}, "icon": "https://maps.gstatic.com/mapfiles/place_api/icons/v1/png_71/shopping-71.png", "icon_background_color": "#4B96F3", "icon_mask_base_uri": "https://maps.gstatic.com/mapfiles/place_api/icons/v2/shoppingcart_pinlet", "name": "Rinku General Store And Gas Service", "opening_hours": {"open_now": true}, "photos": [{"height": 4032, "html_attributions": ["<a href=\"https://maps.google.com/maps/contrib/114516007405347948374\">Rinku Khan</a>"], "photo_reference": "Aap_uEC1uvyjNBgrA0nUDJfFOrH8IGDB1G11BV9XsGNrhceQJ8Mff7f0jXgbnCAIznixk6j0poD12KGRK5OgNZwes6PfpGXaB9ciAOgFHWVNkAI9A9FL8kC0S7p2kSndAhIoU8-4uSs8iTt0egMRiXrgSatMu6DcxTondOUfKvpCGm4Us0Vj", "width": 3024}], "place_id": "ChIJhxdfL2Gj9jkRYlZqPP6uqoU", "plus_code": {"compound_code": "QCX9+V8 Dhanbad, Jharkhand, India", "global_code": "7MM8QCX9+V8"}, "reference": "ChIJhxdfL2Gj9jkRYlZqPP6uqoU", "scope": "GOOGLE", "types": ["supermarket", "grocery_or_supermarket", "food", "point_of_interest", "store", "establishment"], "vicinity": "Unnamed Road, Forest Colony, Dhanbad"}, {"business_status": "OPERATIONAL", "geometry": {"location": {"lat": 23.79959839999999, "lng": 86.433914}, "viewport": {"northeast": {"lat": 23.8006942302915, "lng": 86.43532738029151}, "southwest": {"lat": 23.7979962697085, "lng": 86.43262941970849}}}, "icon": "https://maps.gstatic.com/mapfiles/place_api/icons/v1/png_71/shopping-71.png", "icon_background_color": "#4B96F3", "icon_mask_base_uri": "https://maps.gstatic.com/mapfiles/place_api/icons/v2/shoppingcart_pinlet", "name": "Shakib Mobile Reacharge Centre", "opening_hours": {"open_now": true}, "place_id": "ChIJm8XY2kKj9jkReTdfj3POnyk", "plus_code": {"compound_code": "QCXM+RH Dhanbad, Jharkhand, India", "global_code": "7MM8QCXM+RH"}, "reference": "ChIJm8XY2kKj9jkReTdfj3POnyk", "scope": "GOOGLE", "types": ["grocery_or_supermarket", "supermarket", "food", "point_of_interest", "store", "establishment"], "vicinity": "Azad Nagar, Dhanbad"}], "status": "OK"}