{"html_attributions": [], "results": [{"business_status": "OPERATIONAL", "geometry": {"location": {"lat": 23.7823338, "lng": 85.86427069999999}, "viewport": {"northeast": {"lat": 23.7837038302915, "lng": 85.86562438029151}, "southwest": {"lat": 23.7810058697085, "lng": 85.8629264197085}}}, "icon": "https://maps.gstatic.com/mapfiles/place_api/icons/v1/png_71/shopping-71.png", "icon_background_color": "#4B96F3", "icon_mask_base_uri": "https://maps.gstatic.com/mapfiles/place_api/icons/v2/shoppingcart_pinlet", "name": "tiles mart", "opening_hours": {"open_now": true}, "photos": [{"height": 4128, "html_attributions": ["<a href=\"https://maps.google.com/maps/contrib/107779033338361120490\">anand prajapati</a>"], "photo_reference": "Aap_uEBD_tRjFUpL20MdGcoRdspJEEhpYn7IRLtdHfyRJ6xf6Z_6T1CWtJmczPs_nQeLdm_ZjMOcHePaO630_2gqCLZ_CTchG1QKLw9XLnVjcR5AhnPeSIJdKWRbDkZl59Y8KzMrN1FUdKkFPkoQpIQxrNLnu8i9JlkY6YFAzYY1mr0j-29l", "width": 3096}], "place_id": "ChIJjzZ7K-pr9DkRKoNxU46eAQI", "plus_code": {"compound_code": "QVJ7+WP Gumia, Jharkhand, India", "global_code": "7MM7QVJ7+WP"}, "rating": 3.4, "reference": "ChIJjzZ7K-pr9DkRKoNxU46eAQI", "scope": "GOOGLE", "types": ["supermarket", "grocery_or_supermarket", "food", "point_of_interest", "store", "establishment"], "user_ratings_total": 19, "vicinity": "Bermo Gumia Road, Hazari More, Gumia"}, {"business_status": "OPERATIONAL", "geometry": {"location": {"lat": 23.782035, "lng": 85.86664640000001}, "viewport": {"northeast": {"lat": 23.7833517802915, "lng": 85.86799068029151}, "southwest": {"lat": 23.78065381970849, "lng": 85.86529271970849}}}, "icon": "https://maps.gstatic.com/mapfiles/place_api/icons/v1/png_71/shopping-71.png", "icon_background_color": "#4B96F3", "icon_mask_base_uri": "https://maps.gstatic.com/mapfiles/place_api/icons/v2/shoppingcart_pinlet", "name": "Prajapati Industries", "opening_hours": {"open_now": false}, "place_id": "ChIJK1ff7M5r9DkRF93X7nvwiK8", "plus_code": {"compound_code": "QVJ8+RM Kathara, Jharkhand, India", "global_code": "7MM7QVJ8+RM"}, "rating": 5, "reference": "ChIJK1ff7M5r9DkRF93X7nvwiK8", "scope": "GOOGLE", "types": ["supermarket", "grocery_or_supermarket", "food", "point_of_interest", "store", "establishment"], "user_ratings_total": 1, "vicinity": "Prajapati Industries, Hazari, Main Road, Kathara"}, {"business_status": "OPERATIONAL", "geometry": {"location": {"lat": 23.7873525, "lng": 85.8758136}, "viewport": {"northeast": {"lat": 23.7887188302915, "lng": 85.8771514802915}, "southwest": {"lat": 23.7860208697085, "lng": 85.8744535197085}}}, "icon": "https://maps.gstatic.com/mapfiles/place_api/icons/v1/png_71/shopping-71.png", "icon_background_color": "#4B96F3", "icon_mask_base_uri": "https://maps.gstatic.com/mapfiles/place_api/icons/v2/shoppingcart_pinlet", "name": "CENTRAL POLICE CANTEEN, C.I.S.F UNIT BTPS BOKARO THERMAL", "opening_hours": {"open_now": false}, "place_id": "ChIJsadJgfJr9DkR3cdaVxxa9hw", "reference": "ChIJsadJgfJr9DkR3cdaVxxa9hw", "scope": "GOOGLE", "types": ["supermarket", "grocery_or_supermarket", "food", "point_of_interest", "store", "establishment"], "vicinity": "QVPG+W8W, Six Unit, Bokaro Thermal"}, {"business_status": "OPERATIONAL", "geometry": {"location": {"lat": 23.78632349999999, "lng": 85.8777435}, "viewport": {"northeast": {"lat": 23.7876584302915, "lng": 85.8790954302915}, "southwest": {"lat": 23.78496046970849, "lng": 85.8763974697085}}}, "icon": "https://maps.gstatic.com/mapfiles/place_api/icons/v1/png_71/shopping-71.png", "icon_background_color": "#4B96F3", "icon_mask_base_uri": "https://maps.gstatic.com/mapfiles/place_api/icons/v2/shoppingcart_pinlet", "name": "SNACKS.POINT", "opening_hours": {"open_now": true}, "photos": [{"height": 3000, "html_attributions": ["<a href=\"https://maps.google.com/maps/contrib/116691603170906984751\">Kritika Anand</a>"], "photo_reference": "Aap_uEAGDhfvTuGoNbZI4C7LL8mzmGBlIAEnJT7AgysRc0pQRPwaomdLKUOJdkK4f8pMyeq6foNLAotcW1_0TPv_PMAuBbAutNto5Ilb5IfY3fza5-UAh8iUSbh8huuyUxHlPyWqDEaOsCzWtx8WKqlmPD3Mb9YytwMHRiC3xXDRNDsxvqU_", "width": 4000}], "place_id": "ChIJxZIliyVr9DkRamkgnu4_aLc", "plus_code": {"compound_code": "QVPH+G3 Bokaro Thermal, Jharkhand, India", "global_code": "7MM7QVPH+G3"}, "rating": 5, "reference": "ChIJxZIliyVr9DkRamkgnu4_aLc", "scope": "GOOGLE", "types": ["supermarket", "grocery_or_supermarket", "food", "point_of_interest", "store", "establishment"], "user_ratings_total": 1, "vicinity": "BTPS Main Road, Bokaro Thermal"}, {"business_status": "OPERATIONAL", "geometry": {"location": {"lat": 23.79181, "lng": 85.878463}, "viewport": {"northeast": {"lat": 23.7931806802915, "lng": 85.8797834302915}, "southwest": {"lat": 23.7904827197085, "lng": 85.87708546970849}}}, "icon": "https://maps.gstatic.com/mapfiles/place_api/icons/v1/png_71/shopping-71.png", "icon_background_color": "#4B96F3", "icon_mask_base_uri": "https://maps.gstatic.com/mapfiles/place_api/icons/v2/shoppingcart_pinlet", "name": "Baishaki Colony", "opening_hours": {"open_now": true}, "place_id": "ChIJ2-ztXb1r9DkR943yfMaUIkY", "reference": "ChIJ2-ztXb1r9DkR943yfMaUIkY", "scope": "GOOGLE", "types": ["supermarket", "grocery_or_supermarket", "food", "point_of_interest", "store", "establishment"], "vicinity": "QVRH+P9G, GM Colony, Bokaro Thermal"}], "status": "OK"}