{"html_attributions": [], "results": [{"business_status": "OPERATIONAL", "geometry": {"location": {"lat": 26.019786, "lng": 90.2813255}, "viewport": {"northeast": {"lat": 26.0211904302915, "lng": 90.2826566802915}, "southwest": {"lat": 26.01849246970849, "lng": 90.27995871970849}}}, "icon": "https://maps.gstatic.com/mapfiles/place_api/icons/v1/png_71/school-71.png", "icon_background_color": "#7B9EB0", "icon_mask_base_uri": "https://maps.gstatic.com/mapfiles/place_api/icons/v2/school_pinlet", "name": "Global Wisdom Acadamy", "place_id": "ChIJd2xOc-0VWDcR8u7sJyWL7iE", "plus_code": {"compound_code": "279J+WG Kharuvas, Assam, India", "global_code": "7MRG279J+WG"}, "reference": "ChIJd2xOc-0VWDcR8u7sJyWL7iE", "scope": "GOOGLE", "types": ["school", "point_of_interest", "establishment"], "vicinity": "Lakhipur-Khalisabhita PWD Road, Kharuvas"}, {"business_status": "OPERATIONAL", "geometry": {"location": {"lat": 26.0252609, "lng": 90.28710629999999}, "viewport": {"northeast": {"lat": 26.02644628029151, "lng": 90.28866693029151}, "southwest": {"lat": 26.0237483197085, "lng": 90.28596896970849}}}, "icon": "https://maps.gstatic.com/mapfiles/place_api/icons/v1/png_71/school-71.png", "icon_background_color": "#7B9EB0", "icon_mask_base_uri": "https://maps.gstatic.com/mapfiles/place_api/icons/v2/school_pinlet", "name": "Saddam Hosen Talukdar", "place_id": "ChIJAUFafUoVWDcRv-WZvTOOKkM", "reference": "ChIJAUFafUoVWDcRv-WZvTOOKkM", "scope": "GOOGLE", "types": ["secondary_school", "school", "point_of_interest", "establishment"], "vicinity": "27GP+4R5, Lakhipur"}, {"business_status": "OPERATIONAL", "geometry": {"location": {"lat": 26.0174736, "lng": 90.2807868}, "viewport": {"northeast": {"lat": 26.0188765802915, "lng": 90.28252513029152}, "southwest": {"lat": 26.0161786197085, "lng": 90.27982716970851}}}, "icon": "https://maps.gstatic.com/mapfiles/place_api/icons/v1/png_71/school-71.png", "icon_background_color": "#7B9EB0", "icon_mask_base_uri": "https://maps.gstatic.com/mapfiles/place_api/icons/v2/school_pinlet", "name": "Bapurbhita Adarsha Para L. P School", "place_id": "ChIJJ7PUPN4VWDcR_q9Ix-57CZc", "reference": "ChIJJ7PUPN4VWDcR_q9Ix-57CZc", "scope": "GOOGLE", "types": ["school", "point_of_interest", "establishment"], "vicinity": "278J+X8M"}, {"business_status": "OPERATIONAL", "geometry": {"location": {"lat": 26.0188281, "lng": 90.27880449999999}, "viewport": {"northeast": {"lat": 26.0202847802915, "lng": 90.2801155302915}, "southwest": {"lat": 26.0175868197085, "lng": 90.27741756970849}}}, "icon": "https://maps.gstatic.com/mapfiles/place_api/icons/v1/png_71/school-71.png", "icon_background_color": "#7B9EB0", "icon_mask_base_uri": "https://maps.gstatic.com/mapfiles/place_api/icons/v2/school_pinlet", "name": "Kantapur M.E.", "place_id": "ChIJXz_YxdgVWDcRz91Hk7HU2D4", "reference": "ChIJXz_YxdgVWDcRz91Hk7HU2D4", "scope": "GOOGLE", "types": ["school", "point_of_interest", "establishment"], "vicinity": "279H+GGM, Kantapur"}, {"business_status": "OPERATIONAL", "geometry": {"location": {"lat": 26.01909759999999, "lng": 90.2913535}, "viewport": {"northeast": {"lat": 26.0204496302915, "lng": 90.29269893029152}, "southwest": {"lat": 26.0177516697085, "lng": 90.29000096970852}}}, "icon": "https://maps.gstatic.com/mapfiles/place_api/icons/v1/png_71/school-71.png", "icon_background_color": "#7B9EB0", "icon_mask_base_uri": "https://maps.gstatic.com/mapfiles/place_api/icons/v2/school_pinlet", "name": "Chu", "place_id": "ChIJCZqkFy0VWDcR_pi_eNZtOqY", "plus_code": {"compound_code": "279R+JG Manaspara, Assam, India", "global_code": "7MRG279R+JG"}, "reference": "ChIJCZqkFy0VWDcR_pi_eNZtOqY", "scope": "GOOGLE", "types": ["primary_school", "school", "point_of_interest", "establishment"], "vicinity": "Lakhipur College Road"}, {"business_status": "OPERATIONAL", "geometry": {"location": {"lat": 26.0189906, "lng": 90.2914016}, "viewport": {"northeast": {"lat": 26.0203874802915, "lng": 90.29269343029151}, "southwest": {"lat": 26.0176895197085, "lng": 90.2899954697085}}}, "icon": "https://maps.gstatic.com/mapfiles/place_api/icons/v1/png_71/school-71.png", "icon_background_color": "#7B9EB0", "icon_mask_base_uri": "https://maps.gstatic.com/mapfiles/place_api/icons/v2/school_pinlet", "name": "Chulkani para me msdrassa", "place_id": "ChIJZT5y7NAVWDcRnmqzXQCH_hc", "plus_code": {"compound_code": "279R+HH Manaspara, Assam, India", "global_code": "7MRG279R+HH"}, "reference": "ChIJZT5y7NAVWDcRnmqzXQCH_hc", "scope": "GOOGLE", "types": ["secondary_school", "school", "point_of_interest", "establishment"], "vicinity": "Lakhipur College Road"}, {"business_status": "OPERATIONAL", "geometry": {"location": {"lat": 26.019325, "lng": 90.29176369999999}, "viewport": {"northeast": {"lat": 26.0207262302915, "lng": 90.2930379802915}, "southwest": {"lat": 26.01802826970849, "lng": 90.2903400197085}}}, "icon": "https://maps.gstatic.com/mapfiles/place_api/icons/v1/png_71/school-71.png", "icon_background_color": "#7B9EB0", "icon_mask_base_uri": "https://maps.gstatic.com/mapfiles/place_api/icons/v2/school_pinlet", "name": "Chulkani para LP school", "place_id": "ChIJK509q_UVWDcRialVNBPkKOQ", "reference": "ChIJK509q_UVWDcRialVNBPkKOQ", "scope": "GOOGLE", "types": ["primary_school", "school", "point_of_interest", "establishment"], "vicinity": "279R+PPC, Manaspara"}, {"business_status": "OPERATIONAL", "geometry": {"location": {"lat": 26.0224361, "lng": 90.2941243}, "viewport": {"northeast": {"lat": 26.02383463029151, "lng": 90.2953521802915}, "southwest": {"lat": 26.0211366697085, "lng": 90.29265421970848}}}, "icon": "https://maps.gstatic.com/mapfiles/place_api/icons/v1/png_71/school-71.png", "icon_background_color": "#7B9EB0", "icon_mask_base_uri": "https://maps.gstatic.com/mapfiles/place_api/icons/v2/school_pinlet", "name": "GOFUR ALI MONDAL HOME", "opening_hours": {"open_now": true}, "place_id": "ChIJXXQNxIQVWDcRbC6KLSu2V3w", "rating": 4, "reference": "ChIJXXQNxIQVWDcRbC6KLSu2V3w", "scope": "GOOGLE", "types": ["school", "point_of_interest", "establishment"], "user_ratings_total": 1, "vicinity": "27CV+XJH, Goalpara"}, {"business_status": "OPERATIONAL", "geometry": {"location": {"lat": 26.0252447, "lng": 90.29493099999999}, "viewport": {"northeast": {"lat": 26.0265869802915, "lng": 90.29628728029151}, "southwest": {"lat": 26.0238890197085, "lng": 90.29358931970849}}}, "icon": "https://maps.gstatic.com/mapfiles/place_api/icons/v1/png_71/school-71.png", "icon_background_color": "#7B9EB0", "icon_mask_base_uri": "https://maps.gstatic.com/mapfiles/place_api/icons/v2/school_pinlet", "name": "Chulkani para m e madrassa", "place_id": "ChIJk9oQrHAVWDcRnYu1pO97jXY", "plus_code": {"compound_code": "27GV+3X Lakhipur, Assam, India", "global_code": "7MRG27GV+3X"}, "reference": "ChIJk9oQrHAVWDcRnYu1pO97jXY", "scope": "GOOGLE", "types": ["secondary_school", "school", "point_of_interest", "establishment"], "vicinity": "New Market, PWD Rd, Lakhipur"}, {"business_status": "OPERATIONAL", "geometry": {"location": {"lat": 26.033084, "lng": 90.2826602}, "viewport": {"northeast": {"lat": 26.0347713802915, "lng": 90.2841214802915}, "southwest": {"lat": 26.0320734197085, "lng": 90.2814235197085}}}, "icon": "https://maps.gstatic.com/mapfiles/place_api/icons/v1/png_71/school-71.png", "icon_background_color": "#7B9EB0", "icon_mask_base_uri": "https://maps.gstatic.com/mapfiles/place_api/icons/v2/school_pinlet", "name": "Kharubhaz kamalia M.E.madrassa", "photos": [{"height": 3000, "html_attributions": ["<a href=\"https://maps.google.com/maps/contrib/113144479601847341405\">BK</a>"], "photo_reference": "Aap_uEC3esK0OqX-WmwJ9it_0Cs36yZdDCXvQAyV4uIn3MVmYe_9zAVKs6yanm6C2CzkwgvRWVgoJzU5svrcTnuSAnfKsmqDZnqzCWrvsfEHVEuhP7mHoIPXJ8AW3N34BA-FjtzZ3HfpLsyevPnPCkzm3sGm4M6xzZ0oWifatpg8LmcbcuLZ", "width": 4000}], "place_id": "ChIJwSZCRqwVWDcRRAgrZyKMeek", "plus_code": {"compound_code": "27MM+63 Silapani, Assam, India", "global_code": "7MRG27MM+63"}, "rating": 5, "reference": "ChIJwSZCRqwVWDcRRAgrZyKMeek", "scope": "GOOGLE", "types": ["school", "point_of_interest", "establishment"], "user_ratings_total": 1, "vicinity": "Lakhipur - Jaleswar Road, Silapani"}, {"business_status": "OPERATIONAL", "geometry": {"location": {"lat": 26.0243541, "lng": 90.29344309999999}, "viewport": {"northeast": {"lat": 26.0257030802915, "lng": 90.2947920802915}, "southwest": {"lat": 26.02300511970849, "lng": 90.2920941197085}}}, "icon": "https://maps.gstatic.com/mapfiles/place_api/icons/v1/png_71/school-71.png", "icon_background_color": "#7B9EB0", "icon_mask_base_uri": "https://maps.gstatic.com/mapfiles/place_api/icons/v2/school_pinlet", "name": "BELDUBI HIGH MADRASSA", "place_id": "ChIJ0avD4-QVWDcRylnpiiOd_oI", "plus_code": {"compound_code": "27FV+P9 Beldubi, Assam, India", "global_code": "7MRG27FV+P9"}, "reference": "ChIJ0avD4-QVWDcRylnpiiOd_oI", "scope": "GOOGLE", "types": ["secondary_school", "school", "point_of_interest", "establishment"], "vicinity": "Beldubi"}], "status": "OK"}