{"html_attributions": [], "results": [{"business_status": "OPERATIONAL", "geometry": {"location": {"lat": 26.2597131, "lng": 90.28829429999999}, "viewport": {"northeast": {"lat": 26.2610934802915, "lng": 90.2894080302915}, "southwest": {"lat": 26.2583955197085, "lng": 90.28671006970849}}}, "icon": "https://maps.gstatic.com/mapfiles/place_api/icons/v1/png_71/school-71.png", "icon_background_color": "#7B9EB0", "icon_mask_base_uri": "https://maps.gstatic.com/mapfiles/place_api/icons/v2/school_pinlet", "name": "gopal csc centre", "place_id": "ChIJxew-0KlnWDcRngzPghDkTMg", "reference": "ChIJxew-0KlnWDcRngzPghDkTMg", "scope": "GOOGLE", "types": ["school", "point_of_interest", "establishment"], "vicinity": "775Q+V8M, Bamungaon Pt.I"}, {"business_status": "OPERATIONAL", "geometry": {"location": {"lat": 26.2589367, "lng": 90.2748027}, "viewport": {"northeast": {"lat": 26.2600288302915, "lng": 90.2763384302915}, "southwest": {"lat": 26.2573308697085, "lng": 90.27364046970848}}}, "icon": "https://maps.gstatic.com/mapfiles/place_api/icons/v1/png_71/school-71.png", "icon_background_color": "#7B9EB0", "icon_mask_base_uri": "https://maps.gstatic.com/mapfiles/place_api/icons/v2/school_pinlet", "name": "Chilkikhata M.E. School", "opening_hours": {"open_now": true}, "photos": [{"height": 4000, "html_attributions": ["<a href=\"https://maps.google.com/maps/contrib/115116366725605796236\">kohinur khan</a>"], "photo_reference": "Aap_uEAFf3QhDzD6vdjDBXg0VR3PVBwivRFUR6QILp7D2Zc4oRTM9CwL6U9GSG_XedkFFWnNB9b2kCChfSkoD1L7Z2nABEBX-scA3isweC4cBPyMt1rSUkQlSGAL_QZ6_kHdOP0IsU1DX5c4rSx2TkE13f2apc21oDOXR4h0Wwc6Aq0eHP-f", "width": 1800}], "place_id": "ChIJBXJlaLlnWDcRLo-npwedA3w", "rating": 4.4, "reference": "ChIJBXJlaLlnWDcRLo-npwedA3w", "scope": "GOOGLE", "types": ["school", "point_of_interest", "establishment"], "user_ratings_total": 7, "vicinity": "775F+HWF, Bamungaon River Block"}, {"business_status": "OPERATIONAL", "geometry": {"location": {"lat": 26.2559001, "lng": 90.2914227}, "viewport": {"northeast": {"lat": 26.2574014802915, "lng": 90.29273948029152}, "southwest": {"lat": 26.2547035197085, "lng": 90.29004151970851}}}, "icon": "https://maps.gstatic.com/mapfiles/place_api/icons/v1/png_71/school-71.png", "icon_background_color": "#7B9EB0", "icon_mask_base_uri": "https://maps.gstatic.com/mapfiles/place_api/icons/v2/school_pinlet", "name": "2050 No. Bagulaura LP School", "opening_hours": {"open_now": true}, "place_id": "ChIJMbDBEo1nWDcRm8alCyMwd7c", "reference": "ChIJMbDBEo1nWDcRm8alCyMwd7c", "scope": "GOOGLE", "types": ["school", "point_of_interest", "establishment"], "vicinity": "774R+9H7, Malgaon"}, {"business_status": "OPERATIONAL", "geometry": {"location": {"lat": 26.25408939999999, "lng": 90.2789554}, "viewport": {"northeast": {"lat": 26.2554150802915, "lng": 90.28036153029151}, "southwest": {"lat": 26.2527171197085, "lng": 90.27766356970851}}}, "icon": "https://maps.gstatic.com/mapfiles/place_api/icons/v1/png_71/school-71.png", "icon_background_color": "#7B9EB0", "icon_mask_base_uri": "https://maps.gstatic.com/mapfiles/place_api/icons/v2/school_pinlet", "name": "Gaurang Khas L.P School", "place_id": "ChIJ_-vTaTNnWDcRlB0ouGSu6uE", "plus_code": {"compound_code": "773H+JH Bamungaon Pt.I, Assam, India", "global_code": "7MRG773H+JH"}, "reference": "ChIJ_-vTaTNnWDcRlB0ouGSu6uE", "scope": "GOOGLE", "types": ["primary_school", "school", "point_of_interest", "establishment"], "vicinity": "Bamungaon Pt.I"}, {"business_status": "OPERATIONAL", "geometry": {"location": {"lat": 26.2713079, "lng": 90.285795}, "viewport": {"northeast": {"lat": 26.2725515302915, "lng": 90.2870961302915}, "southwest": {"lat": 26.2698535697085, "lng": 90.28439816970848}}}, "icon": "https://maps.gstatic.com/mapfiles/place_api/icons/v1/png_71/school-71.png", "icon_background_color": "#7B9EB0", "icon_mask_base_uri": "https://maps.gstatic.com/mapfiles/place_api/icons/v2/school_pinlet", "name": "BAMUNGAON LP SCHOOL", "place_id": "ChIJeXxDpllnWDcRV89lL4g7RWU", "plus_code": {"compound_code": "77CP+G8 Bamungaon Pt.II, Assam, India", "global_code": "7MRG77CP+G8"}, "reference": "ChIJeXxDpllnWDcRV89lL4g7RWU", "scope": "GOOGLE", "types": ["school", "point_of_interest", "establishment"], "vicinity": "Gaurang-Silgara-Salkocha Road, Bamungaon Pt.II"}, {"business_status": "OPERATIONAL", "geometry": {"location": {"lat": 26.2551929, "lng": 90.2750203}, "viewport": {"northeast": {"lat": 26.25655118029151, "lng": 90.27639918029152}, "southwest": {"lat": 26.2538532197085, "lng": 90.2737012197085}}}, "icon": "https://maps.gstatic.com/mapfiles/place_api/icons/v1/png_71/school-71.png", "icon_background_color": "#7B9EB0", "icon_mask_base_uri": "https://maps.gstatic.com/mapfiles/place_api/icons/v2/school_pinlet", "name": "Gaurang Nagar Jatiya Vidyalaya", "place_id": "ChIJ4fOaMexnWDcRiYar-V1QsZU", "reference": "ChIJ4fOaMexnWDcRiYar-V1QsZU", "scope": "GOOGLE", "types": ["primary_school", "school", "point_of_interest", "establishment"], "vicinity": "774G+32C, Bamungaon River Block"}, {"business_status": "OPERATIONAL", "geometry": {"location": {"lat": 26.2704126, "lng": 90.29115030000001}, "viewport": {"northeast": {"lat": 26.2719089302915, "lng": 90.29252878029152}, "southwest": {"lat": 26.2692109697085, "lng": 90.2898308197085}}}, "icon": "https://maps.gstatic.com/mapfiles/place_api/icons/v1/png_71/school-71.png", "icon_background_color": "#7B9EB0", "icon_mask_base_uri": "https://maps.gstatic.com/mapfiles/place_api/icons/v2/school_pinlet", "name": "BAMUNGAON SCHOOL", "place_id": "ChIJ19UI1RJnWDcRiVO0_IrNHG0", "plus_code": {"compound_code": "77CR+5F Bamungaon Pt.II, Assam, India", "global_code": "7MRG77CR+5F"}, "reference": "ChIJ19UI1RJnWDcRiVO0_IrNHG0", "scope": "GOOGLE", "types": ["school", "point_of_interest", "establishment"], "vicinity": "Gaurang-Silgara-Salkocha Road, Bamungaon Pt.II"}, {"business_status": "OPERATIONAL", "geometry": {"location": {"lat": 26.2534802, "lng": 90.2767476}, "viewport": {"northeast": {"lat": 26.2548234302915, "lng": 90.27808843029152}, "southwest": {"lat": 26.2521254697085, "lng": 90.27539046970851}}}, "icon": "https://maps.gstatic.com/mapfiles/place_api/icons/v1/png_71/school-71.png", "icon_background_color": "#7B9EB0", "icon_mask_base_uri": "https://maps.gstatic.com/mapfiles/place_api/icons/v2/school_pinlet", "name": "Garurang Nagar Etim Khana Medrassa", "opening_hours": {"open_now": true}, "place_id": "ChIJYccMpsBnWDcRono227VDfPQ", "rating": 5, "reference": "ChIJYccMpsBnWDcRono227VDfPQ", "scope": "GOOGLE", "types": ["school", "point_of_interest", "establishment"], "user_ratings_total": 1, "vicinity": "773G+9MX, Bamungaon Pt.I"}, {"business_status": "OPERATIONAL", "geometry": {"location": {"lat": 26.2696484, "lng": 90.2731233}, "viewport": {"northeast": {"lat": 26.2709955302915, "lng": 90.27447608029149}, "southwest": {"lat": 26.2682975697085, "lng": 90.27177811970849}}}, "icon": "https://maps.gstatic.com/mapfiles/place_api/icons/v1/png_71/school-71.png", "icon_background_color": "#7B9EB0", "icon_mask_base_uri": "https://maps.gstatic.com/mapfiles/place_api/icons/v2/school_pinlet", "name": "Shadhona Tuition Hall", "place_id": "ChIJMZMPuqVnWDcRv5Czhy0xZKA", "reference": "ChIJMZMPuqVnWDcRv5Czhy0xZKA", "scope": "GOOGLE", "types": ["school", "point_of_interest", "establishment"], "vicinity": "779F+V65, Chilkikhata"}, {"business_status": "OPERATIONAL", "geometry": {"location": {"lat": 26.2496708, "lng": 90.28084539999999}, "viewport": {"northeast": {"lat": 26.2510421802915, "lng": 90.2821700802915}, "southwest": {"lat": 26.24834421970849, "lng": 90.27947211970847}}}, "icon": "https://maps.gstatic.com/mapfiles/place_api/icons/v1/png_71/school-71.png", "icon_background_color": "#7B9EB0", "icon_mask_base_uri": "https://maps.gstatic.com/mapfiles/place_api/icons/v2/school_pinlet", "name": "kushiar bari haleswar high school", "place_id": "ChIJmxswV0xnWDcRKz4KBiR7lYU", "plus_code": {"compound_code": "67XJ+V8 Jamduar Pt.II, Assam, India", "global_code": "7MRG67XJ+V8"}, "reference": "ChIJmxswV0xnWDcRKz4KBiR7lYU", "scope": "GOOGLE", "types": ["school", "point_of_interest", "establishment"], "vicinity": "NH 31-Silgara Road connection, Jamduar Pt.II"}], "status": "OK"}