{"html_attributions": [], "results": [{"business_status": "OPERATIONAL", "geometry": {"location": {"lat": 26.2490542, "lng": 90.3258132}, "viewport": {"northeast": {"lat": 26.2503823302915, "lng": 90.3271359802915}, "southwest": {"lat": 26.2476843697085, "lng": 90.3244380197085}}}, "icon": "https://maps.gstatic.com/mapfiles/place_api/icons/v1/png_71/school-71.png", "icon_background_color": "#7B9EB0", "icon_mask_base_uri": "https://maps.gstatic.com/mapfiles/place_api/icons/v2/school_pinlet", "name": "ACME UDAY SKILL INSTITUTE", "place_id": "ChIJFUdDjDxdWDcRnJ962Y1O_XQ", "plus_code": {"compound_code": "68XG+J8 Sreegram Pt.II, Assam, India", "global_code": "7MRG68XG+J8"}, "reference": "ChIJFUdDjDxdWDcRnJ962Y1O_XQ", "scope": "GOOGLE", "types": ["school", "point_of_interest", "establishment"], "vicinity": "Salkocha Silgara Road, Sreegram Pt.II"}, {"business_status": "OPERATIONAL", "geometry": {"location": {"lat": 26.2361795, "lng": 90.3190783}, "viewport": {"northeast": {"lat": 26.23752043029151, "lng": 90.3203707802915}, "southwest": {"lat": 26.2348224697085, "lng": 90.31767281970849}}}, "icon": "https://maps.gstatic.com/mapfiles/place_api/icons/v1/png_71/school-71.png", "icon_background_color": "#7B9EB0", "icon_mask_base_uri": "https://maps.gstatic.com/mapfiles/place_api/icons/v2/school_pinlet", "name": "Gurangtari Maheshdeu School", "place_id": "ChIJyVBXCDZdWDcRqKX2OcXa84s", "rating": 5, "reference": "ChIJyVBXCDZdWDcRqKX2OcXa84s", "scope": "GOOGLE", "types": ["school", "point_of_interest", "establishment"], "user_ratings_total": 2, "vicinity": "68P9+FJG, Kasipara"}, {"business_status": "OPERATIONAL", "geometry": {"location": {"lat": 26.2397354, "lng": 90.3320695}, "viewport": {"northeast": {"lat": 26.2411379802915, "lng": 90.3334207802915}, "southwest": {"lat": 26.2384400197085, "lng": 90.33072281970848}}}, "icon": "https://maps.gstatic.com/mapfiles/place_api/icons/v1/png_71/school-71.png", "icon_background_color": "#7B9EB0", "icon_mask_base_uri": "https://maps.gstatic.com/mapfiles/place_api/icons/v2/school_pinlet", "name": "Neogipara LP School", "opening_hours": {"open_now": true}, "place_id": "ChIJz_fOMS9dWDcR8YE85EO1h0k", "reference": "ChIJz_fOMS9dWDcR8YE85EO1h0k", "scope": "GOOGLE", "types": ["school", "point_of_interest", "establishment"], "vicinity": "68QJ+VRW, Velupara Pt.II"}, {"business_status": "OPERATIONAL", "geometry": {"location": {"lat": 26.2494006, "lng": 90.326563}, "viewport": {"northeast": {"lat": 26.25057608029151, "lng": 90.3279919802915}, "southwest": {"lat": 26.2478781197085, "lng": 90.3252940197085}}}, "icon": "https://maps.gstatic.com/mapfiles/place_api/icons/v1/png_71/school-71.png", "icon_background_color": "#7B9EB0", "icon_mask_base_uri": "https://maps.gstatic.com/mapfiles/place_api/icons/v2/school_pinlet", "name": "Sankardev Sishu Viddya Nicatan Salkocha", "place_id": "ChIJofa66jxdWDcRJ67yYBViIDA", "rating": 5, "reference": "ChIJofa66jxdWDcRJ67yYBViIDA", "scope": "GOOGLE", "types": ["school", "point_of_interest", "establishment"], "user_ratings_total": 3, "vicinity": "68XG+QJ8, Bamunpara"}, {"business_status": "OPERATIONAL", "geometry": {"location": {"lat": 26.2352858, "lng": 90.3287399}, "viewport": {"northeast": {"lat": 26.2367180302915, "lng": 90.33010428029151}, "southwest": {"lat": 26.23402006970849, "lng": 90.32740631970849}}}, "icon": "https://maps.gstatic.com/mapfiles/place_api/icons/v1/png_71/school-71.png", "icon_background_color": "#7B9EB0", "icon_mask_base_uri": "https://maps.gstatic.com/mapfiles/place_api/icons/v2/school_pinlet", "name": "Rishipara Primary School", "photos": [{"height": 4128, "html_attributions": ["<a href=\"https://maps.google.com/maps/contrib/116936132776813093334\">Sitendra narmada</a>"], "photo_reference": "Aap_uEBj_Th_g6nPCuGqkK3-Hy8DH2n-qVs5471gzXdItFAS0HK1xpXffkF1jc_TJKfLj1OquZLajltrDdVDr3Z89OJiwjg6gWOwCjjBGlSRREv_zYqCeRr9cfucGvcID9qOvlziu-VI20gTtc_N2mclo5AK6yDApJObwT3QpQ0sL9KSXe-C", "width": 3096}], "place_id": "ChIJL3Ii5i1dWDcRGyiYEmflX14", "rating": 5, "reference": "ChIJL3Ii5i1dWDcRGyiYEmflX14", "scope": "GOOGLE", "types": ["school", "point_of_interest", "establishment"], "user_ratings_total": 2, "vicinity": "68PH+4F9, Gaurangtari Pt.I"}, {"business_status": "OPERATIONAL", "geometry": {"location": {"lat": 26.2412811, "lng": 90.3344966}, "viewport": {"northeast": {"lat": 26.2426266802915, "lng": 90.33578793029149}, "southwest": {"lat": 26.2399287197085, "lng": 90.33308996970848}}}, "icon": "https://maps.gstatic.com/mapfiles/place_api/icons/v1/png_71/school-71.png", "icon_background_color": "#7B9EB0", "icon_mask_base_uri": "https://maps.gstatic.com/mapfiles/place_api/icons/v2/school_pinlet", "name": "ACME Uday Skill Institute", "place_id": "ChIJDW-GhihdWDcRodZC6nsLqM4", "rating": 3, "reference": "ChIJDW-GhihdWDcRodZC6nsLqM4", "scope": "GOOGLE", "types": ["school", "point_of_interest", "establishment"], "user_ratings_total": 1, "vicinity": "68RM+GQ9, Sreegram Pt.II"}, {"business_status": "OPERATIONAL", "geometry": {"location": {"lat": 26.241279, "lng": 90.33449859999999}, "viewport": {"northeast": {"lat": 26.2426245302915, "lng": 90.3357890302915}, "southwest": {"lat": 26.2399265697085, "lng": 90.33309106970849}}}, "icon": "https://maps.gstatic.com/mapfiles/place_api/icons/v1/png_71/school-71.png", "icon_background_color": "#7B9EB0", "icon_mask_base_uri": "https://maps.gstatic.com/mapfiles/place_api/icons/v2/school_pinlet", "name": "WENSLINK-SALKOCHA", "photos": [{"height": 1080, "html_attributions": ["<a href=\"https://maps.google.com/maps/contrib/107270487853199508751\">For Fun</a>"], "photo_reference": "Aap_uEAaq2nQ7csExGq058k0dvYARKYA7IPloIpNCRwdvRwKebe5l12Cdi8-vRBagM0bDaw-L8UNya8L2A9mMiXNVoAzrwB2aI_x3HkL3mhoEVLQ1zkQPimEVxE2pwQUNtk7y6hTD7oAnKesWXQxbEaDACxsD8RYVhq3ay5K6x0yISZdCxG_", "width": 1920}], "place_id": "ChIJ2Q7FhShdWDcRpUPRrXl9WTg", "plus_code": {"compound_code": "68RM+GQ Salkocha, Assam, India", "global_code": "7MRG68RM+GQ"}, "reference": "ChIJ2Q7FhShdWDcRpUPRrXl9WTg", "scope": "GOOGLE", "types": ["school", "point_of_interest", "establishment"], "vicinity": "Srigram, pt-II, Salkocha"}, {"business_status": "OPERATIONAL", "geometry": {"location": {"lat": 26.2386682, "lng": 90.3345708}, "viewport": {"northeast": {"lat": 26.2400128302915, "lng": 90.3359189802915}, "southwest": {"lat": 26.2373148697085, "lng": 90.33322101970849}}}, "icon": "https://maps.gstatic.com/mapfiles/place_api/icons/v1/png_71/school-71.png", "icon_background_color": "#7B9EB0", "icon_mask_base_uri": "https://maps.gstatic.com/mapfiles/place_api/icons/v2/school_pinlet", "name": "Jananpith Jatiya Bidyalaya", "place_id": "ChIJ-ecQyctdWDcR6K8aKRzUYo8", "plus_code": {"compound_code": "68QM+FR Velupara Pt.I, Assam, India", "global_code": "7MRG68QM+FR"}, "reference": "ChIJ-ecQyctdWDcR6K8aKRzUYo8", "scope": "GOOGLE", "types": ["school", "point_of_interest", "establishment"], "vicinity": "Velupara Pt.I"}, {"business_status": "OPERATIONAL", "geometry": {"location": {"lat": 26.24068, "lng": 90.3364426}, "viewport": {"northeast": {"lat": 26.2419838302915, "lng": 90.3377799802915}, "southwest": {"lat": 26.2392858697085, "lng": 90.3350820197085}}}, "icon": "https://maps.gstatic.com/mapfiles/place_api/icons/v1/png_71/school-71.png", "icon_background_color": "#7B9EB0", "icon_mask_base_uri": "https://maps.gstatic.com/mapfiles/place_api/icons/v2/school_pinlet", "name": "Jnanjyoti Jatiya Vidyalaya, Salkocha", "place_id": "ChIJp-UyCXRdWDcRDxUdKNPDAcU", "plus_code": {"compound_code": "68RP+7H Velupara Pt.II, Assam, India", "global_code": "7MRG68RP+7H"}, "reference": "ChIJp-UyCXRdWDcRDxUdKNPDAcU", "scope": "GOOGLE", "types": ["school", "point_of_interest", "establishment"], "vicinity": "Bangla Salkocha PWD Road, Velupara Pt.II"}, {"business_status": "OPERATIONAL", "geometry": {"location": {"lat": 26.2407573, "lng": 90.33648680000002}, "viewport": {"northeast": {"lat": 26.2420200802915, "lng": 90.33781363029152}, "southwest": {"lat": 26.2393221197085, "lng": 90.33511566970851}}}, "icon": "https://maps.gstatic.com/mapfiles/place_api/icons/v1/png_71/school-71.png", "icon_background_color": "#7B9EB0", "icon_mask_base_uri": "https://maps.gstatic.com/mapfiles/place_api/icons/v2/school_pinlet", "name": "Gyanpith Jatiya Vidyalaya", "opening_hours": {"open_now": true}, "place_id": "ChIJLestFyhdWDcRlqpaZiYb8dk", "reference": "ChIJLestFyhdWDcRlqpaZiYb8dk", "scope": "GOOGLE", "types": ["school", "point_of_interest", "establishment"], "vicinity": "68RP+8H5, Velupara Pt.II"}, {"business_status": "OPERATIONAL", "geometry": {"location": {"lat": 26.24073469999999, "lng": 90.3365123}, "viewport": {"northeast": {"lat": 26.2420057302915, "lng": 90.33784128029151}, "southwest": {"lat": 26.2393077697085, "lng": 90.33514331970851}}}, "icon": "https://maps.gstatic.com/mapfiles/place_api/icons/v1/png_71/school-71.png", "icon_background_color": "#7B9EB0", "icon_mask_base_uri": "https://maps.gstatic.com/mapfiles/place_api/icons/v2/school_pinlet", "name": "Jnan Pith Jaitiya Vidyalay", "photos": [{"height": 538, "html_attributions": ["<a href=\"https://maps.google.com/maps/contrib/116936132776813093334\">Sitendra narmada</a>"], "photo_reference": "Aap_uEA9v-84PUURcXYJgCpJL96s4vFZnxGHTzCXp032eLTQgRqHe8LzerSAfUxPYlrA0GCIGN1hv7HI7XExFX8DOZOwJsuilvmZp6P3F734bJNdYd3bgy6eVfHS6BDPvUseSRAIBPZkWPGiWL2NElBeSMVlRFFpAirJbC08NveHKvHbsE3w", "width": 718}], "place_id": "ChIJwTg3FyhdWDcR8qQlu-WP1Xs", "plus_code": {"compound_code": "68RP+7J Bamunpara, Assam, India", "global_code": "7MRG68RP+7J"}, "rating": 5, "reference": "ChIJwTg3FyhdWDcR8qQlu-WP1Xs", "scope": "GOOGLE", "types": ["school", "point_of_interest", "establishment"], "user_ratings_total": 2, "vicinity": "Salkocha Silgara Road, Bamunpara"}, {"business_status": "OPERATIONAL", "geometry": {"location": {"lat": 26.24717249999999, "lng": 90.3358001}, "viewport": {"northeast": {"lat": 26.2486015802915, "lng": 90.33714308029151}, "southwest": {"lat": 26.24590361970849, "lng": 90.33444511970849}}}, "icon": "https://maps.gstatic.com/mapfiles/place_api/icons/v1/png_71/school-71.png", "icon_background_color": "#7B9EB0", "icon_mask_base_uri": "https://maps.gstatic.com/mapfiles/place_api/icons/v2/school_pinlet", "name": "SREE GRAM GAYANPAT LOWAR PRIMARY SCHOOL", "photos": [{"height": 3096, "html_attributions": ["<a href=\"https://maps.google.com/maps/contrib/109761514834062568913\">Mominur Islam</a>"], "photo_reference": "Aap_uED3QnGvWiFY0s1Q247C7sBU80jOg9Sob7ig169Tdzs05eQSmviGMS_rtlw2BZj475g0UP5spCUEov2_z-Qc4NdwNMxqBrY-6oKPxEWQJI1_CisT_m5dvQEw7PAVlUotoetgikBy5w6TMuTOy9iCrG4oRn6SQvzV9SyeFZlA9YjEJV8m", "width": 4128}], "place_id": "ChIJXedvKfVdWDcRvZNEHALPWxs", "reference": "ChIJXedvKfVdWDcRvZNEHALPWxs", "scope": "GOOGLE", "types": ["school", "point_of_interest", "establishment"], "vicinity": "68WP+V87, Sreegram Pt.II"}, {"business_status": "OPERATIONAL", "geometry": {"location": {"lat": 26.2389117, "lng": 90.33723409999999}, "viewport": {"northeast": {"lat": 26.2401313802915, "lng": 90.3385279802915}, "southwest": {"lat": 26.2374334197085, "lng": 90.3358300197085}}}, "icon": "https://maps.gstatic.com/mapfiles/place_api/icons/v1/png_71/school-71.png", "icon_background_color": "#7B9EB0", "icon_mask_base_uri": "https://maps.gstatic.com/mapfiles/place_api/icons/v2/school_pinlet", "name": "Salkocha Higher Secondary School", "photos": [{"height": 1970, "html_attributions": ["<a href=\"https://maps.google.com/maps/contrib/113510336805121801024\">outdoor voice</a>"], "photo_reference": "Aap_uEDiVb-VDNp_XsuSFQc1wEhBG2HxGWbQZC7fddTaicc_DvoDl--k6HgaqRrOww0zH-ROx7hOhiyneIiiihcO3esbGIqdmRd6BIos9-iZztKShIsKI6ZqMzUvOWqy4tZ67RuR0gmHxvBLqB5cJs3Lx7uGErcYoLFjcgjjXv4gmHNw0kBw", "width": 4160}], "place_id": "ChIJb0yyKtZcWDcRz-LE55mMfr4", "plus_code": {"compound_code": "68QP+HV Velupara Pt.II, Assam, India", "global_code": "7MRG68QP+HV"}, "rating": 4.7, "reference": "ChIJb0yyKtZcWDcRz-LE55mMfr4", "scope": "GOOGLE", "types": ["school", "point_of_interest", "establishment"], "user_ratings_total": 3, "vicinity": "Salkocha Bazaar"}, {"business_status": "OPERATIONAL", "geometry": {"location": {"lat": 26.2402794, "lng": 90.3379932}, "viewport": {"northeast": {"lat": 26.2416472802915, "lng": 90.3393469302915}, "southwest": {"lat": 26.2389493197085, "lng": 90.33664896970848}}}, "icon": "https://maps.gstatic.com/mapfiles/place_api/icons/v1/png_71/school-71.png", "icon_background_color": "#7B9EB0", "icon_mask_base_uri": "https://maps.gstatic.com/mapfiles/place_api/icons/v2/school_pinlet", "name": "\u09b6\u09be\u09b2\u0995\u09cb\u099a\u09be \u099a\u09bf\u09b2\u09be\u09f0\u09be\u09df", "opening_hours": {"open_now": true}, "photos": [{"height": 2048, "html_attributions": ["<a href=\"https://maps.google.com/maps/contrib/105889472740374608249\">CHANDRAJYOTI ROY</a>"], "photo_reference": "Aap_uEDIXPbel5xJ_5ceWAPqrOw6QBTzQ8ZDwOtBUJ-SuMB2cQmG3NtDaUcx_jwIGp2tAfiBCrGwSmhGdcHxrZBXVcAOjOmS1Pjd9F4CX2xhpK4azpnoCyokSylHbX6Teyc9nUFuFMtDbn9SBSJY_0k5TKtBul5h9kduvGfd7g_Hfu_XhbvC", "width": 1622}], "place_id": "ChIJ-craG6ldWDcRyGDUCcbAZCU", "plus_code": {"compound_code": "68RQ+45 Velupara Pt.II, Assam, India", "global_code": "7MRG68RQ+45"}, "rating": 5, "reference": "ChIJ-craG6ldWDcRyGDUCcbAZCU", "scope": "GOOGLE", "types": ["school", "point_of_interest", "establishment"], "user_ratings_total": 2, "vicinity": "Bangla Salkocha PWD Road, Velupara Pt.II"}, {"geometry": {"location": {"lat": 26.2390206, "lng": 90.33682139999999}, "viewport": {"northeast": {"lat": 26.24027989776833, "lng": 90.33819688968077}, "southwest": {"lat": 26.23758193718533, "lng": 90.33549892909775}}}, "icon": "https://maps.gstatic.com/mapfiles/place_api/icons/v1/png_71/school-71.png", "icon_background_color": "#7B9EB0", "icon_mask_base_uri": "https://maps.gstatic.com/mapfiles/place_api/icons/v2/school_pinlet", "name": "Salkocha H.S.School", "place_id": "ChIJpfPr1SldWDcRppCHRGthF1I", "reference": "ChIJpfPr1SldWDcRppCHRGthF1I", "scope": "GOOGLE", "types": ["school", "premise", "establishment"]}], "status": "OK"}