{"html_attributions": [], "results": [{"business_status": "OPERATIONAL", "geometry": {"location": {"lat": 26.261159, "lng": 90.32495159999999}, "viewport": {"northeast": {"lat": 26.2625137802915, "lng": 90.32613193029151}, "southwest": {"lat": 26.2598158197085, "lng": 90.32343396970849}}}, "icon": "https://maps.gstatic.com/mapfiles/place_api/icons/v1/png_71/school-71.png", "icon_background_color": "#7B9EB0", "icon_mask_base_uri": "https://maps.gstatic.com/mapfiles/place_api/icons/v2/school_pinlet", "name": "MAA KALI LOWER PRIMARY SCHOOL", "photos": [{"height": 2322, "html_attributions": ["<a href=\"https://maps.google.com/maps/contrib/109761514834062568913\">Mominur Islam</a>"], "photo_reference": "Aap_uECtJxADYuU0S-WgZ4FXjA3j_bMKZj8V_INn1kJwDsB-U-zmaRowqVaBbnxSvqJ-Jc2LKb2UWqRqpDkc5w31vsO2qZoG9FL0U-o55lcYraMYunZNJ6U9KjKDk2IC6FHYhFN8_dW88PGKvJFNrMgswj_3UBsLTGv7EW4ddvOL-TwpxRkc", "width": 4128}], "place_id": "ChIJo3j_wSZdWDcRx3dZQxMq3vs", "reference": "ChIJo3j_wSZdWDcRx3dZQxMq3vs", "scope": "GOOGLE", "types": ["school", "point_of_interest", "establishment"], "vicinity": "786F+FX8, Hapapara Pt.II"}, {"business_status": "OPERATIONAL", "geometry": {"location": {"lat": 26.2601259, "lng": 90.3204626}, "viewport": {"northeast": {"lat": 26.26148613029151, "lng": 90.3218777802915}, "southwest": {"lat": 26.2587881697085, "lng": 90.3191798197085}}}, "icon": "https://maps.gstatic.com/mapfiles/place_api/icons/v1/png_71/school-71.png", "icon_background_color": "#7B9EB0", "icon_mask_base_uri": "https://maps.gstatic.com/mapfiles/place_api/icons/v2/school_pinlet", "name": "Pukhuripara LP School", "opening_hours": {"open_now": true}, "photos": [{"height": 3000, "html_attributions": ["<a href=\"https://maps.google.com/maps/contrib/101667659004211274555\">Dharamjit Barman</a>"], "photo_reference": "Aap_uEAOC4X9xEDc-ViwwTB24yq3J8-yV0Cjs7zI-4Yj4tL7rLaVtarjQ0ns5cJo2C19v90XZTHpLMktXZbpWy4UCMfiM3KuXBitzfyGneAMMnGTD2JHlKhSojGFWwif3s5M-Qo8732BsbuQ-mF3Qc7zyrxcULi_hjQyXPdVIGwi53bWKpmd", "width": 4000}], "place_id": "ChIJCUpkeRNdWDcR5scuHuFVIq0", "rating": 1, "reference": "ChIJCUpkeRNdWDcR5scuHuFVIq0", "scope": "GOOGLE", "types": ["school", "point_of_interest", "establishment"], "user_ratings_total": 1, "vicinity": "786C+354, Hapapara Pt.I"}, {"business_status": "OPERATIONAL", "geometry": {"location": {"lat": 26.26089289999999, "lng": 90.3132763}, "viewport": {"northeast": {"lat": 26.2622481802915, "lng": 90.3148231302915}, "southwest": {"lat": 26.2595502197085, "lng": 90.3121251697085}}}, "icon": "https://maps.gstatic.com/mapfiles/place_api/icons/v1/png_71/school-71.png", "icon_background_color": "#7B9EB0", "icon_mask_base_uri": "https://maps.gstatic.com/mapfiles/place_api/icons/v2/school_pinlet", "name": "Silgara L P School", "photos": [{"height": 2322, "html_attributions": ["<a href=\"https://maps.google.com/maps/contrib/109761514834062568913\">Mominur Islam</a>"], "photo_reference": "Aap_uECq3-SJ4lrO2DOIzUbe_sZecCrh0Xv9U2adhaiKD-PrV3r4PfQXuU0k9E_QuSUwQzU-R1XqQjoHkMAS0iONp2PUSBVy5FLI-W3U-pb-w6dRUjb8Q9rk_V4OFIW8p3S5xK71gXXF1A2FZY6e9iRFOkry-uOvMMMZFHG1U3tnUnFU5YBS", "width": 4128}], "place_id": "ChIJrZso1m1dWDcRQj3xPxgFw-c", "rating": 3, "reference": "ChIJrZso1m1dWDcRQj3xPxgFw-c", "scope": "GOOGLE", "types": ["school", "point_of_interest", "establishment"], "user_ratings_total": 1, "vicinity": "7867+982, Ukunimari"}, {"business_status": "OPERATIONAL", "geometry": {"location": {"lat": 26.2603753, "lng": 90.312518}, "viewport": {"northeast": {"lat": 26.2615810302915, "lng": 90.3139126302915}, "southwest": {"lat": 26.2588830697085, "lng": 90.31121466970849}}}, "icon": "https://maps.gstatic.com/mapfiles/place_api/icons/v1/png_71/school-71.png", "icon_background_color": "#7B9EB0", "icon_mask_base_uri": "https://maps.gstatic.com/mapfiles/place_api/icons/v2/school_pinlet", "name": "SILGARA ME SCHOOL", "place_id": "ChIJr8b-t25dWDcRSIRS5b32Uz4", "rating": 5, "reference": "ChIJr8b-t25dWDcRSIRS5b32Uz4", "scope": "GOOGLE", "types": ["school", "point_of_interest", "establishment"], "user_ratings_total": 1, "vicinity": "7867+522, Ukunimari"}], "status": "OK"}