{"html_attributions": [], "results": [{"business_status": "OPERATIONAL", "geometry": {"location": {"lat": 26.112193, "lng": 90.3435816}, "viewport": {"northeast": {"lat": 26.1129635802915, "lng": 90.3453110302915}, "southwest": {"lat": 26.11026561970849, "lng": 90.34261306970849}}}, "icon": "https://maps.gstatic.com/mapfiles/place_api/icons/v1/png_71/school-71.png", "icon_background_color": "#7B9EB0", "icon_mask_base_uri": "https://maps.gstatic.com/mapfiles/place_api/icons/v2/school_pinlet", "name": "Sheikh Anser Ali Majsid.", "place_id": "ChIJb97S0pJBWDcRfUvFuWdgIHw", "reference": "ChIJb97S0pJBWDcRfUvFuWdgIHw", "scope": "GOOGLE", "types": ["school", "point_of_interest", "establishment"], "vicinity": "486V+VCG, Joybhum"}, {"business_status": "OPERATIONAL", "geometry": {"location": {"lat": 26.1126801, "lng": 90.35136}, "viewport": {"northeast": {"lat": 26.1140483302915, "lng": 90.3528290302915}, "southwest": {"lat": 26.1113503697085, "lng": 90.3501310697085}}}, "icon": "https://maps.gstatic.com/mapfiles/place_api/icons/v1/png_71/school-71.png", "icon_background_color": "#7B9EB0", "icon_mask_base_uri": "https://maps.gstatic.com/mapfiles/place_api/icons/v2/school_pinlet", "name": "Joybhum Kamakhyabari High & M.E School", "opening_hours": {"open_now": true}, "photos": [{"height": 3000, "html_attributions": ["<a href=\"https://maps.google.com/maps/contrib/104869122141323155754\">Habib Asanur</a>"], "photo_reference": "Aap_uEBU5MK_O0YTE9l5jTed2riz6Y5E3OZsZ1Jb9ZQiulFi0SepXR42lAn8uOBafXloLR7vbrWBYX7UHg-tth9QdhxztY5RUWPW1-a-5-HmJ1jDIqVH0wqJ-2KLVcGQ184S1-cqYuexvz_0pcF-rwWb0dA-xYVKeHLEOU0kTO9oQSmvekjk", "width": 4000}], "place_id": "ChIJVxjqV2tBWDcRzPaKgR7v7zk", "plus_code": {"compound_code": "4972+3G New Chunari, Assam, India", "global_code": "7MRG4972+3G"}, "rating": 5, "reference": "ChIJVxjqV2tBWDcRzPaKgR7v7zk", "scope": "GOOGLE", "types": ["school", "point_of_interest", "establishment"], "user_ratings_total": 5, "vicinity": "joybhum,, New Chunari"}, {"business_status": "OPERATIONAL", "geometry": {"location": {"lat": 26.109787, "lng": 90.3421209}, "viewport": {"northeast": {"lat": 26.1110240802915, "lng": 90.34365358029152}, "southwest": {"lat": 26.1083261197085, "lng": 90.3409556197085}}}, "icon": "https://maps.gstatic.com/mapfiles/place_api/icons/v1/png_71/school-71.png", "icon_background_color": "#7B9EB0", "icon_mask_base_uri": "https://maps.gstatic.com/mapfiles/place_api/icons/v2/school_pinlet", "name": "Joybhum Joddarpara Lp School", "place_id": "ChIJy1ycnAxBWDcRB2nzke9yPZQ", "reference": "ChIJy1ycnAxBWDcRB2nzke9yPZQ", "scope": "GOOGLE", "types": ["school", "point_of_interest", "establishment"], "vicinity": "485R+WR9, Hajua Char No-1"}], "status": "OK"}