{"html_attributions": [], "results": [{"business_status": "OPERATIONAL", "geometry": {"location": {"lat": 26.4270791, "lng": 90.34898690000001}, "viewport": {"northeast": {"lat": 26.4284125302915, "lng": 90.3503209302915}, "southwest": {"lat": 26.4257145697085, "lng": 90.3476229697085}}}, "icon": "https://maps.gstatic.com/mapfiles/place_api/icons/v1/png_71/school-71.png", "icon_background_color": "#7B9EB0", "icon_mask_base_uri": "https://maps.gstatic.com/mapfiles/place_api/icons/v2/school_pinlet", "name": "Bodoland Academy School, Amlaiguri", "place_id": "ChIJp5aQffL1WDcR-QEp5Fh7qNI", "plus_code": {"compound_code": "C8GX+RH Hinabil, Assam, India", "global_code": "7MRGC8GX+RH"}, "reference": "ChIJp5aQffL1WDcR-QEp5Fh7qNI", "scope": "GOOGLE", "types": ["school", "point_of_interest", "establishment"], "vicinity": "salakati-Nayekgaon"}, {"business_status": "OPERATIONAL", "geometry": {"location": {"lat": 26.4275415, "lng": 90.3496823}, "viewport": {"northeast": {"lat": 26.4288665302915, "lng": 90.35089333029151}, "southwest": {"lat": 26.4261685697085, "lng": 90.3481953697085}}}, "icon": "https://maps.gstatic.com/mapfiles/place_api/icons/v1/png_71/school-71.png", "icon_background_color": "#7B9EB0", "icon_mask_base_uri": "https://maps.gstatic.com/mapfiles/place_api/icons/v2/school_pinlet", "name": "Bodoland Academy School", "place_id": "ChIJaTdVRGf1WDcRUhg4dwpDdtE", "plus_code": {"compound_code": "C8HX+2V Hinabil, Assam, India", "global_code": "7MRGC8HX+2V"}, "rating": 1, "reference": "ChIJaTdVRGf1WDcRUhg4dwpDdtE", "scope": "GOOGLE", "types": ["school", "point_of_interest", "establishment"], "user_ratings_total": 1, "vicinity": "Salakati - Choibari Road, Hinabil"}, {"business_status": "OPERATIONAL", "geometry": {"location": {"lat": 26.430799, "lng": 90.3450977}, "viewport": {"northeast": {"lat": 26.4320133302915, "lng": 90.3465463802915}, "southwest": {"lat": 26.4293153697085, "lng": 90.3438484197085}}}, "icon": "https://maps.gstatic.com/mapfiles/place_api/icons/v1/png_71/school-71.png", "icon_background_color": "#7B9EB0", "icon_mask_base_uri": "https://maps.gstatic.com/mapfiles/place_api/icons/v2/school_pinlet", "name": "BTPS Primary School & High School", "place_id": "ChIJV-JnV1H1WDcRfbT65FQrOnE", "plus_code": {"compound_code": "C8JW+82 Hinabil, Assam, India", "global_code": "7MRGC8JW+82"}, "reference": "ChIJV-JnV1H1WDcRfbT65FQrOnE", "scope": "GOOGLE", "types": ["school", "point_of_interest", "establishment"], "vicinity": "Choraikhola - Basugaon Road, Hinabil"}], "status": "OK"}