{"html_attributions": [], "results": [{"business_status": "OPERATIONAL", "geometry": {"location": {"lat": 26.3803291, "lng": 90.37712359999999}, "viewport": {"northeast": {"lat": 26.38171893029151, "lng": 90.37857948029149}, "southwest": {"lat": 26.3790209697085, "lng": 90.37588151970849}}}, "icon": "https://maps.gstatic.com/mapfiles/place_api/icons/v1/png_71/school-71.png", "icon_background_color": "#7B9EB0", "icon_mask_base_uri": "https://maps.gstatic.com/mapfiles/place_api/icons/v2/school_pinlet", "name": "Mother Teresa School", "place_id": "ChIJPXOLANNYWDcRtfxVtgFLLmg", "plus_code": {"compound_code": "99JG+4R Galajhora, Assam, India", "global_code": "7MRG99JG+4R"}, "reference": "ChIJPXOLANNYWDcRtfxVtgFLLmg", "scope": "GOOGLE", "types": ["school", "point_of_interest", "establishment"], "vicinity": "Unnamed Road, Galajhora"}, {"business_status": "OPERATIONAL", "geometry": {"location": {"lat": 26.3729757, "lng": 90.3758083}, "viewport": {"northeast": {"lat": 26.3742335302915, "lng": 90.37703403029151}, "southwest": {"lat": 26.3715355697085, "lng": 90.37433606970849}}}, "icon": "https://maps.gstatic.com/mapfiles/place_api/icons/v1/png_71/school-71.png", "icon_background_color": "#7B9EB0", "icon_mask_base_uri": "https://maps.gstatic.com/mapfiles/place_api/icons/v2/school_pinlet", "name": "Sripur l.p school", "place_id": "ChIJ8f9Ei-5ZWDcR4HLg6-_rNY4", "plus_code": {"compound_code": "99FG+58 Galajhora, Assam, India", "global_code": "7MRG99FG+58"}, "reference": "ChIJ8f9Ei-5ZWDcR4HLg6-_rNY4", "scope": "GOOGLE", "types": ["school", "point_of_interest", "establishment"], "vicinity": "Unnamed Road, Galajhora"}, {"business_status": "OPERATIONAL", "geometry": {"location": {"lat": 26.36953149999999, "lng": 90.3844481}, "viewport": {"northeast": {"lat": 26.3708804802915, "lng": 90.38579708029151}, "southwest": {"lat": 26.36818251970849, "lng": 90.3830991197085}}}, "icon": "https://maps.gstatic.com/mapfiles/place_api/icons/v1/png_71/school-71.png", "icon_background_color": "#7B9EB0", "icon_mask_base_uri": "https://maps.gstatic.com/mapfiles/place_api/icons/v2/school_pinlet", "name": "School ka piche ghar he bikash kujur uraw", "place_id": "ChIJa8Pk-yZZWDcRJbDCCh4QND0", "reference": "ChIJa8Pk-yZZWDcRJbDCCh4QND0", "scope": "GOOGLE", "types": ["school", "point_of_interest", "establishment"], "vicinity": "999M+RQ8, Lalkura Pt I"}], "status": "OK"}