{"html_attributions": [], "results": [{"business_status": "OPERATIONAL", "geometry": {"location": {"lat": 26.0244183, "lng": 90.4076137}, "viewport": {"northeast": {"lat": 26.0259196802915, "lng": 90.40920113029149}, "southwest": {"lat": 26.0232217197085, "lng": 90.40650316970849}}}, "icon": "https://maps.gstatic.com/mapfiles/place_api/icons/v1/png_71/school-71.png", "icon_background_color": "#7B9EB0", "icon_mask_base_uri": "https://maps.gstatic.com/mapfiles/place_api/icons/v2/school_pinlet", "name": "Baida Ancholik Sowali ME School", "place_id": "ChIJjwfSAgU5WDcRsKpirR348ac", "plus_code": {"compound_code": "2CF5+Q2 Baida Pt-II, Assam, India", "global_code": "7MRG2CF5+Q2"}, "reference": "ChIJjwfSAgU5WDcRsKpirR348ac", "scope": "GOOGLE", "types": ["school", "point_of_interest", "establishment"], "vicinity": "Baida Pt-II"}, {"business_status": "OPERATIONAL", "geometry": {"location": {"lat": 26.0157287, "lng": 90.40054699999999}, "viewport": {"northeast": {"lat": 26.0170373302915, "lng": 90.4018551802915}, "southwest": {"lat": 26.0143393697085, "lng": 90.3991572197085}}}, "icon": "https://maps.gstatic.com/mapfiles/place_api/icons/v1/png_71/school-71.png", "icon_background_color": "#7B9EB0", "icon_mask_base_uri": "https://maps.gstatic.com/mapfiles/place_api/icons/v2/school_pinlet", "name": "Rongsai Kurung Tiniali Anganbari Kendra", "opening_hours": {"open_now": true}, "place_id": "ChIJG4RqpJk5WDcRZxb-YTxWyig", "plus_code": {"compound_code": "2C82+76 Chatabari Pt-II, Assam, India", "global_code": "7MRG2C82+76"}, "reference": "ChIJG4RqpJk5WDcRZxb-YTxWyig", "scope": "GOOGLE", "types": ["school", "point_of_interest", "establishment"], "vicinity": "State Highway 12, Chatabari Pt-II"}, {"business_status": "OPERATIONAL", "geometry": {"location": {"lat": 26.0168971, "lng": 90.39838309999999}, "viewport": {"northeast": {"lat": 26.0182724302915, "lng": 90.39967118029149}, "southwest": {"lat": 26.0155744697085, "lng": 90.39697321970849}}}, "icon": "https://maps.gstatic.com/mapfiles/place_api/icons/v1/png_71/school-71.png", "icon_background_color": "#7B9EB0", "icon_mask_base_uri": "https://maps.gstatic.com/mapfiles/place_api/icons/v2/school_pinlet", "name": "Ransai Netaji Prathamik Bithalay", "place_id": "ChIJfysDbh45WDcR632VjiHJJLk", "reference": "ChIJfysDbh45WDcR632VjiHJJLk", "scope": "GOOGLE", "types": ["school", "point_of_interest", "establishment"], "vicinity": "298X+Q92, Rongsai Bajar"}, {"business_status": "OPERATIONAL", "geometry": {"location": {"lat": 26.0145885, "lng": 90.39893}, "viewport": {"northeast": {"lat": 26.01579138029151, "lng": 90.4001866802915}, "southwest": {"lat": 26.0130934197085, "lng": 90.39748871970849}}}, "icon": "https://maps.gstatic.com/mapfiles/place_api/icons/v1/png_71/school-71.png", "icon_background_color": "#7B9EB0", "icon_mask_base_uri": "https://maps.gstatic.com/mapfiles/place_api/icons/v2/school_pinlet", "name": "RONGSAI HIGH SCHOOL", "photos": [{"height": 2448, "html_attributions": ["<a href=\"https://maps.google.com/maps/contrib/107926202996172727479\">shivprasad rabha</a>"], "photo_reference": "Aap_uECi682tg7FZRlO588YkzTWCNiZxP-K8V7Of6FPVa88fFsJC272_M6gp89g8EXrzWRvbJfwRxSEkaFBZhgXCJCTGy0BpYatBVG-Lr3Wnb_WbXKVm9bhAtZeJI3HuVZ5FWOUz9nKmE6KvFsIgEhhXulwHVBlP3cyBLwh4_GhqOoxzx7Zs", "width": 3264}], "place_id": "ChIJ68oIhuw4WDcRPPvvKNyFjFg", "rating": 4.8, "reference": "ChIJ68oIhuw4WDcRPPvvKNyFjFg", "scope": "GOOGLE", "types": ["school", "point_of_interest", "establishment"], "user_ratings_total": 4, "vicinity": "297X+RHM, Rongsai Bajar"}, {"business_status": "CLOSED_TEMPORARILY", "geometry": {"location": {"lat": 26.0134082, "lng": 90.4016633}, "viewport": {"northeast": {"lat": 26.01469283029151, "lng": 90.4029005802915}, "southwest": {"lat": 26.0119948697085, "lng": 90.4002026197085}}}, "icon": "https://maps.gstatic.com/mapfiles/place_api/icons/v1/png_71/school-71.png", "icon_background_color": "#7B9EB0", "icon_mask_base_uri": "https://maps.gstatic.com/mapfiles/place_api/icons/v2/school_pinlet", "name": "LEMAKONA KURUNG L. P. SCHOOL", "permanently_closed": true, "place_id": "ChIJ5yY7Ai45WDcRKekbyxe4BEI", "plus_code": {"compound_code": "2C72+9M Rongsai, Meghalaya, India", "global_code": "7MRG2C72+9M"}, "reference": "ChIJ5yY7Ai45WDcRKekbyxe4BEI", "scope": "GOOGLE", "types": ["school", "point_of_interest", "establishment"], "vicinity": "to, Bajengdoba Road, Rongsai"}, {"business_status": "OPERATIONAL", "geometry": {"location": {"lat": 26.0132992, "lng": 90.4016132}, "viewport": {"northeast": {"lat": 26.01460993029151, "lng": 90.4028957802915}, "southwest": {"lat": 26.0119119697085, "lng": 90.4001978197085}}}, "icon": "https://maps.gstatic.com/mapfiles/place_api/icons/v1/png_71/school-71.png", "icon_background_color": "#7B9EB0", "icon_mask_base_uri": "https://maps.gstatic.com/mapfiles/place_api/icons/v2/school_pinlet", "name": "LEMAKONA KURUNG L. P. SCHOOL", "photos": [{"height": 3120, "html_attributions": ["<a href=\"https://maps.google.com/maps/contrib/109716953978305823296\">DIGITAL AXOM</a>"], "photo_reference": "Aap_uEA92oIJlo26oUacHHDpXPvqmNTOXz3WEdJZjDZ2mwZEKnMLNDTC2o1HDBGnI1jQBen6IeSYdC5Od2crVWKYMfyJ8biG1tfjQztxIH0BWpHPj0f8H5n6s1D70XT7nN8_RdJbf2-txC49uEr5y7lxKH_xtuTWZL0wjxdGcfynB9PtHIQR", "width": 4160}], "place_id": "ChIJh1WAu-04WDcRySfyb4f-dWY", "plus_code": {"compound_code": "2C72+8J Chatabari Pt-II, Assam, India", "global_code": "7MRG2C72+8J"}, "rating": 5, "reference": "ChIJh1WAu-04WDcRySfyb4f-dWY", "scope": "GOOGLE", "types": ["school", "point_of_interest", "establishment"], "user_ratings_total": 1, "vicinity": "Kurung Village, Rongsai-Bajengdoba Road Near Rongsai, Bazar"}, {"business_status": "OPERATIONAL", "geometry": {"location": {"lat": 26.0319829, "lng": 90.3960275}, "viewport": {"northeast": {"lat": 26.0332549802915, "lng": 90.3974769802915}, "southwest": {"lat": 26.0305570197085, "lng": 90.3947790197085}}}, "icon": "https://maps.gstatic.com/mapfiles/place_api/icons/v1/png_71/school-71.png", "icon_background_color": "#7B9EB0", "icon_mask_base_uri": "https://maps.gstatic.com/mapfiles/place_api/icons/v2/school_pinlet", "name": "CHATABARI MODEL HIGH SCHOOL", "place_id": "ChIJITU2YPo5WDcRA316u7n0oYE", "reference": "ChIJITU2YPo5WDcRA316u7n0oYE", "scope": "GOOGLE", "types": ["school", "point_of_interest", "establishment"], "vicinity": "29JW+QCR, Chatabari Pt-I"}, {"business_status": "OPERATIONAL", "geometry": {"location": {"lat": 26.0319829, "lng": 90.3960275}, "viewport": {"northeast": {"lat": 26.0332549802915, "lng": 90.3974769802915}, "southwest": {"lat": 26.0305570197085, "lng": 90.3947790197085}}}, "icon": "https://maps.gstatic.com/mapfiles/place_api/icons/v1/png_71/school-71.png", "icon_background_color": "#7B9EB0", "icon_mask_base_uri": "https://maps.gstatic.com/mapfiles/place_api/icons/v2/school_pinlet", "name": "CHAYHASHU DHAMPLANG LP SCHOOL", "place_id": "ChIJBZqPY4Q5WDcRpNNJdvFAdFw", "reference": "ChIJBZqPY4Q5WDcRpNNJdvFAdFw", "scope": "GOOGLE", "types": ["school", "point_of_interest", "establishment"], "vicinity": "29JW+QCR, Chatabari Pt-I"}], "status": "OK"}