{"html_attributions": [], "results": [{"business_status": "OPERATIONAL", "geometry": {"location": {"lat": 26.0828099, "lng": 90.40520099999999}, "viewport": {"northeast": {"lat": 26.0841622302915, "lng": 90.4065851802915}, "southwest": {"lat": 26.08146426970849, "lng": 90.4038872197085}}}, "icon": "https://maps.gstatic.com/mapfiles/place_api/icons/v1/png_71/school-71.png", "icon_background_color": "#7B9EB0", "icon_mask_base_uri": "https://maps.gstatic.com/mapfiles/place_api/icons/v2/school_pinlet", "name": "kodalkati ME Madrassa (School)", "place_id": "ChIJ0ZR7SM1HWDcRc3a6KlT9E0w", "plus_code": {"compound_code": "3CM4+43 Kadotika, Assam, India", "global_code": "7MRG3CM4+43"}, "reference": "ChIJ0ZR7SM1HWDcRc3a6KlT9E0w", "scope": "GOOGLE", "types": ["school", "point_of_interest", "establishment"], "vicinity": "Kk Road, Kodalkati"}, {"business_status": "OPERATIONAL", "geometry": {"location": {"lat": 26.0830628, "lng": 90.4051336}, "viewport": {"northeast": {"lat": 26.0844263302915, "lng": 90.40652523029149}, "southwest": {"lat": 26.0817283697085, "lng": 90.40382726970849}}}, "icon": "https://maps.gstatic.com/mapfiles/place_api/icons/v1/png_71/school-71.png", "icon_background_color": "#7B9EB0", "icon_mask_base_uri": "https://maps.gstatic.com/mapfiles/place_api/icons/v2/school_pinlet", "name": "KADALKATI JATIYA BIDYALAYA", "photos": [{"height": 3456, "html_attributions": ["<a href=\"https://maps.google.com/maps/contrib/116472336961452168196\">Arjina</a>"], "photo_reference": "Aap_uEBDb_yWLuLB81Y21rBbpRYYLZe0jVCh6MOP115kJCrXUyTtQom_idYNN_BBCJFve8Qyl6HViTZf8VLsufhHfYentdYTCCh6lOWwTS7b4GFqqN0o5MPGT7T8OijwmXp7eYGG2ZGAWFoAb-yOVxGn-FPZH_VUW9xhNsiYEjuj3P-uJa1G", "width": 4608}], "place_id": "ChIJ-6C7w8lHWDcRm70Gh2moQ40", "plus_code": {"compound_code": "3CM4+63 Kadotika, Assam, India", "global_code": "7MRG3CM4+63"}, "reference": "ChIJ-6C7w8lHWDcRm70Gh2moQ40", "scope": "GOOGLE", "types": ["school", "point_of_interest", "establishment"], "vicinity": "Kk Road, Kodalkati"}, {"business_status": "OPERATIONAL", "geometry": {"location": {"lat": 26.0837593, "lng": 90.4049143}, "viewport": {"northeast": {"lat": 26.0850579302915, "lng": 90.40639403029151}, "southwest": {"lat": 26.0823599697085, "lng": 90.40369606970849}}}, "icon": "https://maps.gstatic.com/mapfiles/place_api/icons/v1/png_71/school-71.png", "icon_background_color": "#7B9EB0", "icon_mask_base_uri": "https://maps.gstatic.com/mapfiles/place_api/icons/v2/school_pinlet", "name": "Kodalkati LP School (Polling Station)", "place_id": "ChIJ1RgpRM9HWDcRKGO2wnd7YDA", "plus_code": {"compound_code": "3CM3+GX Kalyanpur, Assam, India", "global_code": "7MRG3CM3+GX"}, "rating": 5, "reference": "ChIJ1RgpRM9HWDcRKGO2wnd7YDA", "scope": "GOOGLE", "types": ["school", "point_of_interest", "establishment"], "user_ratings_total": 4, "vicinity": "Eidgah Road, Kalyanpur"}, {"business_status": "OPERATIONAL", "geometry": {"location": {"lat": 26.0837608, "lng": 90.4050773}, "viewport": {"northeast": {"lat": 26.08508048029151, "lng": 90.40648683029151}, "southwest": {"lat": 26.0823825197085, "lng": 90.40378886970849}}}, "icon": "https://maps.gstatic.com/mapfiles/place_api/icons/v1/png_71/school-71.png", "icon_background_color": "#7B9EB0", "icon_mask_base_uri": "https://maps.gstatic.com/mapfiles/place_api/icons/v2/school_pinlet", "name": "KODALKATI LP SCHOOL", "place_id": "ChIJU2YalyJHWDcRtBSE3Uw9xQM", "plus_code": {"compound_code": "3CM4+G2 Kalyanpur, Assam, India", "global_code": "7MRG3CM4+G2"}, "rating": 5, "reference": "ChIJU2YalyJHWDcRtBSE3Uw9xQM", "scope": "GOOGLE", "types": ["school", "point_of_interest", "establishment"], "user_ratings_total": 2, "vicinity": "Eidgah Road, Kalyanpur"}, {"business_status": "OPERATIONAL", "geometry": {"location": {"lat": 26.0786924, "lng": 90.4092129}, "viewport": {"northeast": {"lat": 26.08009828029151, "lng": 90.4105643802915}, "southwest": {"lat": 26.0774003197085, "lng": 90.4078664197085}}}, "icon": "https://maps.gstatic.com/mapfiles/place_api/icons/v1/png_71/school-71.png", "icon_background_color": "#7B9EB0", "icon_mask_base_uri": "https://maps.gstatic.com/mapfiles/place_api/icons/v2/school_pinlet", "name": "PUB KONGKAIR PAR LP SCHOOL", "place_id": "ChIJPUz6gLRHWDcRz8fuODl4SG4", "plus_code": {"compound_code": "3CH5+FM Markula, Assam, India", "global_code": "7MRG3CH5+FM"}, "reference": "ChIJPUz6gLRHWDcRz8fuODl4SG4", "scope": "GOOGLE", "types": ["school", "point_of_interest", "establishment"], "vicinity": "School Street, PUB Kongkair Par, Po, Markula"}, {"business_status": "OPERATIONAL", "geometry": {"location": {"lat": 26.0878681, "lng": 90.3992908}, "viewport": {"northeast": {"lat": 26.0892525302915, "lng": 90.40061363029149}, "southwest": {"lat": 26.0865545697085, "lng": 90.39791566970848}}}, "icon": "https://maps.gstatic.com/mapfiles/place_api/icons/v1/png_71/school-71.png", "icon_background_color": "#7B9EB0", "icon_mask_base_uri": "https://maps.gstatic.com/mapfiles/place_api/icons/v2/school_pinlet", "name": "DREAM ACHIEVER PUBLIC SCHOOL", "photos": [{"height": 1080, "html_attributions": ["<a href=\"https://maps.google.com/maps/contrib/116679287657678646068\">Nayanur Rahman</a>"], "photo_reference": "Aap_uEB4rHFKAFSvO5GfJC4t_3KJOTU3ow4PFJpfEY7XxqT4bL-dku8J-VoeGG58UsI-MefPQ2IpYPs3R_u_b9CUSux3S_hnTqZEDyzAfX_s8WuNODVFPktX7Is3qYo8jTUXT31Hu5tL2HGGKblK3JjXXnlGZ3141Xx1oLagtq5291IEo-2D", "width": 1920}], "place_id": "ChIJV0M4IBhHWDcRNXgmcLFN-ms", "rating": 5, "reference": "ChIJV0M4IBhHWDcRNXgmcLFN-ms", "scope": "GOOGLE", "types": ["school", "point_of_interest", "establishment"], "user_ratings_total": 2, "vicinity": "39QX+4PV, Kalyanpur"}, {"business_status": "OPERATIONAL", "geometry": {"location": {"lat": 26.0747965, "lng": 90.405667}, "viewport": {"northeast": {"lat": 26.0761829302915, "lng": 90.40699418029149}, "southwest": {"lat": 26.0734849697085, "lng": 90.40429621970848}}}, "icon": "https://maps.gstatic.com/mapfiles/place_api/icons/v1/png_71/school-71.png", "icon_background_color": "#7B9EB0", "icon_mask_base_uri": "https://maps.gstatic.com/mapfiles/place_api/icons/v2/school_pinlet", "name": "PACHIM KONGKAIRPARA LPS", "place_id": "ChIJX2fdDwtHWDcR7jChspTP1TU", "plus_code": {"compound_code": "3CF4+W7 Batabari, Assam, India", "global_code": "7MRG3CF4+W7"}, "reference": "ChIJX2fdDwtHWDcR7jChspTP1TU", "scope": "GOOGLE", "types": ["school", "point_of_interest", "establishment"], "vicinity": "Pachim Kongkair Par, Kk Road"}, {"business_status": "OPERATIONAL", "geometry": {"location": {"lat": 26.08659889999999, "lng": 90.41099249999999}, "viewport": {"northeast": {"lat": 26.0879284302915, "lng": 90.4123264802915}, "southwest": {"lat": 26.0852304697085, "lng": 90.40962851970849}}}, "icon": "https://maps.gstatic.com/mapfiles/place_api/icons/v1/png_71/school-71.png", "icon_background_color": "#7B9EB0", "icon_mask_base_uri": "https://maps.gstatic.com/mapfiles/place_api/icons/v2/school_pinlet", "name": "KALYANPUR M.E.MADRASSA(School)", "place_id": "ChIJISw4RElHWDcR7c7IVAzKdME", "plus_code": {"compound_code": "3CP6+J9 Kalyanpur, Assam, India", "global_code": "7MRG3CP6+J9"}, "reference": "ChIJISw4RElHWDcR7c7IVAzKdME", "scope": "GOOGLE", "types": ["school", "point_of_interest", "establishment"], "vicinity": "Markula Road, Kalyanpur"}, {"business_status": "OPERATIONAL", "geometry": {"location": {"lat": 26.0884105, "lng": 90.4091941}, "viewport": {"northeast": {"lat": 26.0897772802915, "lng": 90.4105188302915}, "southwest": {"lat": 26.0870793197085, "lng": 90.40782086970849}}}, "icon": "https://maps.gstatic.com/mapfiles/place_api/icons/v1/png_71/school-71.png", "icon_background_color": "#7B9EB0", "icon_mask_base_uri": "https://maps.gstatic.com/mapfiles/place_api/icons/v2/school_pinlet", "name": "PUB KALYANPUR L.P. SCHOOL", "photos": [{"height": 4128, "html_attributions": ["<a href=\"https://maps.google.com/maps/contrib/106525051146553990817\">\u09b8\u09ac\u09a8\u09be\u09ae \u09aa\u09c7\u09b2\u09c7\u099b</a>"], "photo_reference": "Aap_uEAw-7P3C2n_oth5TW_Fi4ABLzaqGNYfFcxhPdiBIWgh1nnptQZ6gkia1DAmW5-xyVDMoEYRYl8gyaYV_mzhqrrrpqsMiQ0iCjom_sY-9tKrrY9RUH3FNIY74XsudAt2RMsOyFKjeczqq6q7AZH8A9_8hSs7ICJ7QN2YfSY93usSvyHi", "width": 3096}], "place_id": "ChIJ6y-fjNdHWDcRkTsNJ0npgg8", "plus_code": {"compound_code": "3CQ5+9M Rakhal Dubi, Assam, India", "global_code": "7MRG3CQ5+9M"}, "reference": "ChIJ6y-fjNdHWDcRkTsNJ0npgg8", "scope": "GOOGLE", "types": ["school", "point_of_interest", "establishment"], "vicinity": "Near School Street, Kalyanpur, Baguan"}, {"business_status": "OPERATIONAL", "geometry": {"location": {"lat": 26.0903216, "lng": 90.40358330000001}, "viewport": {"northeast": {"lat": 26.0916402302915, "lng": 90.4049512302915}, "southwest": {"lat": 26.0889422697085, "lng": 90.4022532697085}}}, "icon": "https://maps.gstatic.com/mapfiles/place_api/icons/v1/png_71/school-71.png", "icon_background_color": "#7B9EB0", "icon_mask_base_uri": "https://maps.gstatic.com/mapfiles/place_api/icons/v2/school_pinlet", "name": "MOLLAH STORE AIRTEL PAYMENT BANK", "place_id": "ChIJt9wO6v1HWDcRO5RIXtlz8j8", "plus_code": {"compound_code": "3CR3+4C Abrar Vita, Assam, India", "global_code": "7MRG3CR3+4C"}, "reference": "ChIJt9wO6v1HWDcRO5RIXtlz8j8", "scope": "GOOGLE", "types": ["school", "point_of_interest", "establishment"], "vicinity": "Lakhipur - Goalpara Road, Abrar Vita"}, {"business_status": "OPERATIONAL", "geometry": {"location": {"lat": 26.0890485, "lng": 90.40927119999999}, "viewport": {"northeast": {"lat": 26.09049673029151, "lng": 90.4107370802915}, "southwest": {"lat": 26.0877987697085, "lng": 90.40803911970849}}}, "icon": "https://maps.gstatic.com/mapfiles/place_api/icons/v1/png_71/school-71.png", "icon_background_color": "#7B9EB0", "icon_mask_base_uri": "https://maps.gstatic.com/mapfiles/place_api/icons/v2/school_pinlet", "name": "Mokib Residency", "photos": [{"height": 2560, "html_attributions": ["<a href=\"https://maps.google.com/maps/contrib/102700939345442144214\">Mr. M\u00f6k\u00efb</a>"], "photo_reference": "Aap_uECQdLQZ-EDfGWFPYaRvoZoQu4kMeikJ2NBmfGQEe5eI7s5-qteDfFiatGCssVJNWoMfsXSEQymvnlsF2SRl0vwWlVoV9CkGYmgcL03hCpJo6P5bkHGdOIcNB-Fpm44ZWmb541brXdUWvYM8PXf6stjxDosfkv1aTZO-KXQYw_0zWQs", "width": 1920}], "place_id": "ChIJURRclFtHWDcRS3Iewtdqoe8", "reference": "ChIJURRclFtHWDcRS3Iewtdqoe8", "scope": "GOOGLE", "types": ["school", "point_of_interest", "establishment"], "vicinity": "3CQ5+JP6, Rakhal Dubi"}, {"business_status": "OPERATIONAL", "geometry": {"location": {"lat": 26.0896794, "lng": 90.4091401}, "viewport": {"northeast": {"lat": 26.0910758302915, "lng": 90.41046918029151}, "southwest": {"lat": 26.08837786970849, "lng": 90.4077712197085}}}, "icon": "https://maps.gstatic.com/mapfiles/place_api/icons/v1/png_71/school-71.png", "icon_background_color": "#7B9EB0", "icon_mask_base_uri": "https://maps.gstatic.com/mapfiles/place_api/icons/v2/school_pinlet", "name": "A.Salam Ansary Residency", "place_id": "ChIJWWmO0xVHWDcR2tu8H32f7q0", "plus_code": {"compound_code": "3CQ5+VM Kalyanpur, Assam, India", "global_code": "7MRG3CQ5+VM"}, "reference": "ChIJWWmO0xVHWDcR2tu8H32f7q0", "scope": "GOOGLE", "types": ["school", "point_of_interest", "establishment"], "vicinity": "Kalyanpur-Markula, Road, Baguan, Kalyanpur"}, {"business_status": "OPERATIONAL", "geometry": {"location": {"lat": 26.091231, "lng": 90.4014684}, "viewport": {"northeast": {"lat": 26.0925371802915, "lng": 90.4028027802915}, "southwest": {"lat": 26.0898392197085, "lng": 90.40010481970849}}}, "icon": "https://maps.gstatic.com/mapfiles/place_api/icons/v1/png_71/school-71.png", "icon_background_color": "#7B9EB0", "icon_mask_base_uri": "https://maps.gstatic.com/mapfiles/place_api/icons/v2/school_pinlet", "name": "Kallyanpur jame mmasjid", "place_id": "ChIJFRC_COtHWDcRP8hwe8YvZAM", "reference": "ChIJFRC_COtHWDcRP8hwe8YvZAM", "scope": "GOOGLE", "types": ["school", "point_of_interest", "establishment"], "vicinity": "3CR2+FHW, Kalyanpur"}, {"business_status": "OPERATIONAL", "geometry": {"location": {"lat": 26.0829327, "lng": 90.4151201}, "viewport": {"northeast": {"lat": 26.0842841802915, "lng": 90.4164121802915}, "southwest": {"lat": 26.08158621970849, "lng": 90.4137142197085}}}, "icon": "https://maps.gstatic.com/mapfiles/place_api/icons/v1/png_71/school-71.png", "icon_background_color": "#7B9EB0", "icon_mask_base_uri": "https://maps.gstatic.com/mapfiles/place_api/icons/v2/school_pinlet", "name": "Khas Batabari LP School", "photos": [{"height": 3000, "html_attributions": ["<a href=\"https://maps.google.com/maps/contrib/111778508504027661685\">Jahangir Alom</a>"], "photo_reference": "Aap_uEAt86eIobRlVBnnHN6X0zbcEIKwO9YdQ_iOPLJcpFidPizShUKRqLstlB5UrO_OnmQjhETmqFjwhtDVagx0vhkBXpelmZALp7mokwUz8tB_LF2sZsF0YXsWL3d8sW5pB_XU8j2JaTFte5JLORZk6PvQjg_umBqaniA3eQBJWe05Vr8-", "width": 4000}], "place_id": "ChIJMUgkbTtHWDcRvXm714VJ89o", "plus_code": {"compound_code": "3CM8+52 Simlabari, Assam, India", "global_code": "7MRG3CM8+52"}, "reference": "ChIJMUgkbTtHWDcRvXm714VJ89o", "scope": "GOOGLE", "types": ["school", "point_of_interest", "establishment"], "vicinity": "Unnamed Road, Simlabari"}, {"business_status": "OPERATIONAL", "geometry": {"location": {"lat": 26.0918115, "lng": 90.39771089999999}, "viewport": {"northeast": {"lat": 26.09326443029151, "lng": 90.3990861302915}, "southwest": {"lat": 26.0905664697085, "lng": 90.39638816970849}}}, "icon": "https://maps.gstatic.com/mapfiles/place_api/icons/v1/png_71/school-71.png", "icon_background_color": "#7B9EB0", "icon_mask_base_uri": "https://maps.gstatic.com/mapfiles/place_api/icons/v2/school_pinlet", "name": "Kalyanpur LP School", "place_id": "ChIJIbmWb-FGWDcRMpxJ4zQiEDs", "plus_code": {"compound_code": "39RX+P3 New Chunari, Assam, India", "global_code": "7MRG39RX+P3"}, "rating": 3.5, "reference": "ChIJIbmWb-FGWDcRMpxJ4zQiEDs", "scope": "GOOGLE", "types": ["school", "point_of_interest", "establishment"], "user_ratings_total": 2, "vicinity": "Kalyanpur, New Chunari"}, {"business_status": "OPERATIONAL", "geometry": {"location": {"lat": 26.0919588, "lng": 90.3977522}, "viewport": {"northeast": {"lat": 26.09333688029151, "lng": 90.3991085302915}, "southwest": {"lat": 26.0906389197085, "lng": 90.3964105697085}}}, "icon": "https://maps.gstatic.com/mapfiles/place_api/icons/v1/png_71/school-71.png", "icon_background_color": "#7B9EB0", "icon_mask_base_uri": "https://maps.gstatic.com/mapfiles/place_api/icons/v2/school_pinlet", "name": "Kalyanpur LP School/ Polling Station", "place_id": "ChIJm1zt9RlHWDcR-NXODuzeR2Q", "plus_code": {"compound_code": "39RX+Q4 Kalyanpur, Assam, India", "global_code": "7MRG39RX+Q4"}, "rating": 5, "reference": "ChIJm1zt9RlHWDcR-NXODuzeR2Q", "scope": "GOOGLE", "types": ["school", "point_of_interest", "establishment"], "user_ratings_total": 1, "vicinity": "kalyanpur Road, Kalyanpur"}, {"business_status": "OPERATIONAL", "geometry": {"location": {"lat": 26.0936673, "lng": 90.40858589999999}, "viewport": {"northeast": {"lat": 26.0950757802915, "lng": 90.4098785302915}, "southwest": {"lat": 26.0923778197085, "lng": 90.40718056970849}}}, "icon": "https://maps.gstatic.com/mapfiles/place_api/icons/v1/png_71/school-71.png", "icon_background_color": "#7B9EB0", "icon_mask_base_uri": "https://maps.gstatic.com/mapfiles/place_api/icons/v2/school_pinlet", "name": "AMBARI KONACHIPARA LP SCHOOL", "photos": [{"height": 876, "html_attributions": ["<a href=\"https://maps.google.com/maps/contrib/100946099725391058708\">MUKTAR HUSSAIN</a>"], "photo_reference": "Aap_uECDKDTSR1inBeVcz-y5R6jQ1DJM7gOOLEQ86k0bpGXEa1U0vz_1F5yTLREVjre8YPwFiFauT7oLx2e2jsxufyo-AjX-hMCOZSb6mYs3Frk9BqQHSolkT3hGn5qWZcrGqSv6jc_kl6XL2oF2Zp9l2i8dnMlEfNpjQaAH5eIoq8BdFZTf", "width": 1920}], "place_id": "ChIJoZbNkGxHWDcRyoM7P9ZBxkY", "plus_code": {"compound_code": "3CV5+FC Khateya Tari, Assam, India", "global_code": "7MRG3CV5+FC"}, "rating": 3, "reference": "ChIJoZbNkGxHWDcRyoM7P9ZBxkY", "scope": "GOOGLE", "types": ["school", "point_of_interest", "establishment"], "user_ratings_total": 1, "vicinity": "Lakhipur - Goalpara Road, Khateya Tari"}], "status": "OK"}