{"html_attributions": [], "results": [{"business_status": "OPERATIONAL", "geometry": {"location": {"lat": 26.0614555, "lng": 90.4243013}, "viewport": {"northeast": {"lat": 26.0631555802915, "lng": 90.42713179999998}, "southwest": {"lat": 26.0604576197085, "lng": 90.4233578}}}, "icon": "https://maps.gstatic.com/mapfiles/place_api/icons/v1/png_71/school-71.png", "icon_background_color": "#7B9EB0", "icon_mask_base_uri": "https://maps.gstatic.com/mapfiles/place_api/icons/v2/school_pinlet", "name": "Rejabul Khan", "place_id": "ChIJj73ICmNHWDcRvrD9FXHdNvg", "reference": "ChIJj73ICmNHWDcRvrD9FXHdNvg", "scope": "GOOGLE", "types": ["school", "point_of_interest", "establishment"], "vicinity": "3C6F+HPM, Markula"}, {"business_status": "OPERATIONAL", "geometry": {"location": {"lat": 26.0614554, "lng": 90.4243013}, "viewport": {"northeast": {"lat": 26.0631555302915, "lng": 90.42713179999998}, "southwest": {"lat": 26.0604575697085, "lng": 90.4233578}}}, "icon": "https://maps.gstatic.com/mapfiles/place_api/icons/v1/png_71/school-71.png", "icon_background_color": "#7B9EB0", "icon_mask_base_uri": "https://maps.gstatic.com/mapfiles/place_api/icons/v2/school_pinlet", "name": "Nur Alom Residency", "place_id": "ChIJGczrycdHWDcRE2lGN7SO8qo", "plus_code": {"compound_code": "3C6F+HP Markula, Assam, India", "global_code": "7MRG3C6F+HP"}, "reference": "ChIJGczrycdHWDcRE2lGN7SO8qo", "scope": "GOOGLE", "types": ["school", "point_of_interest", "establishment"], "vicinity": "Kalyanpur Road, Markula"}, {"business_status": "OPERATIONAL", "geometry": {"location": {"lat": 26.0675605, "lng": 90.416141}, "viewport": {"northeast": {"lat": 26.0689702302915, "lng": 90.4176166802915}, "southwest": {"lat": 26.0662722697085, "lng": 90.4149187197085}}}, "icon": "https://maps.gstatic.com/mapfiles/place_api/icons/v1/png_71/school-71.png", "icon_background_color": "#7B9EB0", "icon_mask_base_uri": "https://maps.gstatic.com/mapfiles/place_api/icons/v2/school_pinlet", "name": "Hashidul Khan", "photos": [{"height": 1440, "html_attributions": ["<a href=\"https://maps.google.com/maps/contrib/103615985232255312409\">Hashidul Khan</a>"], "photo_reference": "Aap_uECDSpwz8AJxN082zFE_HqlFCcvEAvN8zzQtlNYP-jTQMqrZkampaCoH-dirpbjAGarhYuQOWbvVMtF1pntiR9pFn0Bp5eXs_gU21hetwsEPBcfuqGfq_nxXHHs8EExPXuT6woac3MIkR8Qis86Fh1-LWUWxvTF2DKSwezeLWin4GIM", "width": 1080}], "place_id": "ChIJ7Yn2CIdHWDcRLhiKJ4MCPMQ", "reference": "ChIJ7Yn2CIdHWDcRLhiKJ4MCPMQ", "scope": "GOOGLE", "types": ["school", "point_of_interest", "establishment"], "vicinity": "3C98+2FC, Pandoba"}, {"business_status": "OPERATIONAL", "geometry": {"location": {"lat": 26.0682393, "lng": 90.4158872}, "viewport": {"northeast": {"lat": 26.0696242802915, "lng": 90.4171855802915}, "southwest": {"lat": 26.0669263197085, "lng": 90.4144876197085}}}, "icon": "https://maps.gstatic.com/mapfiles/place_api/icons/v1/png_71/school-71.png", "icon_background_color": "#7B9EB0", "icon_mask_base_uri": "https://maps.gstatic.com/mapfiles/place_api/icons/v2/school_pinlet", "name": "Pachim Pandoba M.E. School", "place_id": "ChIJj6BeEqFHWDcRLRaFBi11UxM", "reference": "ChIJj6BeEqFHWDcRLRaFBi11UxM", "scope": "GOOGLE", "types": ["school", "point_of_interest", "establishment"], "vicinity": "3C98+79R, Markula"}, {"business_status": "OPERATIONAL", "geometry": {"location": {"lat": 26.07431459999999, "lng": 90.422111}, "viewport": {"northeast": {"lat": 26.0756632802915, "lng": 90.42346048029151}, "southwest": {"lat": 26.0729653197085, "lng": 90.4207625197085}}}, "icon": "https://maps.gstatic.com/mapfiles/place_api/icons/v1/png_71/school-71.png", "icon_background_color": "#7B9EB0", "icon_mask_base_uri": "https://maps.gstatic.com/mapfiles/place_api/icons/v2/school_pinlet", "name": "MARKULA LP SCHOOL", "place_id": "ChIJP8pmzLpHWDcRXCfViBVGLHs", "plus_code": {"compound_code": "3CFC+PR Batabari, Assam, India", "global_code": "7MRG3CFC+PR"}, "rating": 1, "reference": "ChIJP8pmzLpHWDcRXCfViBVGLHs", "scope": "GOOGLE", "types": ["school", "point_of_interest", "establishment"], "user_ratings_total": 1, "vicinity": "Unnamed Road, Batabari"}], "status": "OK"}