{"html_attributions": [], "results": [{"business_status": "OPERATIONAL", "geometry": {"location": {"lat": 26.3188284, "lng": 90.42066659999999}, "viewport": {"northeast": {"lat": 26.32011148029151, "lng": 90.42193213029151}, "southwest": {"lat": 26.3174135197085, "lng": 90.41923416970849}}}, "icon": "https://maps.gstatic.com/mapfiles/place_api/icons/v1/png_71/school-71.png", "icon_background_color": "#7B9EB0", "icon_mask_base_uri": "https://maps.gstatic.com/mapfiles/place_api/icons/v2/school_pinlet", "name": "Hashdoba L.P. School", "place_id": "ChIJt8BJ7ctbWDcRy7hiSjjlt3k", "reference": "ChIJt8BJ7ctbWDcRy7hiSjjlt3k", "scope": "GOOGLE", "types": ["school", "point_of_interest", "establishment"], "vicinity": "8C9C+G7M, Khutapara"}, {"business_status": "OPERATIONAL", "geometry": {"location": {"lat": 26.3180092, "lng": 90.4213395}, "viewport": {"northeast": {"lat": 26.3193027302915, "lng": 90.4225335302915}, "southwest": {"lat": 26.3166047697085, "lng": 90.4198355697085}}}, "icon": "https://maps.gstatic.com/mapfiles/place_api/icons/v1/png_71/school-71.png", "icon_background_color": "#7B9EB0", "icon_mask_base_uri": "https://maps.gstatic.com/mapfiles/place_api/icons/v2/school_pinlet", "name": "Hashdoba M.E. School", "place_id": "ChIJI_ZPOV1bWDcRNDelAOfmzGc", "plus_code": {"compound_code": "8C9C+6G Chapar, Assam, India", "global_code": "7MRG8C9C+6G"}, "reference": "ChIJI_ZPOV1bWDcRNDelAOfmzGc", "scope": "GOOGLE", "types": ["school", "point_of_interest", "establishment"], "vicinity": "Choibari - Salakati Road, Chapar"}, {"business_status": "OPERATIONAL", "geometry": {"location": {"lat": 26.3227351, "lng": 90.43252199999999}, "viewport": {"northeast": {"lat": 26.3242752302915, "lng": 90.4338840802915}, "southwest": {"lat": 26.3215772697085, "lng": 90.4311861197085}}}, "icon": "https://maps.gstatic.com/mapfiles/place_api/icons/v1/png_71/school-71.png", "icon_background_color": "#7B9EB0", "icon_mask_base_uri": "https://maps.gstatic.com/mapfiles/place_api/icons/v2/school_pinlet", "name": "Khutapara L P School, Bahalpur", "photos": [{"height": 3000, "html_attributions": ["<a href=\"https://maps.google.com/maps/contrib/105908136823724603080\">Utpol Roy</a>"], "photo_reference": "Aap_uEATeytZ0mSIq1mdEsOfbvN2ourZhjahc0iiPzNnpmG6blqamBzjBlqWHZtoRo_HbkLYnZRXYsW6KkLNqIzDUzJ3RbO5-tEiE4rQvdeYhjK30RjpuMNK7xd8c8hRWGpjEAnHSp4shOGRNABmSZ_OWnuS_q0xGdpuC47xCEEClOZpDnqW", "width": 4000}], "place_id": "ChIJ6w9dlR9aWDcRQmc-TnDjqQU", "rating": 3, "reference": "ChIJ6w9dlR9aWDcRQmc-TnDjqQU", "scope": "GOOGLE", "types": ["primary_school", "school", "point_of_interest", "establishment"], "user_ratings_total": 2, "vicinity": "8CFM+32R, Khutapara"}, {"business_status": "OPERATIONAL", "geometry": {"location": {"lat": 26.3277289, "lng": 90.4339201}, "viewport": {"northeast": {"lat": 26.3289322302915, "lng": 90.43525983029151}, "southwest": {"lat": 26.3262342697085, "lng": 90.43256186970851}}}, "icon": "https://maps.gstatic.com/mapfiles/place_api/icons/v1/png_71/school-71.png", "icon_background_color": "#7B9EB0", "icon_mask_base_uri": "https://maps.gstatic.com/mapfiles/place_api/icons/v2/school_pinlet", "name": "Uttar Khutapara L.P School", "photos": [{"height": 3000, "html_attributions": ["<a href=\"https://maps.google.com/maps/contrib/105908136823724603080\">Utpol Roy</a>"], "photo_reference": "Aap_uEDkFS7KrvbQXKTX_C4dbEVXSmd4-1oJ3fSIm1fuWhBqA7im6psb_R-rAHARdCALV_9wQUvBlVq7QG3pmMFyksAAyr6LvWgaFujioNKQNO2zPHY2HXoWTX2cv23ClGMUUla6MWFG8QAfVRqLdnAN_2jK9aDrmHvWajuphf3L_bWDqhPV", "width": 4000}], "place_id": "ChIJfwAJ6DFZWDcR9uocJaOr9IA", "plus_code": {"compound_code": "8CHM+3H Khutapara, Assam, India", "global_code": "7MRG8CHM+3H"}, "rating": 5, "reference": "ChIJfwAJ6DFZWDcR9uocJaOr9IA", "scope": "GOOGLE", "types": ["school", "point_of_interest", "establishment"], "user_ratings_total": 1, "vicinity": "Unnamed Road, Khutapara"}, {"business_status": "OPERATIONAL", "geometry": {"location": {"lat": 26.3275477, "lng": 90.4344464}, "viewport": {"northeast": {"lat": 26.3288179302915, "lng": 90.4357865802915}, "southwest": {"lat": 26.32611996970849, "lng": 90.4330886197085}}}, "icon": "https://maps.gstatic.com/mapfiles/place_api/icons/v1/png_71/school-71.png", "icon_background_color": "#7B9EB0", "icon_mask_base_uri": "https://maps.gstatic.com/mapfiles/place_api/icons/v2/school_pinlet", "name": "Uttar khutapara L P school", "place_id": "ChIJLWv71u1ZWDcRhLUWe4zKTSI", "reference": "ChIJLWv71u1ZWDcRhLUWe4zKTSI", "scope": "GOOGLE", "types": ["school", "point_of_interest", "establishment"], "vicinity": "8CHM+2Q8, Khutapara"}, {"business_status": "OPERATIONAL", "geometry": {"location": {"lat": 26.3339045, "lng": 90.4259788}, "viewport": {"northeast": {"lat": 26.3352469302915, "lng": 90.42747358029149}, "southwest": {"lat": 26.33254896970849, "lng": 90.42477561970848}}}, "icon": "https://maps.gstatic.com/mapfiles/place_api/icons/v1/png_71/school-71.png", "icon_background_color": "#7B9EB0", "icon_mask_base_uri": "https://maps.gstatic.com/mapfiles/place_api/icons/v2/school_pinlet", "name": "Choibari L.P. School", "photos": [{"height": 4000, "html_attributions": ["<a href=\"https://maps.google.com/maps/contrib/107609398280978567852\">MITUL RAY</a>"], "photo_reference": "Aap_uEAkjdDLn2YrUXHKlZaUIYqF0rkBN0OilO3uBCMCnB4ZhmeUVCOab2yfwNw82sGiF2ef8Rhv80ltvYzlK4YwTkMOd14PE1nTaMs-EbMaWLnHijYjHNsx-odWyYD_wQYpyXBU3vMAhxVd_dK0E212QRRu4QrndPchLiOlHBSPhm5wyPSR", "width": 6000}], "place_id": "ChIJVfBhZY5ZWDcR_GX0bHwgmho", "rating": 4, "reference": "ChIJVfBhZY5ZWDcR_GX0bHwgmho", "scope": "GOOGLE", "types": ["primary_school", "school", "point_of_interest", "establishment"], "user_ratings_total": 4, "vicinity": "8CMG+H99, Chaibari Hindupara"}, {"business_status": "OPERATIONAL", "geometry": {"location": {"lat": 26.3140182, "lng": 90.41369619999999}, "viewport": {"northeast": {"lat": 26.3153797302915, "lng": 90.4149779802915}, "southwest": {"lat": 26.3126817697085, "lng": 90.41228001970848}}}, "icon": "https://maps.gstatic.com/mapfiles/place_api/icons/v1/png_71/school-71.png", "icon_background_color": "#7B9EB0", "icon_mask_base_uri": "https://maps.gstatic.com/mapfiles/place_api/icons/v2/school_pinlet", "name": "Monirut zaman Mollah", "place_id": "ChIJbQbPy5RbWDcRSj4cRbPhAJ4", "reference": "ChIJbQbPy5RbWDcRSj4cRbPhAJ4", "scope": "GOOGLE", "types": ["school", "point_of_interest", "establishment"], "vicinity": "8C77+JF4, Falimari T.E."}], "status": "OK"}