{"html_attributions": [], "results": [{"business_status": "OPERATIONAL", "geometry": {"location": {"lat": 26.4220857, "lng": 90.42275409999999}, "viewport": {"northeast": {"lat": 26.4234346802915, "lng": 90.4241030802915}, "southwest": {"lat": 26.4207367197085, "lng": 90.4214051197085}}}, "icon": "https://maps.gstatic.com/mapfiles/place_api/icons/v1/png_71/school-71.png", "icon_background_color": "#7B9EB0", "icon_mask_base_uri": "https://maps.gstatic.com/mapfiles/place_api/icons/v2/school_pinlet", "name": "579 No. Takuwamari LP School", "photos": [{"height": 3264, "html_attributions": ["<a href=\"https://maps.google.com/maps/contrib/103314546966926601499\">Shahinur Hooue</a>"], "photo_reference": "Aap_uEAEpje9_lGsV0MypTTuvJeTCl_5KbF9Rs7YxTWZphL0dQ2p9QdnvhDk-Pa4LQUtlJ2wr6uIaT1SkqCnSxrKqTnjBv4WiJBDvcyhurwcfU-KoUEZ91ywX_gXyvDM_28SRcmz_FBdPkWBh-HVoUTpIZruV-p5dRaTExjExK5_oy9IESaj", "width": 1504}], "place_id": "ChIJhwEgzNn3WDcRMvSComsr_C4", "reference": "ChIJhwEgzNn3WDcRMvSComsr_C4", "scope": "GOOGLE", "types": ["school", "point_of_interest", "establishment"], "vicinity": "CCCF+R4J, Takuamari"}, {"business_status": "OPERATIONAL", "geometry": {"location": {"lat": 26.4138074, "lng": 90.4158554}, "viewport": {"northeast": {"lat": 26.41515118029151, "lng": 90.4172389802915}, "southwest": {"lat": 26.4124532197085, "lng": 90.4145410197085}}}, "icon": "https://maps.gstatic.com/mapfiles/place_api/icons/v1/png_71/school-71.png", "icon_background_color": "#7B9EB0", "icon_mask_base_uri": "https://maps.gstatic.com/mapfiles/place_api/icons/v2/school_pinlet", "name": "Dakshin Takuamari B.N. L.P School", "place_id": "ChIJJf8CWLJZWDcRCFLzio69jMA", "plus_code": {"compound_code": "CC78+G8 Nachankuti, Assam, India", "global_code": "7MRGCC78+G8"}, "rating": 3, "reference": "ChIJJf8CWLJZWDcRCFLzio69jMA", "scope": "GOOGLE", "types": ["school", "point_of_interest", "establishment"], "user_ratings_total": 1, "vicinity": "Unnamed Road, Nachankuti"}, {"business_status": "OPERATIONAL", "geometry": {"location": {"lat": 26.420352, "lng": 90.41036729999999}, "viewport": {"northeast": {"lat": 26.42157133029151, "lng": 90.4116647302915}, "southwest": {"lat": 26.4188733697085, "lng": 90.40896676970848}}}, "icon": "https://maps.gstatic.com/mapfiles/place_api/icons/v1/png_71/school-71.png", "icon_background_color": "#7B9EB0", "icon_mask_base_uri": "https://maps.gstatic.com/mapfiles/place_api/icons/v2/school_pinlet", "name": "503 No Bagulamari LP School", "photos": [{"height": 2304, "html_attributions": ["<a href=\"https://maps.google.com/maps/contrib/105210526261503778883\">Hridoy Barman</a>"], "photo_reference": "Aap_uEBPErEDnokBTnywcUvdzW3lz_TQNMBtTiEHkTHxFz12n7xVVG0Qw4mRGtrg0VvVWTfTpIhuyqy63PQWERl4enp0hs4sinWsyKk2CI3glSIgTaL4LHlwwO4JSA8tfGPXBC3aZBSZtELTjRc3f_Q-Xd4SStJ3qtWHHIkq9rd51JVGat4Q", "width": 4096}], "place_id": "ChIJizbjTCr2WDcR_VOhdfc9-Vk", "plus_code": {"compound_code": "CCC6+44 Nachankuti, Assam, India", "global_code": "7MRGCCC6+44"}, "rating": 5, "reference": "ChIJizbjTCr2WDcR_VOhdfc9-Vk", "scope": "GOOGLE", "types": ["school", "point_of_interest", "establishment"], "user_ratings_total": 2, "vicinity": "Bagulamari, Bilashpur, Salakati - Bilashpur - Bidyapur"}], "status": "OK"}