{"html_attributions": [], "results": [{"business_status": "OPERATIONAL", "geometry": {"location": {"lat": 26.2611392, "lng": 90.466368}, "viewport": {"northeast": {"lat": 26.2624881802915, "lng": 90.4677169802915}, "southwest": {"lat": 26.2597902197085, "lng": 90.46501901970849}}}, "icon": "https://maps.gstatic.com/mapfiles/place_api/icons/v1/png_71/school-71.png", "icon_background_color": "#7B9EB0", "icon_mask_base_uri": "https://maps.gstatic.com/mapfiles/place_api/icons/v2/school_pinlet", "name": "Csc", "place_id": "ChIJ8RiXDmlQWDcRAAAA0MkahgY", "plus_code": {"compound_code": "7F68+FG Bongaigaon, Assam, India", "global_code": "7MRG7F68+FG"}, "reference": "ChIJ8RiXDmlQWDcRAAAA0MkahgY", "scope": "GOOGLE", "types": ["school", "point_of_interest", "establishment"], "vicinity": "Momer Ali Kheluapara, Pt 4, Bongaigaon"}, {"business_status": "OPERATIONAL", "geometry": {"location": {"lat": 26.2654773, "lng": 90.46903359999999}, "viewport": {"northeast": {"lat": 26.2667538302915, "lng": 90.4705041802915}, "southwest": {"lat": 26.2640558697085, "lng": 90.46780621970849}}}, "icon": "https://maps.gstatic.com/mapfiles/place_api/icons/v1/png_71/school-71.png", "icon_background_color": "#7B9EB0", "icon_mask_base_uri": "https://maps.gstatic.com/mapfiles/place_api/icons/v2/school_pinlet", "name": "Kheluapara L.P School", "opening_hours": {"open_now": true}, "photos": [{"height": 2736, "html_attributions": ["<a href=\"https://maps.google.com/maps/contrib/118292071416008725233\">Maniruddin Mansuri</a>"], "photo_reference": "Aap_uEC_9vTVkhxuoW_CLKH0Xpeo5boV0SciQ8nYej8zL3rfbs8YsoNgP_GbhTpPgChLQcu-_3UpzcAkoTpEwnBRtRuOa00tBh2HJnlsSVMJcJ7c7XI3PiWI8LAdMpQUmtmO6wasHFt_2Lwv-Ht79wZBiAi2SfAPzbro1J7ig60AilKlJPN0", "width": 3648}], "place_id": "ChIJtV9I2HVRWDcRcAsNJ3-YTZU", "reference": "ChIJtV9I2HVRWDcRcAsNJ3-YTZU", "scope": "GOOGLE", "types": ["school", "point_of_interest", "establishment"], "vicinity": "7F89+5JV, Kheluapara Pt II"}, {"business_status": "OPERATIONAL", "geometry": {"location": {"lat": 26.2713841, "lng": 90.4600206}, "viewport": {"northeast": {"lat": 26.2728380802915, "lng": 90.46156958029151}, "southwest": {"lat": 26.2701401197085, "lng": 90.45887161970849}}}, "icon": "https://maps.gstatic.com/mapfiles/place_api/icons/v1/png_71/school-71.png", "icon_background_color": "#7B9EB0", "icon_mask_base_uri": "https://maps.gstatic.com/mapfiles/place_api/icons/v2/school_pinlet", "name": "20 No. Char Ghunimari L.P. School", "photos": [{"height": 3000, "html_attributions": ["<a href=\"https://maps.google.com/maps/contrib/116336070940233726524\">Raju Das</a>"], "photo_reference": "Aap_uEDlGKayQxlrPbZlhIC4sEUTdvT6iV41f0Yt7nWp_vEiRMRntgaeYG49KMgjIih-aGq48QTvk73RDvJAl6Bn4zNdbqPHhj3ALO7Ls6JeROYKmKkapEGgy-ylJNZDQhEQLP6vDheIZq7uMFx3TkIORVIyI9D9xE0syw9vrkB_7HD0Lili", "width": 4000}], "place_id": "ChIJmyFmqWdRWDcR4nyb4Rwtuno", "rating": 4, "reference": "ChIJmyFmqWdRWDcR4nyb4Rwtuno", "scope": "GOOGLE", "types": ["school", "point_of_interest", "establishment"], "user_ratings_total": 1, "vicinity": "7FC6+H22, Kazipara Pt.III"}, {"business_status": "OPERATIONAL", "geometry": {"location": {"lat": 26.2698895, "lng": 90.4714408}, "viewport": {"northeast": {"lat": 26.2713023302915, "lng": 90.4728735302915}, "southwest": {"lat": 26.2686043697085, "lng": 90.47017556970849}}}, "icon": "https://maps.gstatic.com/mapfiles/place_api/icons/v1/png_71/school-71.png", "icon_background_color": "#7B9EB0", "icon_mask_base_uri": "https://maps.gstatic.com/mapfiles/place_api/icons/v2/school_pinlet", "name": "Ghunimari LP School", "photos": [{"height": 1080, "html_attributions": ["<a href=\"https://maps.google.com/maps/contrib/111524438972821452023\">Monowar Khandakar</a>"], "photo_reference": "Aap_uEAzCMjLVcUix_lklwJvW-yZYYrDBYBdMIiCogdMiAkuqkYXlmfz9qJVe8q_4dACNlGjRH4ubAFqc5702IYp4VUWpXk3q-B4St4IF73jCcOqEKzibIG156fR-yWn7pxewZAEkQt5ifWLqS6jZoLVMdOnKngUccbR_BSDebGHQQrqjCkH", "width": 1920}], "place_id": "ChIJ65u50CNRWDcRfQmvdKfuawo", "rating": 5, "reference": "ChIJ65u50CNRWDcRfQmvdKfuawo", "scope": "GOOGLE", "types": ["primary_school", "school", "point_of_interest", "establishment"], "user_ratings_total": 3, "vicinity": "7F9C+XH4, Kheluapara Pt II"}, {"business_status": "OPERATIONAL", "geometry": {"location": {"lat": 26.2653836, "lng": 90.4516069}, "viewport": {"northeast": {"lat": 26.26755335, "lng": 90.4531630302915}, "southwest": {"lat": 26.26466035, "lng": 90.4504650697085}}}, "icon": "https://maps.gstatic.com/mapfiles/place_api/icons/v1/png_71/school-71.png", "icon_background_color": "#7B9EB0", "icon_mask_base_uri": "https://maps.gstatic.com/mapfiles/place_api/icons/v2/school_pinlet", "name": "372 No Dhanirdanga LPS", "opening_hours": {"open_now": true}, "place_id": "ChIJywJWAwJRWDcRbCEqllwVe2c", "reference": "ChIJywJWAwJRWDcRbCEqllwVe2c", "scope": "GOOGLE", "types": ["school", "point_of_interest", "establishment"], "vicinity": "7F82+5J5, Suturmukh, Kheluapara Pt II"}], "status": "OK"}