{"html_attributions": [], "results": [{"business_status": "OPERATIONAL", "geometry": {"location": {"lat": 26.3268208, "lng": 90.4618576}, "viewport": {"northeast": {"lat": 26.3283966802915, "lng": 90.46315123029152}, "southwest": {"lat": 26.3256987197085, "lng": 90.4604532697085}}}, "icon": "https://maps.gstatic.com/mapfiles/place_api/icons/v1/png_71/school-71.png", "icon_background_color": "#7B9EB0", "icon_mask_base_uri": "https://maps.gstatic.com/mapfiles/place_api/icons/v2/school_pinlet", "name": "Boraibari LP School, Bahalpur", "place_id": "ChIJwZK4lBdXWDcRJYj9Rn8QXDI", "plus_code": {"compound_code": "8FG6+PP Arimari, Assam, India", "global_code": "7MRG8FG6+PP"}, "rating": 4, "reference": "ChIJwZK4lBdXWDcRJYj9Rn8QXDI", "scope": "GOOGLE", "types": ["school", "point_of_interest", "establishment"], "user_ratings_total": 1, "vicinity": "Unnamed Road, Arimari"}, {"business_status": "OPERATIONAL", "geometry": {"location": {"lat": 26.31672889999999, "lng": 90.4641077}, "viewport": {"northeast": {"lat": 26.3180045802915, "lng": 90.4654670802915}, "southwest": {"lat": 26.3153066197085, "lng": 90.4627691197085}}}, "icon": "https://maps.gstatic.com/mapfiles/place_api/icons/v1/png_71/school-71.png", "icon_background_color": "#7B9EB0", "icon_mask_base_uri": "https://maps.gstatic.com/mapfiles/place_api/icons/v2/school_pinlet", "name": "Bahalpur Jatiya Vidyalaya, Bahalpur", "place_id": "ChIJhZvskRZRWDcRApKcO9-G58g", "rating": 5, "reference": "ChIJhZvskRZRWDcRApKcO9-G58g", "scope": "GOOGLE", "types": ["school", "point_of_interest", "establishment"], "user_ratings_total": 1, "vicinity": "8F87+MJX, Bahalpur Pt.II"}, {"business_status": "OPERATIONAL", "geometry": {"location": {"lat": 26.3183346, "lng": 90.4682493}, "viewport": {"northeast": {"lat": 26.3197564302915, "lng": 90.46935158029152}, "southwest": {"lat": 26.3170584697085, "lng": 90.46665361970851}}}, "icon": "https://maps.gstatic.com/mapfiles/place_api/icons/v1/png_71/school-71.png", "icon_background_color": "#7B9EB0", "icon_mask_base_uri": "https://maps.gstatic.com/mapfiles/place_api/icons/v2/school_pinlet", "name": "Primary School", "place_id": "ChIJQQ4b4rVQWDcRkIMi8JMJjGg", "plus_code": {"compound_code": "8F99+87 Bahalpur, Assam, India", "global_code": "7MRG8F99+87"}, "reference": "ChIJQQ4b4rVQWDcRkIMi8JMJjGg", "scope": "GOOGLE", "types": ["primary_school", "school", "point_of_interest", "establishment"], "vicinity": "National Highway 31, Bahalpur"}, {"business_status": "OPERATIONAL", "geometry": {"location": {"lat": 26.3162171, "lng": 90.4631394}, "viewport": {"northeast": {"lat": 26.3177696802915, "lng": 90.4645488302915}, "southwest": {"lat": 26.3150717197085, "lng": 90.4618508697085}}}, "icon": "https://maps.gstatic.com/mapfiles/place_api/icons/v1/png_71/school-71.png", "icon_background_color": "#7B9EB0", "icon_mask_base_uri": "https://maps.gstatic.com/mapfiles/place_api/icons/v2/school_pinlet", "name": "Bahalpur Girls School, Bahalpur", "place_id": "ChIJF8Ic3nZRWDcRN3J-nIAa6Zg", "rating": 5, "reference": "ChIJF8Ic3nZRWDcRN3J-nIAa6Zg", "scope": "GOOGLE", "types": ["school", "point_of_interest", "establishment"], "user_ratings_total": 1, "vicinity": "8F87+F7J, Bahalpur Pt.II"}, {"business_status": "OPERATIONAL", "geometry": {"location": {"lat": 26.31691289999999, "lng": 90.4689058}, "viewport": {"northeast": {"lat": 26.31827363029151, "lng": 90.47025863029151}, "southwest": {"lat": 26.3155756697085, "lng": 90.4675606697085}}}, "icon": "https://maps.gstatic.com/mapfiles/place_api/icons/v1/png_71/school-71.png", "icon_background_color": "#7B9EB0", "icon_mask_base_uri": "https://maps.gstatic.com/mapfiles/place_api/icons/v2/school_pinlet", "name": "Raijhara H.S.School,Bahalpur", "photos": [{"height": 360, "html_attributions": ["<a href=\"https://maps.google.com/maps/contrib/115795591132661367804\">DIBAKAR Ray</a>"], "photo_reference": "Aap_uEAyfGNzKQAEG_-jZ5H6HFJILPTos8FzI-Vh8nczyDyPvx1oVGbxZ1NlfEibz--7A9Br3eYOxkuHGWxyRNETenlGNHMKkFxkKFoxS1MtQ06rP9Q_IkippSeeXwc3WlFLaMWAgV1uvClRkjAzFy92rH_gP8zclEt8dzdpkDfATn21VEQI", "width": 480}], "place_id": "ChIJKwkUH7ZQWDcRD1N84Z72txE", "rating": 3.8, "reference": "ChIJKwkUH7ZQWDcRD1N84Z72txE", "scope": "GOOGLE", "types": ["school", "point_of_interest", "establishment"], "user_ratings_total": 5, "vicinity": "8F89+QH6, Bahalpur Pt.II"}, {"business_status": "OPERATIONAL", "geometry": {"location": {"lat": 26.3195817, "lng": 90.47218}, "viewport": {"northeast": {"lat": 26.3209341802915, "lng": 90.47353213029149}, "southwest": {"lat": 26.3182362197085, "lng": 90.47083416970848}}}, "icon": "https://maps.gstatic.com/mapfiles/place_api/icons/v1/png_71/school-71.png", "icon_background_color": "#7B9EB0", "icon_mask_base_uri": "https://maps.gstatic.com/mapfiles/place_api/icons/v2/school_pinlet", "name": "Pintu pan shop", "place_id": "ChIJ59NSbZ1RWDcRdhiRdEvHGbE", "plus_code": {"compound_code": "8F9C+RV Kayetpara Pt I, Assam, India", "global_code": "7MRG8F9C+RV"}, "reference": "ChIJ59NSbZ1RWDcRdhiRdEvHGbE", "scope": "GOOGLE", "types": ["school", "point_of_interest", "establishment"], "vicinity": "Nitya Bazar, NH-31, Kayetpara Pt I"}, {"business_status": "OPERATIONAL", "geometry": {"location": {"lat": 26.3179358, "lng": 90.4714673}, "viewport": {"northeast": {"lat": 26.31924143029151, "lng": 90.4727457802915}, "southwest": {"lat": 26.3165434697085, "lng": 90.4700478197085}}}, "icon": "https://maps.gstatic.com/mapfiles/place_api/icons/v1/png_71/school-71.png", "icon_background_color": "#7B9EB0", "icon_mask_base_uri": "https://maps.gstatic.com/mapfiles/place_api/icons/v2/school_pinlet", "name": "Kayethpara Part1LP School", "opening_hours": {"open_now": true}, "place_id": "ChIJS2y9g8lQWDcROnJWLKHdaZY", "reference": "ChIJS2y9g8lQWDcROnJWLKHdaZY", "scope": "GOOGLE", "types": ["primary_school", "school", "point_of_interest", "establishment"], "vicinity": "8F9C+5HG, Kayetpara Pt I"}, {"business_status": "OPERATIONAL", "geometry": {"location": {"lat": 26.3206811, "lng": 90.47262669999999}, "viewport": {"northeast": {"lat": 26.3220586302915, "lng": 90.4739442802915}, "southwest": {"lat": 26.31936066970849, "lng": 90.47124631970848}}}, "icon": "https://maps.gstatic.com/mapfiles/place_api/icons/v1/png_71/school-71.png", "icon_background_color": "#7B9EB0", "icon_mask_base_uri": "https://maps.gstatic.com/mapfiles/place_api/icons/v2/school_pinlet", "name": "Madarsa", "place_id": "ChIJbxV8ostQWDcRPCdIrrFG4KE", "plus_code": {"compound_code": "8FCF+73 Kayetpara Pt I, Assam, India", "global_code": "7MRG8FCF+73"}, "reference": "ChIJbxV8ostQWDcRPCdIrrFG4KE", "scope": "GOOGLE", "types": ["school", "point_of_interest", "establishment"], "vicinity": "India"}, {"business_status": "OPERATIONAL", "geometry": {"location": {"lat": 26.3207292, "lng": 90.47272319999999}, "viewport": {"northeast": {"lat": 26.3221161802915, "lng": 90.4740304302915}, "southwest": {"lat": 26.3194182197085, "lng": 90.4713324697085}}}, "icon": "https://maps.gstatic.com/mapfiles/place_api/icons/v1/png_71/school-71.png", "icon_background_color": "#7B9EB0", "icon_mask_base_uri": "https://maps.gstatic.com/mapfiles/place_api/icons/v2/school_pinlet", "name": "Dakhkhin Boitamary ME Madarsa", "photos": [{"height": 2322, "html_attributions": ["<a href=\"https://maps.google.com/maps/contrib/116137684653557402415\">Abed Ali</a>"], "photo_reference": "Aap_uEDW5RvdAbhAcLeonjbfCdXcTChl9KDh9jDdmFTMuiyavlirGgAXiHYRV1k4ahHcIO0Aifkl8Jhw33b8Sfwh_19ukeGKbmoI-3HXpIt6EIuLC3yDBTDt4Wbp5exIV7Ig3k5J9M4mq0mWf80ufJEeczjYbQc1uoRhvAqD0ZWKFGqhFmsl", "width": 4128}], "place_id": "ChIJybLsmMtQWDcRuzDyQnJxQT4", "plus_code": {"compound_code": "8FCF+73 Kayetpara Pt I, Assam, India", "global_code": "7MRG8FCF+73"}, "reference": "ChIJybLsmMtQWDcRuzDyQnJxQT4", "scope": "GOOGLE", "types": ["school", "point_of_interest", "establishment"], "vicinity": "Nitya Bazar, National Highway 31"}, {"business_status": "OPERATIONAL", "geometry": {"location": {"lat": 26.3205372, "lng": 90.473604}, "viewport": {"northeast": {"lat": 26.32157593029151, "lng": 90.4747822302915}, "southwest": {"lat": 26.3188779697085, "lng": 90.47208426970849}}}, "icon": "https://maps.gstatic.com/mapfiles/place_api/icons/v1/png_71/school-71.png", "icon_background_color": "#7B9EB0", "icon_mask_base_uri": "https://maps.gstatic.com/mapfiles/place_api/icons/v2/school_pinlet", "name": "Dhaknabri Bhatipara Lps", "place_id": "ChIJ_zgWhstQWDcRDG9UeKleLO4", "plus_code": {"compound_code": "8FCF+6C Kayetpara Pt I, Assam, India", "global_code": "7MRG8FCF+6C"}, "rating": 5, "reference": "ChIJ_zgWhstQWDcRDG9UeKleLO4", "scope": "GOOGLE", "types": ["school", "point_of_interest", "establishment"], "user_ratings_total": 1, "vicinity": "kochudola road"}, {"business_status": "OPERATIONAL", "geometry": {"location": {"lat": 26.3297696, "lng": 90.458822}, "viewport": {"northeast": {"lat": 26.33174153029151, "lng": 90.4626095}, "southwest": {"lat": 26.3290435697085, "lng": 90.4575595}}}, "icon": "https://maps.gstatic.com/mapfiles/place_api/icons/v1/png_71/school-71.png", "icon_background_color": "#7B9EB0", "icon_mask_base_uri": "https://maps.gstatic.com/mapfiles/place_api/icons/v2/school_pinlet", "name": "Panchagaon Pahar LPS", "place_id": "ChIJyzr4V0BXWDcRsMCQ5nwqU8g", "reference": "ChIJyzr4V0BXWDcRsMCQ5nwqU8g", "scope": "GOOGLE", "types": ["school", "point_of_interest", "establishment"], "vicinity": "8FH5+WG4, Arimari"}, {"business_status": "OPERATIONAL", "geometry": {"location": {"lat": 26.31819969999999, "lng": 90.47391449999999}, "viewport": {"northeast": {"lat": 26.3195401802915, "lng": 90.47525578029149}, "southwest": {"lat": 26.3168422197085, "lng": 90.47255781970848}}}, "icon": "https://maps.gstatic.com/mapfiles/place_api/icons/v1/png_71/school-71.png", "icon_background_color": "#7B9EB0", "icon_mask_base_uri": "https://maps.gstatic.com/mapfiles/place_api/icons/v2/school_pinlet", "name": "SB Model Academy", "place_id": "ChIJKTcsfeRRWDcRrggclumYDgA", "plus_code": {"compound_code": "8F9F+7H Kayetpara Pt I, Assam, India", "global_code": "7MRG8F9F+7H"}, "reference": "ChIJKTcsfeRRWDcRrggclumYDgA", "scope": "GOOGLE", "types": ["school", "point_of_interest", "establishment"], "vicinity": "Kayetpara Pt I Road, Kayetpara Pt I"}, {"business_status": "OPERATIONAL", "geometry": {"location": {"lat": 26.3193717, "lng": 90.47438}, "viewport": {"northeast": {"lat": 26.3207676802915, "lng": 90.4757517802915}, "southwest": {"lat": 26.3180697197085, "lng": 90.47305381970848}}}, "icon": "https://maps.gstatic.com/mapfiles/place_api/icons/v1/png_71/school-71.png", "icon_background_color": "#7B9EB0", "icon_mask_base_uri": "https://maps.gstatic.com/mapfiles/place_api/icons/v2/school_pinlet", "name": "Falah Academy", "opening_hours": {"open_now": true}, "place_id": "ChIJ5wIbOzRRWDcRZhwP39A18oc", "plus_code": {"compound_code": "8F9F+PQ Kayetpara Pt I, Assam, India", "global_code": "7MRG8F9F+PQ"}, "reference": "ChIJ5wIbOzRRWDcRZhwP39A18oc", "scope": "GOOGLE", "types": ["school", "point_of_interest", "establishment"], "vicinity": "Road, Kayetpara Pt I"}, {"business_status": "OPERATIONAL", "geometry": {"location": {"lat": 26.3326654, "lng": 90.4640936}, "viewport": {"northeast": {"lat": 26.3339416302915, "lng": 90.4654997302915}, "southwest": {"lat": 26.3312436697085, "lng": 90.46280176970849}}}, "icon": "https://maps.gstatic.com/mapfiles/place_api/icons/v1/png_71/school-71.png", "icon_background_color": "#7B9EB0", "icon_mask_base_uri": "https://maps.gstatic.com/mapfiles/place_api/icons/v2/school_pinlet", "name": "Meskajhar L P school", "photos": [{"height": 3120, "html_attributions": ["<a href=\"https://maps.google.com/maps/contrib/100439146217790338720\">Anamul Hoque</a>"], "photo_reference": "Aap_uECgs8Ht8sGKc9CyFxPED0rxY-bCdrVsYL9Tdwmg_tzT0a-vNuGE43Dvk_RLyrVDSUrbpDpY29IJvgCk4th2zD-N2mK3LTOx8m9PUqE0tP76BD0hxuqv4EqBs-pX392s1M7tXVqA6r9mCVeKbPuJlhuWCFIIjD5HoO1FUDqwJpLGWd1E", "width": 4160}], "place_id": "ChIJQxC_HPJXWDcRVmKlf-luxQo", "rating": 4.5, "reference": "ChIJQxC_HPJXWDcRVmKlf-luxQo", "scope": "GOOGLE", "types": ["school", "point_of_interest", "establishment"], "user_ratings_total": 2, "vicinity": "8FM7+3J8, Pachagaon Pt I"}, {"business_status": "OPERATIONAL", "geometry": {"location": {"lat": 26.3250758, "lng": 90.4525852}, "viewport": {"northeast": {"lat": 26.3263505302915, "lng": 90.45388443029151}, "southwest": {"lat": 26.3236525697085, "lng": 90.45118646970849}}}, "icon": "https://maps.gstatic.com/mapfiles/place_api/icons/v1/png_71/school-71.png", "icon_background_color": "#7B9EB0", "icon_mask_base_uri": "https://maps.gstatic.com/mapfiles/place_api/icons/v2/school_pinlet", "name": "Haldibari LP School,Bahalpur", "photos": [{"height": 768, "html_attributions": ["<a href=\"https://maps.google.com/maps/contrib/118292071416008725233\">Maniruddin Mansuri</a>"], "photo_reference": "Aap_uEAF9n2BGhX0e25DwxoIlTzTcrzmrWSs-54Dq8luf84q6TmhqwW17nDzpGTUYG7y1ZFfzTyCdn-NGlgmAPOR39hmDmrnVjRdlgtd7QayJ6e6IzC1nGPpNgfcGdxxlzepv8luuLWKCBzOAob1x4TjsNdX4ygp5h5NRa9KpdGl-9krzJJR", "width": 1024}], "place_id": "ChIJM6qLJ1VXWDcR02NrHLL_Qnw", "plus_code": {"compound_code": "8FG3+22 Bahalpur, Assam, India", "global_code": "7MRG8FG3+22"}, "rating": 3, "reference": "ChIJM6qLJ1VXWDcR02NrHLL_Qnw", "scope": "GOOGLE", "types": ["primary_school", "school", "point_of_interest", "establishment"], "user_ratings_total": 2, "vicinity": "Bahalpur - Kokrajhar Road, Bahalpur"}, {"business_status": "OPERATIONAL", "geometry": {"location": {"lat": 26.3106702, "lng": 90.4700139}, "viewport": {"northeast": {"lat": 26.3123312802915, "lng": 90.4714948802915}, "southwest": {"lat": 26.3096333197085, "lng": 90.4687969197085}}}, "icon": "https://maps.gstatic.com/mapfiles/place_api/icons/v1/png_71/school-71.png", "icon_background_color": "#7B9EB0", "icon_mask_base_uri": "https://maps.gstatic.com/mapfiles/place_api/icons/v2/school_pinlet", "name": "Segunjhari L P School, Bahalpur", "photos": [{"height": 2340, "html_attributions": ["<a href=\"https://maps.google.com/maps/contrib/102596704749246998274\">Abdul Hasem Photographer</a>"], "photo_reference": "Aap_uEAlnaFC6J8CRsRmRXqUBSExDUNcvMJw7Csylqrz9FKkh4n5AZelfe3thOSvQCbfoYvSizycG6rZM9dztoJrcRsAZoqzv_fCcqNVs4tX5WlTVh_CG9rt83IJjntR3eWJ5VKDjUT-hYM6fbcJtlIl95RxieZ9vE219XHjS2yhf_FP-pHe", "width": 4160}], "place_id": "ChIJtyZ6lMdQWDcR42t0DSdFypA", "reference": "ChIJtyZ6lMdQWDcR42t0DSdFypA", "scope": "GOOGLE", "types": ["primary_school", "school", "point_of_interest", "establishment"], "vicinity": "8F6C+726, Bahalpur Pt.II"}], "status": "OK"}