{"html_attributions": [], "results": [{"business_status": "OPERATIONAL", "geometry": {"location": {"lat": 26.36511059999999, "lng": 90.47159669999999}, "viewport": {"northeast": {"lat": 26.3664274802915, "lng": 90.4728764302915}, "southwest": {"lat": 26.3637295197085, "lng": 90.4701784697085}}}, "icon": "https://maps.gstatic.com/mapfiles/place_api/icons/v1/png_71/school-71.png", "icon_background_color": "#7B9EB0", "icon_mask_base_uri": "https://maps.gstatic.com/mapfiles/place_api/icons/v2/school_pinlet", "name": "Dhantola", "photos": [{"height": 612, "html_attributions": ["<a href=\"https://maps.google.com/maps/contrib/100310404605031239253\">Dibyajyoti Choudhury</a>"], "photo_reference": "Aap_uEBFpybrsrNNr4OjtrrfZKzuPZmmXphqur1pySKl7f-MGaCoNhJPbXxgHGwPj1Ps0fnK9e-ovHkv4_LS8jZgAOUubJRbhejjhNC7SVWRZveFtUO12uvTjAmQzXOu07MAmeCvFRYf5FQgC5sR69hpi2xm1M8lteltFR8HSrlnoXLRyeoe", "width": 816}], "place_id": "ChIJqZnWfQxXWDcR4HWP91T6Mpw", "plus_code": {"compound_code": "9F8C+2J Dhantola, Assam, India", "global_code": "7MRG9F8C+2J"}, "rating": 4, "reference": "ChIJqZnWfQxXWDcR4HWP91T6Mpw", "scope": "GOOGLE", "types": ["school", "point_of_interest", "establishment"], "user_ratings_total": 2, "vicinity": "India"}, {"business_status": "OPERATIONAL", "geometry": {"location": {"lat": 26.36518719999999, "lng": 90.4861899}, "viewport": {"northeast": {"lat": 26.3665248302915, "lng": 90.48780508029151}, "southwest": {"lat": 26.3638268697085, "lng": 90.48510711970849}}}, "icon": "https://maps.gstatic.com/mapfiles/place_api/icons/v1/png_71/school-71.png", "icon_background_color": "#7B9EB0", "icon_mask_base_uri": "https://maps.gstatic.com/mapfiles/place_api/icons/v2/school_pinlet", "name": "ALONE BOY", "place_id": "ChIJkUi6_slXWDcRThEWlRXSYeo", "reference": "ChIJkUi6_slXWDcRThEWlRXSYeo", "scope": "GOOGLE", "types": ["secondary_school", "school", "point_of_interest", "establishment"], "vicinity": "9F8P+3FG, Sudamvita"}, {"business_status": "OPERATIONAL", "geometry": {"location": {"lat": 26.3624343, "lng": 90.4902314}, "viewport": {"northeast": {"lat": 26.3638029802915, "lng": 90.49158113029151}, "southwest": {"lat": 26.3611050197085, "lng": 90.4888831697085}}}, "icon": "https://maps.gstatic.com/mapfiles/place_api/icons/v1/png_71/school-71.png", "icon_background_color": "#7B9EB0", "icon_mask_base_uri": "https://maps.gstatic.com/mapfiles/place_api/icons/v2/school_pinlet", "name": "Jalakhata Junior Basic School", "photos": [{"height": 1200, "html_attributions": ["<a href=\"https://maps.google.com/maps/contrib/101861829474685723867\">Himangshu Roy Sarkar</a>"], "photo_reference": "Aap_uEDzD_vRarq9JhCj83BKkjf8m5XXiG5EheXWsMh_q-cHX9i5oh1_2pB7QQ7Rm9iEPDFSMiIkXw0k33svXYIkmGunIEwgPzZh1lWE7ogILp_N3XExUQFEhDWrlgiSxwuHFkDPTa_JPpXmsa20QocVRrt7Z76_T4Isn1_I5A0ghzvzrC0l", "width": 1600}], "place_id": "ChIJNdFkAP1WWDcRQEX7y82TWmI", "plus_code": {"compound_code": "9F6R+X3 Dhantola, Assam, India", "global_code": "7MRG9F6R+X3"}, "rating": 4.7, "reference": "ChIJNdFkAP1WWDcRQEX7y82TWmI", "scope": "GOOGLE", "types": ["school", "point_of_interest", "establishment"], "user_ratings_total": 9, "vicinity": "Dhantola-Kasarpara Road, Dhantola"}, {"business_status": "OPERATIONAL", "geometry": {"location": {"lat": 26.3613708, "lng": 90.47374549999999}, "viewport": {"northeast": {"lat": 26.36268488029151, "lng": 90.47501798029151}, "southwest": {"lat": 26.3599869197085, "lng": 90.4723200197085}}}, "icon": "https://maps.gstatic.com/mapfiles/place_api/icons/v1/png_71/school-71.png", "icon_background_color": "#7B9EB0", "icon_mask_base_uri": "https://maps.gstatic.com/mapfiles/place_api/icons/v2/school_pinlet", "name": "LITTLE BRIGHT ACADEMY", "opening_hours": {"open_now": true}, "photos": [{"height": 4160, "html_attributions": ["<a href=\"https://maps.google.com/maps/contrib/109058264030406335656\">Debashis Deb</a>"], "photo_reference": "Aap_uEDF2p-YcrBG_xVI0KY0zyRRVJ38cvlDYcOq0hAhdZ-78eisNSbLYJVrhhNLkEIMvpYOuRKEyAmiSvTMBsbpTSvKyAtGQu2CsNz539uIY2Fpxt-Xd5hYGgIeVUarKvNrrVgs8XoBVSpnxsOyI7wEhNs_EOo5VZ1nepgXEAXGKz6_hpyN", "width": 3120}], "place_id": "ChIJCwM53w1XWDcRRqQaBIyn4TE", "plus_code": {"compound_code": "9F6F+GF Dhantola, Assam, India", "global_code": "7MRG9F6F+GF"}, "reference": "ChIJCwM53w1XWDcRRqQaBIyn4TE", "scope": "GOOGLE", "types": ["school", "point_of_interest", "establishment"], "vicinity": "Talguri - Basugaon PWD Road, Dhantola"}, {"business_status": "OPERATIONAL", "geometry": {"location": {"lat": 26.3705381, "lng": 90.4793976}, "viewport": {"northeast": {"lat": 26.3717680302915, "lng": 90.48071998029151}, "southwest": {"lat": 26.3690700697085, "lng": 90.47802201970849}}}, "icon": "https://maps.gstatic.com/mapfiles/place_api/icons/v1/png_71/school-71.png", "icon_background_color": "#7B9EB0", "icon_mask_base_uri": "https://maps.gstatic.com/mapfiles/place_api/icons/v2/school_pinlet", "name": "Bajitpara L. P. School", "photos": [{"height": 3264, "html_attributions": ["<a href=\"https://maps.google.com/maps/contrib/110422388925132717437\">Debajit Choudhury</a>"], "photo_reference": "Aap_uEA3l7GwbMIBrV5G-6YhKs2aCgowX7jipEdg60stQ-Ok_xyP9NvZfrkvmASuLM2cv1OWQ5QUsQ18xRda9gwqB-mi8se20e97DzK-RIKH7_7Dos0e0t1MVXnvkfw11-ubHpKGGCHsXptwYGBzi7Ft_0RFNxw96ErhWrZrrUd13wWm6yYE", "width": 2448}], "place_id": "ChIJv4XskFlXWDcRm9r2C1LQRec", "rating": 5, "reference": "ChIJv4XskFlXWDcRm9r2C1LQRec", "scope": "GOOGLE", "types": ["school", "point_of_interest", "establishment"], "user_ratings_total": 3, "vicinity": "9FCH+6Q6, Bajitpara"}, {"business_status": "OPERATIONAL", "geometry": {"location": {"lat": 26.355209, "lng": 90.4759773}, "viewport": {"northeast": {"lat": 26.3565708302915, "lng": 90.47739073029149}, "southwest": {"lat": 26.3538728697085, "lng": 90.47469276970848}}}, "icon": "https://maps.gstatic.com/mapfiles/place_api/icons/v1/png_71/school-71.png", "icon_background_color": "#7B9EB0", "icon_mask_base_uri": "https://maps.gstatic.com/mapfiles/place_api/icons/v2/school_pinlet", "name": "Dhantola LP School", "place_id": "ChIJ02WlGBFXWDcRvqSOF_TXkJQ", "plus_code": {"compound_code": "9F4G+39 Dhantola, Assam, India", "global_code": "7MRG9F4G+39"}, "rating": 5, "reference": "ChIJ02WlGBFXWDcRvqSOF_TXkJQ", "scope": "GOOGLE", "types": ["primary_school", "school", "point_of_interest", "establishment"], "user_ratings_total": 1, "vicinity": "India"}, {"business_status": "OPERATIONAL", "geometry": {"location": {"lat": 26.3551754, "lng": 90.4756546}, "viewport": {"northeast": {"lat": 26.3565686302915, "lng": 90.4772257802915}, "southwest": {"lat": 26.35387066970849, "lng": 90.47452781970848}}}, "icon": "https://maps.gstatic.com/mapfiles/place_api/icons/v1/png_71/school-71.png", "icon_background_color": "#7B9EB0", "icon_mask_base_uri": "https://maps.gstatic.com/mapfiles/place_api/icons/v2/school_pinlet", "name": "Dhantola Me School", "place_id": "ChIJ04gJGBFXWDcRFtzwHIgOg4U", "plus_code": {"compound_code": "9F4G+37 Dhantola, Assam, India", "global_code": "7MRG9F4G+37"}, "reference": "ChIJ04gJGBFXWDcRFtzwHIgOg4U", "scope": "GOOGLE", "types": ["school", "point_of_interest", "establishment"], "vicinity": "India"}, {"business_status": "OPERATIONAL", "geometry": {"location": {"lat": 26.3639628, "lng": 90.4724818}, "viewport": {"northeast": {"lat": 26.3652389302915, "lng": 90.47367108029151}, "southwest": {"lat": 26.3625409697085, "lng": 90.4709731197085}}}, "icon": "https://maps.gstatic.com/mapfiles/place_api/icons/v1/png_71/school-71.png", "icon_background_color": "#7B9EB0", "icon_mask_base_uri": "https://maps.gstatic.com/mapfiles/place_api/icons/v2/school_pinlet", "name": "Kasturba Girls High School", "place_id": "ChIJt2gjI3JXWDcRjktc2aHPn6I", "plus_code": {"compound_code": "9F7C+HX Dhantola, Assam, India", "global_code": "7MRG9F7C+HX"}, "reference": "ChIJt2gjI3JXWDcRjktc2aHPn6I", "scope": "GOOGLE", "types": ["secondary_school", "school", "point_of_interest", "establishment"], "vicinity": "Talguri - Basugaon PWD Road, Dhantola"}, {"business_status": "OPERATIONAL", "geometry": {"location": {"lat": 26.3636527, "lng": 90.47093249999999}, "viewport": {"northeast": {"lat": 26.3649881802915, "lng": 90.4723809302915}, "southwest": {"lat": 26.3622902197085, "lng": 90.46968296970849}}}, "icon": "https://maps.gstatic.com/mapfiles/place_api/icons/v1/png_71/school-71.png", "icon_background_color": "#7B9EB0", "icon_mask_base_uri": "https://maps.gstatic.com/mapfiles/place_api/icons/v2/school_pinlet", "name": "Nankar Gaon High & ME School", "place_id": "ChIJKwP28QxXWDcR7l0ZiG7PIKY", "rating": 4, "reference": "ChIJKwP28QxXWDcR7l0ZiG7PIKY", "scope": "GOOGLE", "types": ["school", "point_of_interest", "establishment"], "user_ratings_total": 1, "vicinity": "9F7C+F97, Nankargaon"}, {"business_status": "OPERATIONAL", "geometry": {"location": {"lat": 26.3639621, "lng": 90.47094039999999}, "viewport": {"northeast": {"lat": 26.3652946302915, "lng": 90.4724105802915}, "southwest": {"lat": 26.36259666970849, "lng": 90.46971261970849}}}, "icon": "https://maps.gstatic.com/mapfiles/place_api/icons/v1/png_71/school-71.png", "icon_background_color": "#7B9EB0", "icon_mask_base_uri": "https://maps.gstatic.com/mapfiles/place_api/icons/v2/school_pinlet", "name": "Nankargaon H.E School", "photos": [{"height": 1110, "html_attributions": ["<a href=\"https://maps.google.com/maps/contrib/114351835386854563026\">Rosidul Islam</a>"], "photo_reference": "Aap_uEDOQC7wyhF9VijenXsbU3oK1CkihP595h3lO1jjLkc_1ZOAnVqwYNOdOW5pqRqYsimygIEWBjzpghD2KMtisNY-h2PRMmXMP2yM_u8FnWKyNzpzv6_EtEtl3CtTQeNSEhaGH4T7Mg9p8xblQxwNYkpLo1UYxfPp4ZDV-0mzDrmAAIjO", "width": 704}], "place_id": "ChIJ5Q258gxXWDcRXjk0A3ZTv5g", "reference": "ChIJ5Q258gxXWDcRXjk0A3ZTv5g", "scope": "GOOGLE", "types": ["school", "point_of_interest", "establishment"], "vicinity": "9F7C+H9P, Nankargaon"}, {"business_status": "OPERATIONAL", "geometry": {"location": {"lat": 26.3669469, "lng": 90.4719102}, "viewport": {"northeast": {"lat": 26.3687617302915, "lng": 90.4733597802915}, "southwest": {"lat": 26.36606376970849, "lng": 90.4706618197085}}}, "icon": "https://maps.gstatic.com/mapfiles/place_api/icons/v1/png_71/school-71.png", "icon_background_color": "#7B9EB0", "icon_mask_base_uri": "https://maps.gstatic.com/mapfiles/place_api/icons/v2/school_pinlet", "name": "\u09ae\u09bf\u09b2\u09a8\u099c\u09cd\u09af\u09cb\u09a4\u09bf \u099c\u09be\u09a4\u09c0\u09df \u09ac\u09bf\u09a6\u09cd\u09af\u09be\u09b2\u09df", "place_id": "ChIJAVOHmAtXWDcRlLIBS77mgI4", "reference": "ChIJAVOHmAtXWDcRlLIBS77mgI4", "scope": "GOOGLE", "types": ["school", "point_of_interest", "establishment"], "vicinity": "9F8C+QQF, Dhantola"}, {"business_status": "OPERATIONAL", "geometry": {"location": {"lat": 26.374399, "lng": 90.4814389}, "viewport": {"northeast": {"lat": 26.3755489302915, "lng": 90.48280968029151}, "southwest": {"lat": 26.3728509697085, "lng": 90.4801117197085}}}, "icon": "https://maps.gstatic.com/mapfiles/place_api/icons/v1/png_71/school-71.png", "icon_background_color": "#7B9EB0", "icon_mask_base_uri": "https://maps.gstatic.com/mapfiles/place_api/icons/v2/school_pinlet", "name": "\u09ac\u09be\u09b9\u09bf\u09f0\u09be \u099b\u09c7\u0982\u09ae\u09be\u09f0\u09c0", "place_id": "ChIJ-2ZQJvxXWDcRRPKs_HKmm14", "reference": "ChIJ-2ZQJvxXWDcRRPKs_HKmm14", "scope": "GOOGLE", "types": ["school", "point_of_interest", "establishment"], "vicinity": "9FFJ+QH4, Bajitpara"}, {"geometry": {"location": {"lat": 26.3642027, "lng": 90.4722069}, "viewport": {"northeast": {"lat": 26.36554565391573, "lng": 90.47368209750765}, "southwest": {"lat": 26.36284769333272, "lng": 90.47098413692464}}}, "icon": "https://maps.gstatic.com/mapfiles/place_api/icons/v1/png_71/school-71.png", "icon_background_color": "#7B9EB0", "icon_mask_base_uri": "https://maps.gstatic.com/mapfiles/place_api/icons/v2/school_pinlet", "name": "Kasturba Girls High School", "place_id": "ChIJzReCaQxXWDcREkP7p_s19n0", "reference": "ChIJzReCaQxXWDcREkP7p_s19n0", "scope": "GOOGLE", "types": ["secondary_school", "premise", "school", "establishment"], "vicinity": "Dhantola"}], "status": "OK"}