{"html_attributions": [], "results": [{"business_status": "OPERATIONAL", "geometry": {"location": {"lat": 26.398184, "lng": 90.4842517}, "viewport": {"northeast": {"lat": 26.3994146802915, "lng": 90.48508158029149}, "southwest": {"lat": 26.3967167197085, "lng": 90.48238361970849}}}, "icon": "https://maps.gstatic.com/mapfiles/place_api/icons/v1/png_71/school-71.png", "icon_background_color": "#7B9EB0", "icon_mask_base_uri": "https://maps.gstatic.com/mapfiles/place_api/icons/v2/school_pinlet", "name": "Assisi school majhigaon", "photos": [{"height": 3456, "html_attributions": ["<a href=\"https://maps.google.com/maps/contrib/116801957062968295083\">Bee10 Robe</a>"], "photo_reference": "Aap_uEA9pPurGF-bNPghZgx6rnls0YYYxd2zUdAdyQa6sEN7h6aOJSZ9felkpcNy6SdjdVphub4sWMTE_z1JGSKr-i7h9Yuv1i0F2PaL7JBJ8sXSw3G4K11mcI7g49--TGGoerKXeWPZhubI8yJxWv9oLOXN4JmARVQm5X3SIy9zz7vZttPi", "width": 4608}], "place_id": "ChIJjfKyECVXWDcReBl7MSX5XzA", "reference": "ChIJjfKyECVXWDcReBl7MSX5XzA", "scope": "GOOGLE", "types": ["school", "point_of_interest", "establishment"], "vicinity": "9FXM+7PC, Majhigaon"}, {"business_status": "OPERATIONAL", "geometry": {"location": {"lat": 26.4111719, "lng": 90.4915329}, "viewport": {"northeast": {"lat": 26.41311128029151, "lng": 90.4924419802915}, "southwest": {"lat": 26.4104133197085, "lng": 90.4897440197085}}}, "icon": "https://maps.gstatic.com/mapfiles/place_api/icons/v1/png_71/school-71.png", "icon_background_color": "#7B9EB0", "icon_mask_base_uri": "https://maps.gstatic.com/mapfiles/place_api/icons/v2/school_pinlet", "name": "Mamugaon L.P school", "place_id": "ChIJq6qqaixWWDcRyDUNsRJ2OvY", "reference": "ChIJq6qqaixWWDcRyDUNsRJ2OvY", "scope": "GOOGLE", "types": ["school", "point_of_interest", "establishment"], "vicinity": "CF6R+FJ7, Mamugaon"}, {"business_status": "OPERATIONAL", "geometry": {"location": {"lat": 26.4079303, "lng": 90.4965242}, "viewport": {"northeast": {"lat": 26.41448515, "lng": 90.4978368802915}, "southwest": {"lat": 26.40574535, "lng": 90.4951389197085}}}, "icon": "https://maps.gstatic.com/mapfiles/place_api/icons/v1/png_71/school-71.png", "icon_background_color": "#7B9EB0", "icon_mask_base_uri": "https://maps.gstatic.com/mapfiles/place_api/icons/v2/school_pinlet", "name": "\u09ae\u09be\u09ae\u09c1\u0997\u09be\u0993 \u098f\u09b2 \u09aa\u09bf \u09b8\u09cd\u0995\u09c1\u09b2", "place_id": "ChIJwUDcSJ9XWDcRNLDCNEWOqyA", "reference": "ChIJwUDcSJ9XWDcRNLDCNEWOqyA", "scope": "GOOGLE", "types": ["school", "point_of_interest", "establishment"], "vicinity": "CF5W+5JC, Mamugaon"}], "status": "OK"}