{"html_attributions": [], "results": [{"business_status": "OPERATIONAL", "geometry": {"location": {"lat": 26.3820586, "lng": 89.7647545}, "viewport": {"northeast": {"lat": 26.3834337302915, "lng": 89.76617943029152}, "southwest": {"lat": 26.3807357697085, "lng": 89.7634814697085}}}, "icon": "https://maps.gstatic.com/mapfiles/place_api/icons/v1/png_71/school-71.png", "icon_background_color": "#7B9EB0", "icon_mask_base_uri": "https://maps.gstatic.com/mapfiles/place_api/icons/v2/school_pinlet", "name": "Mahishkuchi Jr. Basic school", "opening_hours": {"open_now": true}, "photos": [{"height": 1200, "html_attributions": ["<a href=\"https://maps.google.com/maps/contrib/118436640808163091321\">Raju Sarkar</a>"], "photo_reference": "Aap_uEBgIin9_wGFkHiQyLeJ9M8htAPReeit8z1ugBABD152mMbCkPftOj9m5l7KQtpBO59jvMnR5JwUaQCwx8jwhWYRzSnnk3AE75SBjmNek-Y6V0jqi0x9udzmO-_eldzMc5u-WWANoqXM0ZqSMMLw9E0IRx2oVvKYW93TjJOl3G9httxL", "width": 1600}], "place_id": "ChIJl1vqwy-K4jkRN9BY__xBO0o", "rating": 4.5, "reference": "ChIJl1vqwy-K4jkRN9BY__xBO0o", "scope": "GOOGLE", "types": ["primary_school", "school", "point_of_interest", "establishment"], "user_ratings_total": 2, "vicinity": "9QJ7+RWC, Mahishkuchi"}, {"business_status": "OPERATIONAL", "geometry": {"location": {"lat": 26.3808971, "lng": 89.7646303}, "viewport": {"northeast": {"lat": 26.38190863029151, "lng": 89.76594633029151}, "southwest": {"lat": 26.3792106697085, "lng": 89.76324836970849}}}, "icon": "https://maps.gstatic.com/mapfiles/place_api/icons/v1/png_71/school-71.png", "icon_background_color": "#7B9EB0", "icon_mask_base_uri": "https://maps.gstatic.com/mapfiles/place_api/icons/v2/school_pinlet", "name": "MAHISHKUCHI HIGH SCHOOL", "photos": [{"height": 3120, "html_attributions": ["<a href=\"https://maps.google.com/maps/contrib/102617827201277053493\">YouTube PRASEN</a>"], "photo_reference": "Aap_uEClL3pH7SY7mM4EuGEQKwXY9CGYEcGSeLY4XGjebXs3iw5cnZ3PIlgUz0WxeuuG_d0UA4X0DT9WE-VNn2B76UpUGNgluEBjbjCtrT_xHBPlkEHAr__k_6U9fktY5sp1biMEfORCxUjB8-kq2udV9g78L0XN224MW-AO-z9UR_mTVT1x", "width": 4160}], "place_id": "ChIJOVy5TDCK4jkR-Fvf_8ypc28", "plus_code": {"compound_code": "9QJ7+9V Mahishkuchi, West Bengal, India", "global_code": "7MRF9QJ7+9V"}, "rating": 3.3, "reference": "ChIJOVy5TDCK4jkR-Fvf_8ypc28", "scope": "GOOGLE", "types": ["school", "point_of_interest", "establishment"], "user_ratings_total": 13, "vicinity": "Mahishkuchi"}, {"business_status": "OPERATIONAL", "geometry": {"location": {"lat": 26.3819313, "lng": 89.7731173}, "viewport": {"northeast": {"lat": 26.3832681302915, "lng": 89.7745117802915}, "southwest": {"lat": 26.3805701697085, "lng": 89.77181381970848}}}, "icon": "https://maps.gstatic.com/mapfiles/place_api/icons/v1/png_71/school-71.png", "icon_background_color": "#7B9EB0", "icon_mask_base_uri": "https://maps.gstatic.com/mapfiles/place_api/icons/v2/school_pinlet", "name": "Saldanga Madrasha", "photos": [{"height": 3145, "html_attributions": ["<a href=\"https://maps.google.com/maps/contrib/108900469147860456519\">Mosarab 01</a>"], "photo_reference": "Aap_uECRZJomWatxmUDx5y22yTuZnZ_2vKnyLCmF-AWZpYG3z-SWdo6x_SQ3MJdgNGC6Cp03j2rVfNXpM5D-dmKwFMEhP5RAbJvSKv3rYJn6Y56BjI-WiHzndj0SjulfjkLJ_Q-GWln8KpuJztvLd9ylQEGi85oppv8-roTKp8UFxBCUWQkX", "width": 4193}], "place_id": "ChIJ__FFOjuL4jkRIiHVBZwHTpY", "plus_code": {"compound_code": "9QJF+Q6 Mahishkuchi, West Bengal, India", "global_code": "7MRF9QJF+Q6"}, "rating": 5, "reference": "ChIJ__FFOjuL4jkRIiHVBZwHTpY", "scope": "GOOGLE", "types": ["school", "point_of_interest", "establishment"], "user_ratings_total": 1, "vicinity": "Saldanga, Mahishkuchi"}, {"business_status": "OPERATIONAL", "geometry": {"location": {"lat": 26.3780867, "lng": 89.77318939999999}, "viewport": {"northeast": {"lat": 26.3794145302915, "lng": 89.77452753029152}, "southwest": {"lat": 26.3767165697085, "lng": 89.7718295697085}}}, "icon": "https://maps.gstatic.com/mapfiles/place_api/icons/v1/png_71/school-71.png", "icon_background_color": "#7B9EB0", "icon_mask_base_uri": "https://maps.gstatic.com/mapfiles/place_api/icons/v2/school_pinlet", "name": "Saldanga Vidyasagar Vidyapith", "opening_hours": {"open_now": true}, "photos": [{"height": 3096, "html_attributions": ["<a href=\"https://maps.google.com/maps/contrib/107056513254576751191\">Nirmal Biswakarmakar</a>"], "photo_reference": "Aap_uEDCDI00u-zsNqMr69z28XT77Cf2UWhbQ4_m_V9VEUbTMFzolYF3M2WINN9g-zjKxAheivJs1hd2fUxyPQzEbZm1D4CqZA64RZYy7hrCz43_2udPa-NiafwnnSUuiPGltp4kmTEI5iNf7Z47whUpz6LoFfoSBVrrnrmTEYaWm_F9vQm9", "width": 4128}], "place_id": "ChIJj2t76N6L4jkRMa1PXUcdzf8", "rating": 5, "reference": "ChIJj2t76N6L4jkRMa1PXUcdzf8", "scope": "GOOGLE", "types": ["school", "point_of_interest", "establishment"], "user_ratings_total": 1, "vicinity": "9QHF+67P, Mahishkuchi"}, {"business_status": "OPERATIONAL", "geometry": {"location": {"lat": 26.3896965, "lng": 89.7708435}, "viewport": {"northeast": {"lat": 26.3910690802915, "lng": 89.7715414302915}, "southwest": {"lat": 26.3883711197085, "lng": 89.7688434697085}}}, "icon": "https://maps.gstatic.com/mapfiles/place_api/icons/v1/png_71/school-71.png", "icon_background_color": "#7B9EB0", "icon_mask_base_uri": "https://maps.gstatic.com/mapfiles/place_api/icons/v2/school_pinlet", "name": "maishkuchi high school", "place_id": "ChIJ_____yOK4jkRZaRA7Loig_U", "reference": "ChIJ_____yOK4jkRZaRA7Loig_U", "scope": "GOOGLE", "types": ["school", "point_of_interest", "establishment"], "vicinity": "9QQC+V8G, Mahishkuchi"}, {"business_status": "OPERATIONAL", "geometry": {"location": {"lat": 26.3879578, "lng": 89.754195}, "viewport": {"northeast": {"lat": 26.3893968302915, "lng": 89.7555551302915}, "southwest": {"lat": 26.3866988697085, "lng": 89.75285716970848}}}, "icon": "https://maps.gstatic.com/mapfiles/place_api/icons/v1/png_71/school-71.png", "icon_background_color": "#7B9EB0", "icon_mask_base_uri": "https://maps.gstatic.com/mapfiles/place_api/icons/v2/school_pinlet", "name": "Purba Bakla Sishu Shikha Kendra", "photos": [{"height": 1920, "html_attributions": ["<a href=\"https://maps.google.com/maps/contrib/105787844438970098653\">Bibidha Samgraha</a>"], "photo_reference": "Aap_uEBmwNlnoAiflClpt3dWEtgMJ9lZwYocY2BHHo1ASNgx0VAX1648-49pT_h8oDL6JA0qS8OyfVFwPRyQQgRdsDbFAYZIS50Q-Gqs88ZrB59JuRtjtpWfDaDmbfiim5CsR9qjvGtoKPh2RdgtCha7CL3O5xopHToJrQMIsd3JcIMa_NB1", "width": 2560}], "place_id": "ChIJBVhB1oCL4jkRS0jfKXYRDG0", "plus_code": {"compound_code": "9QQ3+5M Bakla, West Bengal, India", "global_code": "7MRF9QQ3+5M"}, "rating": 5, "reference": "ChIJBVhB1oCL4jkRS0jfKXYRDG0", "scope": "GOOGLE", "types": ["school", "point_of_interest", "establishment"], "user_ratings_total": 2, "vicinity": "road, Bakla Bazar, Bakla"}], "status": "OK"}