{"html_attributions": [], "results": [{"business_status": "CLOSED_TEMPORARILY", "geometry": {"location": {"lat": 25.5408119, "lng": 89.812317}, "viewport": {"northeast": {"lat": 25.54196458029151, "lng": 89.8142306802915}, "southwest": {"lat": 25.5392666197085, "lng": 89.8115327197085}}}, "icon": "https://maps.gstatic.com/mapfiles/place_api/icons/v1/png_71/school-71.png", "icon_background_color": "#7B9EB0", "icon_mask_base_uri": "https://maps.gstatic.com/mapfiles/place_api/icons/v2/school_pinlet", "name": "\u099a\u09be\u0995\u09cd\u09a4\u09be\u09ac\u09be\u09dc\u09c0 \u09b8\u09b0\u0995\u09be\u09b0\u09c0 \u09aa\u09cd\u09b0\u09be\u09a5\u09ae\u09bf\u0995 \u09ac\u09bf\u09a6\u09cd\u09af\u09be\u09b2\u09df, \u09b0\u09cc\u09ae\u09be\u09b0\u09c0", "permanently_closed": true, "photos": [{"height": 3120, "html_attributions": ["<a href=\"https://maps.google.com/maps/contrib/102197806953234469493\">Ariful Hasan</a>"], "photo_reference": "Aap_uEAzoydVwWGuewnecaEA8fcsfH47vJxgl-8qvm1uF8o7DJgI_ghwtW9wTTu4bIvcjRkNYu5ULb1r7ZmssEXsK5b3fCiQGCfnSEbAwgHNDoESGVk2FACCJGFpi6YPz8vytAqtbyz2y_sy5ML3v5qESbarx_drUmVcwcjUPnNXh4kI0Yrr", "width": 4160}], "place_id": "ChIJNwaVCatP_TkRO2TU92vxQ_I", "plus_code": {"compound_code": "GRR6+8W Konachi Para, Bangladesh", "global_code": "7MQFGRR6+8W"}, "rating": 5, "reference": "ChIJNwaVCatP_TkRO2TU92vxQ_I", "scope": "GOOGLE", "types": ["primary_school", "school", "point_of_interest", "establishment"], "user_ratings_total": 1, "vicinity": "Sweet road , Chaktabari, \u099a\u09b0 \u09b0\u09be\u099c\u09bf\u09ac\u09aa\u09c1\u09b0 - \u09b0\u09cc\u09ae\u09be\u09b0\u09c0 \u09b0\u09cb\u09a1"}, {"business_status": "CLOSED_TEMPORARILY", "geometry": {"location": {"lat": 25.5408572, "lng": 89.81259109999999}, "viewport": {"northeast": {"lat": 25.5422505302915, "lng": 89.8137242802915}, "southwest": {"lat": 25.5395525697085, "lng": 89.81102631970849}}}, "icon": "https://maps.gstatic.com/mapfiles/place_api/icons/v1/png_71/school-71.png", "icon_background_color": "#7B9EB0", "icon_mask_base_uri": "https://maps.gstatic.com/mapfiles/place_api/icons/v2/school_pinlet", "name": "chaktabari parimary school", "permanently_closed": true, "place_id": "ChIJRYo3hAFP_TkRd_73dspe4Co", "reference": "ChIJRYo3hAFP_TkRd_73dspe4Co", "scope": "GOOGLE", "types": ["school", "point_of_interest", "establishment"], "vicinity": "GRR7+82W, Chuliar Char"}, {"business_status": "OPERATIONAL", "geometry": {"location": {"lat": 25.5421773, "lng": 89.8143429}, "viewport": {"northeast": {"lat": 25.5435511302915, "lng": 89.8156157302915}, "southwest": {"lat": 25.5408531697085, "lng": 89.81291776970849}}}, "icon": "https://maps.gstatic.com/mapfiles/place_api/icons/v1/png_71/school-71.png", "icon_background_color": "#7B9EB0", "icon_mask_base_uri": "https://maps.gstatic.com/mapfiles/place_api/icons/v2/school_pinlet", "name": "Chaktabari High school", "photos": [{"height": 3120, "html_attributions": ["<a href=\"https://maps.google.com/maps/contrib/102197806953234469493\">Ariful Hasan</a>"], "photo_reference": "Aap_uEBKYFz42fTWcoAXGZWsI3_sze1Eqxzdb40-WfMsMDDxyXD3zBFQwKdDwng7Gf7tGfqSYz3douTspOoiAgxluXt9XKr6WSJVzYGku-qWFLFbw5wYhp38MCwJsrILDl3gZeTNmBQHO61tnswgsrd2A49-ZUBDdy67qKXsJGpjSXBJkLJf", "width": 4160}], "place_id": "ChIJPcEXU3dO_TkRdQDEmx1SJFk", "rating": 3.2, "reference": "ChIJPcEXU3dO_TkRdQDEmx1SJFk", "scope": "GOOGLE", "types": ["secondary_school", "school", "point_of_interest", "establishment"], "user_ratings_total": 5, "vicinity": "GRR7+VPG"}, {"business_status": "OPERATIONAL", "geometry": {"location": {"lat": 25.5312448, "lng": 89.8043191}, "viewport": {"northeast": {"lat": 25.5325877302915, "lng": 89.80566628029149}, "southwest": {"lat": 25.5298897697085, "lng": 89.80296831970848}}}, "icon": "https://maps.gstatic.com/mapfiles/place_api/icons/v1/png_71/school-71.png", "icon_background_color": "#7B9EB0", "icon_mask_base_uri": "https://maps.gstatic.com/mapfiles/place_api/icons/v2/school_pinlet", "name": "Sofistore", "place_id": "ChIJp8Tnh1ZP_TkRK6u6wp-Usg0", "plus_code": {"compound_code": "GRJ3+FP Digla Para, Bangladesh", "global_code": "7MQFGRJ3+FP"}, "reference": "ChIJp8Tnh1ZP_TkRK6u6wp-Usg0", "scope": "GOOGLE", "types": ["school", "point_of_interest", "establishment"], "vicinity": "Unnamed Road, Digla Para"}], "status": "OK"}