{"html_attributions": [], "results": [{"business_status": "OPERATIONAL", "geometry": {"location": {"lat": 26.0207751, "lng": 89.8028496}, "viewport": {"northeast": {"lat": 26.02220138029151, "lng": 89.8044952302915}, "southwest": {"lat": 26.0195034197085, "lng": 89.80179726970849}}}, "icon": "https://maps.gstatic.com/mapfiles/place_api/icons/v1/png_71/school-71.png", "icon_background_color": "#7B9EB0", "icon_mask_base_uri": "https://maps.gstatic.com/mapfiles/place_api/icons/v2/school_pinlet", "name": "Purbo Khamar Islamia Dhakil Madrasha", "place_id": "ChIJTeedtoK94jkRJH39UWfBfRU", "reference": "ChIJTeedtoK94jkRJH39UWfBfRU", "scope": "GOOGLE", "types": ["school", "point_of_interest", "establishment"], "vicinity": "2RC3+849"}, {"business_status": "OPERATIONAL", "geometry": {"location": {"lat": 26.0270581, "lng": 89.8049709}, "viewport": {"northeast": {"lat": 26.0281016802915, "lng": 89.80679013029152}, "southwest": {"lat": 26.0254037197085, "lng": 89.8040921697085}}}, "icon": "https://maps.gstatic.com/mapfiles/place_api/icons/v1/png_71/school-71.png", "icon_background_color": "#7B9EB0", "icon_mask_base_uri": "https://maps.gstatic.com/mapfiles/place_api/icons/v2/school_pinlet", "name": "\u09aa\u09c2\u09b0\u09cd\u09ac \u0996\u09be\u09ae\u09be\u09b0 \u0987\u09b8\u09b2\u09be\u09ae\u09bf\u09af\u09bc\u09be \u09a6\u09be\u0996\u09bf\u09b2 \u09ae\u09be\u09a6\u09cd\u09b0\u09be\u09b8\u09be", "place_id": "ChIJSTabhrO94jkRYdOXLGh7L3A", "plus_code": {"compound_code": "2RG3+RX Kachakata, Bangladesh", "global_code": "7MRF2RG3+RX"}, "reference": "ChIJSTabhrO94jkRYdOXLGh7L3A", "scope": "GOOGLE", "types": ["school", "point_of_interest", "establishment"], "vicinity": "khamar, Kachakata"}, {"business_status": "OPERATIONAL", "geometry": {"location": {"lat": 26.0200165, "lng": 89.7974765}, "viewport": {"northeast": {"lat": 26.02110433029151, "lng": 89.79893420000002}, "southwest": {"lat": 26.0184063697085, "lng": 89.79310339999998}}}, "icon": "https://maps.gstatic.com/mapfiles/place_api/icons/v1/png_71/school-71.png", "icon_background_color": "#7B9EB0", "icon_mask_base_uri": "https://maps.gstatic.com/mapfiles/place_api/icons/v2/school_pinlet", "name": "\u0995\u09be\u099f\u09be\u099c\u09c7\u09b2\u09be\u09b8 \u09b8\u09b0\u0995\u09be\u09b0\u09bf \u09aa\u09cd\u09b0\u09be\u09a5\u09ae\u09bf\u0995 \u09ac\u09bf\u09a6\u09cd\u09af\u09be\u09b2\u09af\u09bc (\u0996\u09be\u09ae\u09be\u09b0)", "photos": [{"height": 1944, "html_attributions": ["<a href=\"https://maps.google.com/maps/contrib/104067760184003980013\">Masud rana</a>"], "photo_reference": "Aap_uEBZfcWSqXpkkXsoWSTta7pd93NFBtkE--n-lyec1_iuvURFkHxjcuH4bTHMlUS73hwe7r5GTTtMn_oZFw0e7bCMEKHvT1AfrnUvCk1EBY9e6SlYP4lcakhxak76xS7YbWq01T5PmVkg-4_ebaPlBd8nBGIq8rI4Yrtu35GZJ4bjxneK", "width": 2592}], "place_id": "ChIJU9ppe6y94jkRe3flm9AV8e4", "reference": "ChIJU9ppe6y94jkRe3flm9AV8e4", "scope": "GOOGLE", "types": ["school", "point_of_interest", "establishment"], "vicinity": "2QCW+2X5"}, {"business_status": "OPERATIONAL", "geometry": {"location": {"lat": 26.0333922, "lng": 89.80805989999999}, "viewport": {"northeast": {"lat": 26.0347530802915, "lng": 89.80940013029151}, "southwest": {"lat": 26.0320551197085, "lng": 89.80670216970849}}}, "icon": "https://maps.gstatic.com/mapfiles/place_api/icons/v1/png_71/school-71.png", "icon_background_color": "#7B9EB0", "icon_mask_base_uri": "https://maps.gstatic.com/mapfiles/place_api/icons/v2/school_pinlet", "name": "Shuverkuty Gov. Primary", "place_id": "ChIJe-E6c-294jkRBT7t7kfEfvk", "plus_code": {"compound_code": "2RM5+96 Kachakata, Bangladesh", "global_code": "7MRF2RM5+96"}, "reference": "ChIJe-E6c-294jkRBT7t7kfEfvk", "scope": "GOOGLE", "types": ["school", "point_of_interest", "establishment"], "vicinity": "\u09a8\u09be\u0997\u09c7\u09b6\u09cd\u09ac\u09b0\u09c0 \u0989\u09aa\u099c\u09c7\u09b2\u09be, Shuverkuty"}], "status": "OK"}