{"html_attributions": [], "results": [{"business_status": "OPERATIONAL", "geometry": {"location": {"lat": 26.2290856, "lng": 89.8055657}, "viewport": {"northeast": {"lat": 26.2304722802915, "lng": 89.8074206302915}, "southwest": {"lat": 26.22777431970849, "lng": 89.8047226697085}}}, "icon": "https://maps.gstatic.com/mapfiles/place_api/icons/v1/png_71/school-71.png", "icon_background_color": "#7B9EB0", "icon_mask_base_uri": "https://maps.gstatic.com/mapfiles/place_api/icons/v2/school_pinlet", "name": "NAYEB ALI MEMORIAL L.P SCHOOL", "opening_hours": {"open_now": true}, "place_id": "ChIJUUYFibiR4jkRIOUdZpY8FnA", "rating": 5, "reference": "ChIJUUYFibiR4jkRIOUdZpY8FnA", "scope": "GOOGLE", "types": ["school", "point_of_interest", "establishment"], "user_ratings_total": 4, "vicinity": "6RH4+J6P, Uttarmora Gadhadhar"}, {"business_status": "OPERATIONAL", "geometry": {"location": {"lat": 26.2323451, "lng": 89.7989889}, "viewport": {"northeast": {"lat": 26.2336245802915, "lng": 89.8003348802915}, "southwest": {"lat": 26.23092661970849, "lng": 89.7976369197085}}}, "icon": "https://maps.gstatic.com/mapfiles/place_api/icons/v1/png_71/school-71.png", "icon_background_color": "#7B9EB0", "icon_mask_base_uri": "https://maps.gstatic.com/mapfiles/place_api/icons/v2/school_pinlet", "name": "2208 No Abalrdham School", "place_id": "ChIJf6F1HkmP4jkRRDlEMF3vI8A", "plus_code": {"compound_code": "6QJX+WH Uttarmora Gadhadhar, Assam, India", "global_code": "7MRF6QJX+WH"}, "reference": "ChIJf6F1HkmP4jkRRDlEMF3vI8A", "scope": "GOOGLE", "types": ["school", "point_of_interest", "establishment"], "vicinity": "Unnamed Road, Uttarmora Gadhadhar"}, {"business_status": "OPERATIONAL", "geometry": {"location": {"lat": 26.2163789, "lng": 89.7919695}, "viewport": {"northeast": {"lat": 26.2175582302915, "lng": 89.79744195}, "southwest": {"lat": 26.2148602697085, "lng": 89.79014534999997}}}, "icon": "https://maps.gstatic.com/mapfiles/place_api/icons/v1/png_71/school-71.png", "icon_background_color": "#7B9EB0", "icon_mask_base_uri": "https://maps.gstatic.com/mapfiles/place_api/icons/v2/school_pinlet", "name": "Sakil Khan", "photos": [{"height": 3232, "html_attributions": ["<a href=\"https://maps.google.com/maps/contrib/115814003747560539653\">Sakil video</a>"], "photo_reference": "Aap_uEAcOV7jC615QiLkhSTd7oeLgymlO0qGhJxEPWnhfl5yS54Y5A5Pf1zIyvbYbl8tZBfJDdawKECQGCeymjnUY_Db6dmY6Uv-pCSic03DWRYv1vMIkydo2z757T8jRqMrqnJe-LL1k8zwY3M_02-ipL53DODzHaWv8G2eWZcljopddn7I", "width": 1536}], "place_id": "ChIJ7a5bNe-R4jkRffb3FviamWc", "plus_code": {"compound_code": "6Q8R+HQ Kaldoba Pt.II, Assam, India", "global_code": "7MRF6Q8R+HQ"}, "rating": 3, "reference": "ChIJ7a5bNe-R4jkRffb3FviamWc", "scope": "GOOGLE", "types": ["school", "point_of_interest", "establishment"], "user_ratings_total": 2, "vicinity": "Kaldoba Pt.II"}], "status": "OK"}