{"html_attributions": [], "results": [{"business_status": "OPERATIONAL", "geometry": {"location": {"lat": 26.1415459, "lng": 89.8238318}, "viewport": {"northeast": {"lat": 26.1428935302915, "lng": 89.82506703029149}, "southwest": {"lat": 26.1401955697085, "lng": 89.82236906970849}}}, "icon": "https://maps.gstatic.com/mapfiles/place_api/icons/v1/png_71/school-71.png", "icon_background_color": "#7B9EB0", "icon_mask_base_uri": "https://maps.gstatic.com/mapfiles/place_api/icons/v2/school_pinlet", "name": "712 no. Ratiadaha LP school", "place_id": "ChIJEZetXAWR4jkRyjB-dmLY3PU", "plus_code": {"compound_code": "4RRF+JG Golakganj, Assam, India", "global_code": "7MRF4RRF+JG"}, "reference": "ChIJEZetXAWR4jkRyjB-dmLY3PU", "scope": "GOOGLE", "types": ["school", "point_of_interest", "establishment"], "vicinity": "L. P SCHOOL, Dhubri 712 NO RATIADAHA, Golakganj"}, {"business_status": "CLOSED_TEMPORARILY", "geometry": {"location": {"lat": 26.14743819999999, "lng": 89.8188294}, "viewport": {"northeast": {"lat": 26.1508843, "lng": 89.82122145}, "southwest": {"lat": 26.14628949999999, "lng": 89.81803205000001}}}, "icon": "https://maps.gstatic.com/mapfiles/place_api/icons/v1/png_71/school-71.png", "icon_background_color": "#7B9EB0", "icon_mask_base_uri": "https://maps.gstatic.com/mapfiles/place_api/icons/v2/school_pinlet", "name": "1961 No Paschim Ratiadaha L.P School", "permanently_closed": true, "place_id": "ChIJvWjC_JGR4jkRW2OrkCXi28o", "plus_code": {"compound_code": "4RW9+XG Pub Ratiadaha, Assam, India", "global_code": "7MRF4RW9+XG"}, "reference": "ChIJvWjC_JGR4jkRW2OrkCXi28o", "scope": "GOOGLE", "types": ["school", "point_of_interest", "establishment"], "vicinity": "National Highway 17, Pub Ratiadaha"}, {"business_status": "OPERATIONAL", "geometry": {"location": {"lat": 26.1367334, "lng": 89.8357422}, "viewport": {"northeast": {"lat": 26.1380518302915, "lng": 89.83708253029151}, "southwest": {"lat": 26.1353538697085, "lng": 89.8343845697085}}}, "icon": "https://maps.gstatic.com/mapfiles/place_api/icons/v1/png_71/school-71.png", "icon_background_color": "#7B9EB0", "icon_mask_base_uri": "https://maps.gstatic.com/mapfiles/place_api/icons/v2/school_pinlet", "name": "BIRAT NAGAR L P SCHOOL", "place_id": "ChIJpxfwpVeR4jkRSR7JPF-1Hgk", "rating": 4, "reference": "ChIJpxfwpVeR4jkRSR7JPF-1Hgk", "scope": "GOOGLE", "types": ["school", "point_of_interest", "establishment"], "user_ratings_total": 2, "vicinity": "4RPP+M7X, Birat Nagar Chariali, Uttar Raypur Pt.III"}, {"business_status": "OPERATIONAL", "geometry": {"location": {"lat": 26.1535483, "lng": 89.82077609999999}, "viewport": {"northeast": {"lat": 26.15670685000001, "lng": 89.82189758029149}, "southwest": {"lat": 26.15249545, "lng": 89.81919961970848}}}, "icon": "https://maps.gstatic.com/mapfiles/place_api/icons/v1/png_71/school-71.png", "icon_background_color": "#7B9EB0", "icon_mask_base_uri": "https://maps.gstatic.com/mapfiles/place_api/icons/v2/school_pinlet", "name": "Pesterghat ME School", "photos": [{"height": 2448, "html_attributions": ["<a href=\"https://maps.google.com/maps/contrib/108244100797606259413\">Prasant Roy Mandal</a>"], "photo_reference": "Aap_uEDpLt6_RYVxMQCKH2k2h7VuW7RqOsaVQ1zPMRZCL2GY8XOvlZFnhknUGPCmhlnEum_QcGsFyVJ9ZOAPax-zfef2a2Em0_vUIrhtD0OabIK3E3z4dD01cNBJHYamoSyqUjCK250xUtHBwmUQsFRQfCCt1EEqh3epdBV-ixTJNAB7ppEs", "width": 3264}], "place_id": "ChIJmyiCYtuQ4jkRorXq0VxLEeo", "rating": 4, "reference": "ChIJmyiCYtuQ4jkRorXq0VxLEeo", "scope": "GOOGLE", "types": ["school", "point_of_interest", "establishment"], "user_ratings_total": 1, "vicinity": "5R3C+C86, Pub Ratiadaha"}, {"business_status": "OPERATIONAL", "geometry": {"location": {"lat": 26.1345608, "lng": 89.83448659999999}, "viewport": {"northeast": {"lat": 26.1357989802915, "lng": 89.8358093302915}, "southwest": {"lat": 26.1331010197085, "lng": 89.83311136970849}}}, "icon": "https://maps.gstatic.com/mapfiles/place_api/icons/v1/png_71/school-71.png", "icon_background_color": "#7B9EB0", "icon_mask_base_uri": "https://maps.gstatic.com/mapfiles/place_api/icons/v2/school_pinlet", "name": "Chariali high school", "place_id": "ChIJVxul_zWX4jkR_kHlCX0Pm5o", "reference": "ChIJVxul_zWX4jkR_kHlCX0Pm5o", "scope": "GOOGLE", "types": ["school", "point_of_interest", "establishment"], "vicinity": "4RMM+RQH, Birat Nagar Chariali, Uttar Raypur Pt.III"}, {"business_status": "OPERATIONAL", "geometry": {"location": {"lat": 26.13666109999999, "lng": 89.8365308}, "viewport": {"northeast": {"lat": 26.1380708802915, "lng": 89.83761063029151}, "southwest": {"lat": 26.13537291970849, "lng": 89.8349126697085}}}, "icon": "https://maps.gstatic.com/mapfiles/place_api/icons/v1/png_71/school-71.png", "icon_background_color": "#7B9EB0", "icon_mask_base_uri": "https://maps.gstatic.com/mapfiles/place_api/icons/v2/school_pinlet", "name": "J.T.S. English Medium School.", "opening_hours": {"open_now": true}, "photos": [{"height": 600, "html_attributions": ["<a href=\"https://maps.google.com/maps/contrib/109307882493920381144\">Dr Abul Fazal Sarkar</a>"], "photo_reference": "Aap_uECQEEGa4q8SwSlY62KSH9qlyRiTg9YGY5dTKf902nImkPZG9IW0Fi4kfUmlCgi-_Hx_2X5O2hQkTLhYKGq0WlRUn4JXzaVy71e8cySte5kcQnrINuolaK6HleF0rj8311rqchDljzwbRFu2SWwCOgx2BVwoZ8pQ973dJk1CRuc5Hkmn", "width": 800}], "place_id": "ChIJs2KlpbSQ4jkRKQbaPh75swA", "plus_code": {"compound_code": "4RPP+MJ Uttar Raypur Pt.III, Assam, India", "global_code": "7MRF4RPP+MJ"}, "rating": 4.3, "reference": "ChIJs2KlpbSQ4jkRKQbaPh75swA", "scope": "GOOGLE", "types": ["school", "point_of_interest", "establishment"], "user_ratings_total": 10, "vicinity": "Birat Nagar Chariali, Dhubri"}, {"business_status": "OPERATIONAL", "geometry": {"location": {"lat": 26.1346303, "lng": 89.8355062}, "viewport": {"northeast": {"lat": 26.13599038029151, "lng": 89.8367992802915}, "southwest": {"lat": 26.1332924197085, "lng": 89.83410131970848}}}, "icon": "https://maps.gstatic.com/mapfiles/place_api/icons/v1/png_71/school-71.png", "icon_background_color": "#7B9EB0", "icon_mask_base_uri": "https://maps.gstatic.com/mapfiles/place_api/icons/v2/school_pinlet", "name": "Maa shoes star", "place_id": "ChIJr6dZ-ROX4jkRJ1PQ478P1E0", "reference": "ChIJr6dZ-ROX4jkRJ1PQ478P1E0", "scope": "GOOGLE", "types": ["school", "point_of_interest", "establishment"], "vicinity": "4RMP+V62, Birat Nagar Chariali, Uttar Raypur Pt.III"}], "status": "OK"}