{"html_attributions": [], "results": [{"business_status": "OPERATIONAL", "geometry": {"location": {"lat": 25.6225775, "lng": 89.83854509999999}, "viewport": {"northeast": {"lat": 25.6239414302915, "lng": 89.8399427302915}, "southwest": {"lat": 25.6212434697085, "lng": 89.83724476970849}}}, "icon": "https://maps.gstatic.com/mapfiles/place_api/icons/v1/png_71/school-71.png", "icon_background_color": "#7B9EB0", "icon_mask_base_uri": "https://maps.gstatic.com/mapfiles/place_api/icons/v2/school_pinlet", "name": "\u099f\u09be\u09aa\u09c1\u09b0 \u099a\u09b0 \u09b8\u09b0\u0995\u09be\u09b0\u09bf \u09aa\u09cd\u09b0\u09be\u09a5\u09ae\u09bf\u0995 \u09ac\u09bf\u09a6\u09cd\u09af\u09be\u09b2\u09df", "place_id": "ChIJ7dVWcGJN_TkR4SeQH72GrhQ", "plus_code": {"compound_code": "JRFQ+2C Boraikandi, Bangladesh", "global_code": "7MQFJRFQ+2C"}, "rating": 5, "reference": "ChIJ7dVWcGJN_TkR4SeQH72GrhQ", "scope": "GOOGLE", "types": ["primary_school", "school", "point_of_interest", "establishment"], "user_ratings_total": 1, "vicinity": "Tapurchar Road"}, {"business_status": "OPERATIONAL", "geometry": {"location": {"lat": 25.622589, "lng": 89.838408}, "viewport": {"northeast": {"lat": 25.6239712302915, "lng": 89.83986513029151}, "southwest": {"lat": 25.6212732697085, "lng": 89.8371671697085}}}, "icon": "https://maps.gstatic.com/mapfiles/place_api/icons/v1/png_71/school-71.png", "icon_background_color": "#7B9EB0", "icon_mask_base_uri": "https://maps.gstatic.com/mapfiles/place_api/icons/v2/school_pinlet", "name": "Tapurchar Govt. Primary School", "opening_hours": {"open_now": true}, "photos": [{"height": 1728, "html_attributions": ["<a href=\"https://maps.google.com/maps/contrib/106416428697500555390\">Abudaud Sumon</a>"], "photo_reference": "Aap_uEB-lEH8LtPkNeki5WOxwien5EutYB6jhB_bb4K81Mp4xapXbUQAPwlbSJ0sqKwrENPkwBkE61E1FF-jri27AWLwwo1RUur__q-jYoTSktuUrqj5MzHHgoMTyasTtZopwEQFnzhNG4I1fyGACRntRo-K5WqL8DhuyxOF_s25nIbP5zM", "width": 2880}], "place_id": "ChIJX2ias91N_TkRPMdcZoTKBSg", "reference": "ChIJX2ias91N_TkRPMdcZoTKBSg", "scope": "GOOGLE", "types": ["school", "point_of_interest", "establishment"], "vicinity": "JRFQ+29M"}, {"business_status": "OPERATIONAL", "geometry": {"location": {"lat": 25.6228472, "lng": 89.83805579999999}, "viewport": {"northeast": {"lat": 25.6241781802915, "lng": 89.83929938029151}, "southwest": {"lat": 25.62148021970849, "lng": 89.8366014197085}}}, "icon": "https://maps.gstatic.com/mapfiles/place_api/icons/v1/png_71/school-71.png", "icon_background_color": "#7B9EB0", "icon_mask_base_uri": "https://maps.gstatic.com/mapfiles/place_api/icons/v2/school_pinlet", "name": "Tapurchar School & College.", "opening_hours": {"open_now": true}, "photos": [{"height": 1536, "html_attributions": ["<a href=\"https://maps.google.com/maps/contrib/106416428697500555390\">Abudaud Sumon</a>"], "photo_reference": "Aap_uEDUYw4ZoAL-LqPvfqMQ69wGiKTg6__CiCeAgijUT6SsqNwP52VflKJOfn4YCc0CACRY3YzZvhwsPQ0dMDOppZyp2p3-ooeRVgWEsIoIUd8L6rHKDAqo75STprRbAn63oz2TdQjkkTGC8a8HVmcpU7YKWIEHBMC-AYLwbzm1-Z6T4ZY", "width": 2048}], "place_id": "ChIJN6AzFnFN_TkRhhjUP5wnvQA", "plus_code": {"compound_code": "JRFQ+46 Boraikandi, Bangladesh", "global_code": "7MQFJRFQ+46"}, "rating": 4.9, "reference": "ChIJN6AzFnFN_TkRhhjUP5wnvQA", "scope": "GOOGLE", "types": ["school", "point_of_interest", "establishment"], "user_ratings_total": 8, "vicinity": "\u09b0\u09cc\u09ae\u09be\u09b0\u09c0 \u0989\u09aa\u099c\u09c7\u09b2\u09be, (Tapurchar),"}, {"business_status": "OPERATIONAL", "geometry": {"location": {"lat": 25.62433, "lng": 89.8380083}, "viewport": {"northeast": {"lat": 25.6255858802915, "lng": 89.83925403029151}, "southwest": {"lat": 25.6228879197085, "lng": 89.83655606970851}}}, "icon": "https://maps.gstatic.com/mapfiles/place_api/icons/v1/png_71/school-71.png", "icon_background_color": "#7B9EB0", "icon_mask_base_uri": "https://maps.gstatic.com/mapfiles/place_api/icons/v2/school_pinlet", "name": "\u099f\u09be\u09aa\u09c1\u09b0 \u099a\u09b0 \u09b6\u09b9\u09c0\u09a6 \u09b8\u09cd\u09ae\u09c3\u09a4\u09bf \u0995\u09bf\u09a8\u09cd\u09a1\u09be\u09b0 \u0997\u09be\u09b0\u09cd\u099f\u09c7\u09a8 \u098f\u0995\u09be\u09a1\u09c7\u09ae\u09bf", "photos": [{"height": 1932, "html_attributions": ["<a href=\"https://maps.google.com/maps/contrib/117024959892446293029\">Friends 2 Hell</a>"], "photo_reference": "Aap_uED_LLf3ncGCGikerxckQmtse38VU3fpZoXXWLFoLyG1ZOZLFnPznJtddgka5Rr1KZKRtynjEtDfj2L9WMgtonXDEI3_F_FkuKyFdqIQHb2wL6zoyqTmFzUpWYCMqBrcqdKS66ZNTEhzFj2usFbuiPnDYnArsqaXlMiC_j5HGxaktBSS", "width": 2576}], "place_id": "ChIJ-9USMihN_TkRRVsSissVztU", "plus_code": {"compound_code": "JRFQ+P6 Boraikandi, Bangladesh", "global_code": "7MQFJRFQ+P6"}, "reference": "ChIJ-9USMihN_TkRRVsSissVztU", "scope": "GOOGLE", "types": ["school", "point_of_interest", "establishment"], "vicinity": "Unnamed Road"}, {"business_status": "OPERATIONAL", "geometry": {"location": {"lat": 25.6150617, "lng": 89.8490848}, "viewport": {"northeast": {"lat": 25.6162001802915, "lng": 89.85063818029151}, "southwest": {"lat": 25.6135022197085, "lng": 89.8479402197085}}}, "icon": "https://maps.gstatic.com/mapfiles/place_api/icons/v1/png_71/school-71.png", "icon_background_color": "#7B9EB0", "icon_mask_base_uri": "https://maps.gstatic.com/mapfiles/place_api/icons/v2/school_pinlet", "name": "Sun-Moon kinder Garten", "photos": [{"height": 1080, "html_attributions": ["<a href=\"https://maps.google.com/maps/contrib/116255542521737002033\">Abidur Abir</a>"], "photo_reference": "Aap_uEDDEBRc2Q47Da9XO8HyR_K4IcqbpZkZzHGKUABPGUGgXJtqpNkaymUV9auhHQ5gULbkeHRpFM0tD5uL4yw91J9Kib3Omc-p9OcbFpCKx2NOV0QlMk7IA6e0FvfYmjE9jYijRG7fFxbfK6f8DRN7atTJ67tNF75ZG4A19v4c8OvMqMmw", "width": 1920}], "place_id": "ChIJdwo3xBRN_TkRM7hH3QcnCFk", "plus_code": {"compound_code": "JR8X+2J Boraikandi, Bangladesh", "global_code": "7MQFJR8X+2J"}, "reference": "ChIJdwo3xBRN_TkRM7hH3QcnCFk", "scope": "GOOGLE", "types": ["school", "point_of_interest", "establishment"], "vicinity": "Boraikandi-Tapurchar, Boraikandi"}, {"business_status": "OPERATIONAL", "geometry": {"location": {"lat": 25.6148507, "lng": 89.8492438}, "viewport": {"northeast": {"lat": 25.6160946802915, "lng": 89.85071768029151}, "southwest": {"lat": 25.6133967197085, "lng": 89.84801971970849}}}, "icon": "https://maps.gstatic.com/mapfiles/place_api/icons/v1/png_71/school-71.png", "icon_background_color": "#7B9EB0", "icon_mask_base_uri": "https://maps.gstatic.com/mapfiles/place_api/icons/v2/school_pinlet", "name": "\u09ac\u09dc\u09be\u0987\u0995\u09be\u09a8\u09cd\u09a6\u09bf \u09ac\u09be\u099c\u09be\u09b0 \u09a6\u09be\u09b0\u09c1\u099a\u09cd\u099b\u09c1\u09a8\u09cd\u09a8\u09be \u09a6\u09be\u200c\u0996\u09bf\u09b2 \u09ae\u09be\u09a6\u09b0\u09be\u09b8\u09be", "opening_hours": {"open_now": true}, "photos": [{"height": 1920, "html_attributions": ["<a href=\"https://maps.google.com/maps/contrib/106416428697500555390\">Abudaud Sumon</a>"], "photo_reference": "Aap_uEA6zYXN01bvHeyKSbtW3Z8YFbiWE0vqGJF1XGr0Jr_d_oBHKeOyn2WLsbID2GRRXWxesLUEiJ2MOpWVxXo9YMr7-ctEfS3aeB0Unqc2VmYEIC8MSGjQ2Qlnvzmj13jqVHl4yf94KJErZxMzp27J2UleFfhJgYJJIcBbV205g7CREaY", "width": 2560}], "place_id": "ChIJL6GONYFN_TkR-uQW84il3cI", "reference": "ChIJL6GONYFN_TkR-uQW84il3cI", "scope": "GOOGLE", "types": ["school", "point_of_interest", "establishment"], "vicinity": "JR7X+WMX, Boraikandi"}, {"business_status": "OPERATIONAL", "geometry": {"location": {"lat": 25.6147612, "lng": 89.8491827}, "viewport": {"northeast": {"lat": 25.6160221302915, "lng": 89.8506706802915}, "southwest": {"lat": 25.61332416970849, "lng": 89.8479727197085}}}, "icon": "https://maps.gstatic.com/mapfiles/place_api/icons/v1/png_71/school-71.png", "icon_background_color": "#7B9EB0", "icon_mask_base_uri": "https://maps.gstatic.com/mapfiles/place_api/icons/v2/school_pinlet", "name": "Boraikandi Bazar Darussunnah Dakhil Madrasa", "photos": [{"height": 3096, "html_attributions": ["<a href=\"https://maps.google.com/maps/contrib/118174955348507315823\">Yasin Usuf</a>"], "photo_reference": "Aap_uEActmWalqYXsjemEREIQW_eO_aKsG3ZzwXMsvAS_qUs5j3WTcsmaZG-1urc1-HbXj3n_dK-NXejEjEzz3ZOpt8bZF_d3wNLc2iopou9IP1wkI07oD6ZjY6ot3yJXBQXtYjaF65gFvJXYZs2u7h-ll6eZ5lrbamSXOhXmQg4tOxLBzap", "width": 4128}], "place_id": "ChIJqecuh8RN_TkRaVxeT2rWbrs", "reference": "ChIJqecuh8RN_TkRaVxeT2rWbrs", "scope": "GOOGLE", "types": ["school", "point_of_interest", "establishment"], "vicinity": "JR7X+WM3, Boraikandi"}, {"business_status": "OPERATIONAL", "geometry": {"location": {"lat": 25.6137523, "lng": 89.8498157}, "viewport": {"northeast": {"lat": 25.6150895302915, "lng": 89.85118063029151}, "southwest": {"lat": 25.6123915697085, "lng": 89.8484826697085}}}, "icon": "https://maps.gstatic.com/mapfiles/place_api/icons/v1/png_71/school-71.png", "icon_background_color": "#7B9EB0", "icon_mask_base_uri": "https://maps.gstatic.com/mapfiles/place_api/icons/v2/school_pinlet", "name": "\u09ac\u09dc\u09be\u0987\u0995\u09be\u09a8\u09cd\u09a6\u200c\u09bf \u09ac\u09be\u099c\u09be\u09b0 \u0995\u09c7\u09b0\u09be\u09ae\u09a4\u09bf\u09df\u09be \u09a8\u09c2\u09b0\u09be\u09a8\u09c0 \u0993 \u09b9\u09be\u200c\u09ab\u09bf\u200c\u099c\u09bf\u09df\u09be \u09ae\u09be\u09a6\u09b0\u09be\u09b8\u09be", "photos": [{"height": 1920, "html_attributions": ["<a href=\"https://maps.google.com/maps/contrib/106416428697500555390\">Abudaud Sumon</a>"], "photo_reference": "Aap_uECsBV3FL5mtGwfMxQqWx8x2Hazw-6U35_WsVYyc0t4V-0kZWdBmtkMtYku9UVaukfJyaGfHB2J4kcPahAcvTy5ArlKcdn-fLWxpWXxuV5N73Mz7UnYUCwvZHAmFT-fYBQvZrb6IW_PhGDJaiNTxofp0yrk8599iK57nl2rLTlzWLuI", "width": 2560}], "place_id": "ChIJWRn3omtN_TkRAm6W0FlYDW8", "reference": "ChIJWRn3omtN_TkRAm6W0FlYDW8", "scope": "GOOGLE", "types": ["school", "point_of_interest", "establishment"], "vicinity": "JR7X+GW4, Boraikandi"}, {"business_status": "OPERATIONAL", "geometry": {"location": {"lat": 25.6135804, "lng": 89.8513236}, "viewport": {"northeast": {"lat": 25.6149343302915, "lng": 89.85239853029151}, "southwest": {"lat": 25.6122363697085, "lng": 89.84970056970849}}}, "icon": "https://maps.gstatic.com/mapfiles/place_api/icons/v1/png_71/school-71.png", "icon_background_color": "#7B9EB0", "icon_mask_base_uri": "https://maps.gstatic.com/mapfiles/place_api/icons/v2/school_pinlet", "name": "Boraikandi Govt. Primary School", "photos": [{"height": 1080, "html_attributions": ["<a href=\"https://maps.google.com/maps/contrib/104367818170065368291\">Shohag Sm</a>"], "photo_reference": "Aap_uEAkAu7LDoH67okTRoBzoPpTTnwHYYvgVPrP7SbtRw4HEpIOJa3KQG5Bs-XHF86D1crvbyJTjaVjyDXFvqACOn0JG4zl6nrcGW6KwAQMI3TmOaAHSDjWwqhnjNBsH8dlp2lmc5kpD0WMl1ljk_fgEBMjTYm8LHbBGwjSd7Hy3ttnSyli", "width": 1920}], "place_id": "ChIJ8zF4GjFT_TkRX-nK6iBa7Z4", "plus_code": {"compound_code": "JV72+CG Boraikandi, Bangladesh", "global_code": "7MQFJV72+CG"}, "reference": "ChIJ8zF4GjFT_TkRX-nK6iBa7Z4", "scope": "GOOGLE", "types": ["school", "point_of_interest", "establishment"], "vicinity": "Rowmari - Dantbhanga Road, Boraikandi"}, {"business_status": "OPERATIONAL", "geometry": {"location": {"lat": 25.6136232, "lng": 89.85164329999999}, "viewport": {"northeast": {"lat": 25.6151766802915, "lng": 89.8528880802915}, "southwest": {"lat": 25.6124787197085, "lng": 89.85019011970849}}}, "icon": "https://maps.gstatic.com/mapfiles/place_api/icons/v1/png_71/school-71.png", "icon_background_color": "#7B9EB0", "icon_mask_base_uri": "https://maps.gstatic.com/mapfiles/place_api/icons/v2/school_pinlet", "name": "\u09b6\u09cc\u09b2\u09ae\u09be\u09b0\u09c0 \u098f\u09ae \u0986\u09b0 \u0989\u099a\u09cd\u099a \u09ac\u09bf\u09a6\u09cd\u09af\u09be\u09b2\u09df \u0993 \u0995\u09b2\u09c7\u099c", "opening_hours": {"open_now": true}, "photos": [{"height": 1200, "html_attributions": ["<a href=\"https://maps.google.com/maps/contrib/104482021453282512423\">Najmul Islam</a>"], "photo_reference": "Aap_uEBfS5nJYC6AW_1UJrFoWdiHRlNveQCOX1qYZqknaq3Yq8_N0o2aOLdiBePTcYQK4DSxBCAFyvwCBQ0cgiWQvibkRi6g6H1sqYkqnj6KZ7VFHl_oM6QGRIYsT2jZKytoIYFlBIFT7iS9vz0WTQf_w12q1G-GwMDirwaHGbw73bu3d7km", "width": 1600}], "place_id": "ChIJmzXylX9S_TkRAeF0InvmiI8", "rating": 5, "reference": "ChIJmzXylX9S_TkRAeF0InvmiI8", "scope": "GOOGLE", "types": ["school", "point_of_interest", "establishment"], "user_ratings_total": 4, "vicinity": "JV72+CMR, Boraikandi"}, {"business_status": "OPERATIONAL", "geometry": {"location": {"lat": 25.6133055, "lng": 89.8512429}, "viewport": {"northeast": {"lat": 25.6144943302915, "lng": 89.85255138029152}, "southwest": {"lat": 25.6117963697085, "lng": 89.84985341970851}}}, "icon": "https://maps.gstatic.com/mapfiles/place_api/icons/v1/png_71/school-71.png", "icon_background_color": "#7B9EB0", "icon_mask_base_uri": "https://maps.gstatic.com/mapfiles/place_api/icons/v2/school_pinlet", "name": "\u09ac\u09dc\u09be\u0987\u09ac\u09be\u200c\u09dc\u09bf \u09b8\u09b0\u0995\u200c\u09be\u09b0\u09bf Praimari School", "opening_hours": {"open_now": true}, "photos": [{"height": 1920, "html_attributions": ["<a href=\"https://maps.google.com/maps/contrib/106416428697500555390\">Abudaud Sumon</a>"], "photo_reference": "Aap_uECunrsum5kjkJ3VfOddnuG5Pexe54OV_9DlUO1aP6ejPXrWkOEPbtWQ9VWc8OwTdzGE6auF1tE3VLFCuCD5a25AoSAM94QWHh-vDpHO9kLSKWJlLJQKSg4_Kqbi-TLWNdBzIVGbtEMRP2wzuKjrzM_oFdJIMGyj9Ia5DIaV34DzkK4", "width": 2560}], "place_id": "ChIJoXQVFMtT_TkRegE4FtvrS7I", "reference": "ChIJoXQVFMtT_TkRegE4FtvrS7I", "scope": "GOOGLE", "types": ["school", "point_of_interest", "establishment"], "vicinity": "JV72+8FH, Boraikandi"}, {"business_status": "OPERATIONAL", "geometry": {"location": {"lat": 25.6133064, "lng": 89.851582}, "viewport": {"northeast": {"lat": 25.6144616302915, "lng": 89.85288198029151}, "southwest": {"lat": 25.6117636697085, "lng": 89.8501840197085}}}, "icon": "https://maps.gstatic.com/mapfiles/place_api/icons/v1/png_71/school-71.png", "icon_background_color": "#7B9EB0", "icon_mask_base_uri": "https://maps.gstatic.com/mapfiles/place_api/icons/v2/school_pinlet", "name": "Boraikandi high school", "opening_hours": {"open_now": true}, "place_id": "ChIJPYO5l39S_TkRttDjjYuZwp8", "reference": "ChIJPYO5l39S_TkRttDjjYuZwp8", "scope": "GOOGLE", "types": ["school", "point_of_interest", "establishment"], "vicinity": "JV72+8JG, Boraikandi"}, {"business_status": "OPERATIONAL", "geometry": {"location": {"lat": 25.6146777, "lng": 89.854974}, "viewport": {"northeast": {"lat": 25.6159717302915, "lng": 89.8562365802915}, "southwest": {"lat": 25.6132737697085, "lng": 89.85353861970849}}}, "icon": "https://maps.gstatic.com/mapfiles/place_api/icons/v1/png_71/school-71.png", "icon_background_color": "#7B9EB0", "icon_mask_base_uri": "https://maps.gstatic.com/mapfiles/place_api/icons/v2/school_pinlet", "name": "Boraikandi college", "opening_hours": {"open_now": true}, "place_id": "ChIJSRwkOvZT_TkRS36cIV09y6Q", "plus_code": {"compound_code": "JV73+VX Boraikandi, Bangladesh", "global_code": "7MQFJV73+VX"}, "reference": "ChIJSRwkOvZT_TkRS36cIV09y6Q", "scope": "GOOGLE", "types": ["school", "point_of_interest", "establishment"], "vicinity": "Boalmari Road, Boraikandi"}], "status": "OK"}