{"html_attributions": [], "results": [{"business_status": "OPERATIONAL", "geometry": {"location": {"lat": 26.2451519, "lng": 89.85284159999999}, "viewport": {"northeast": {"lat": 26.24598195, "lng": 89.85414924999999}, "southwest": {"lat": 26.24266175, "lng": 89.84891865000002}}}, "icon": "https://maps.gstatic.com/mapfiles/place_api/icons/v1/png_71/school-71.png", "icon_background_color": "#7B9EB0", "icon_mask_base_uri": "https://maps.gstatic.com/mapfiles/place_api/icons/v2/school_pinlet", "name": "Bhatipetla Me Madrasa", "place_id": "ChIJB_1tnqmF4jkRGG1apLyuGdc", "rating": 3, "reference": "ChIJB_1tnqmF4jkRGG1apLyuGdc", "scope": "GOOGLE", "types": ["school", "point_of_interest", "establishment"], "user_ratings_total": 2, "vicinity": "6VW3+348, Bhatipetla"}, {"business_status": "OPERATIONAL", "geometry": {"location": {"lat": 26.23832, "lng": 89.8529551}, "viewport": {"northeast": {"lat": 26.2398867302915, "lng": 89.8546685302915}, "southwest": {"lat": 26.2371887697085, "lng": 89.8519705697085}}}, "icon": "https://maps.gstatic.com/mapfiles/place_api/icons/v1/png_71/school-71.png", "icon_background_color": "#7B9EB0", "icon_mask_base_uri": "https://maps.gstatic.com/mapfiles/place_api/icons/v2/school_pinlet", "name": "Satsewra kalyankami high school", "photos": [{"height": 2128, "html_attributions": ["<a href=\"https://maps.google.com/maps/contrib/111615237058937234633\">Asaraf Vlogs</a>"], "photo_reference": "Aap_uEAPmq_be0eXyZtRoVYSM_JRE3I18GpWFYv20Y6n0jDSW0Uv0htqCQO9Nox3UDU0ffVzxLBHC1YmJGLEfLoqhPz4d5v5U1Z7g38XkxJlq-n9TzXpyVmx_YOcjdSdWrKI08syTbiYtDiPyrlc3B4Dj5ScXNJn639yRBorn2lqNSfMLhTg", "width": 4608}], "place_id": "ChIJt3dgEamF4jkRpBMQKU2BDD8", "plus_code": {"compound_code": "6VQ3+85 Bhatipetla, Assam, India", "global_code": "7MRF6VQ3+85"}, "rating": 5, "reference": "ChIJt3dgEamF4jkRpBMQKU2BDD8", "scope": "GOOGLE", "types": ["school", "point_of_interest", "establishment"], "user_ratings_total": 1, "vicinity": "Dhubri - Kochugaon Road, Bhatipetla"}, {"business_status": "CLOSED_TEMPORARILY", "geometry": {"location": {"lat": 26.2331448, "lng": 89.83990600000001}, "viewport": {"northeast": {"lat": 26.23535235, "lng": 89.84086970000003}, "southwest": {"lat": 26.23240895, "lng": 89.83701489999999}}}, "icon": "https://maps.gstatic.com/mapfiles/place_api/icons/v1/png_71/school-71.png", "icon_background_color": "#7B9EB0", "icon_mask_base_uri": "https://maps.gstatic.com/mapfiles/place_api/icons/v2/school_pinlet", "name": "PUB BOROBALAR CHAR LP SCHOOL", "permanently_closed": true, "photos": [{"height": 720, "html_attributions": ["<a href=\"https://maps.google.com/maps/contrib/107973970619021952243\">Shahidul Islam</a>"], "photo_reference": "Aap_uECg0vJzpm1K1Xc5VeAZeHdy5AfQbVmhT_ew1H9B3diK7n8XkxePKMHuiATHxe95O_QLrAivbsNgNC2sO2xWdRm-bfIujAQuHGoHdFkZ7xS1m0ttekjvX1j631_75j8j0Wt63GSwJeFa7mDYv8_klZKG7fgkfE5UN8V8tXVHu_N8hrQW", "width": 1280}], "place_id": "ChIJ_ZptXUqP4jkRJYYmUuzr2lk", "plus_code": {"compound_code": "6RMQ+7X Borobalarchar, Assam, India", "global_code": "7MRF6RMQ+7X"}, "rating": 5, "reference": "ChIJ_ZptXUqP4jkRJYYmUuzr2lk", "scope": "GOOGLE", "types": ["school", "point_of_interest", "establishment"], "user_ratings_total": 1, "vicinity": "Borobalarchar"}], "status": "OK"}