{"html_attributions": [], "results": [{"business_status": "OPERATIONAL", "geometry": {"location": {"lat": 26.26051369999999, "lng": 89.8501138}, "viewport": {"northeast": {"lat": 26.2618308802915, "lng": 89.8516151802915}, "southwest": {"lat": 26.2591329197085, "lng": 89.8489172197085}}}, "icon": "https://maps.gstatic.com/mapfiles/place_api/icons/v1/png_71/school-71.png", "icon_background_color": "#7B9EB0", "icon_mask_base_uri": "https://maps.gstatic.com/mapfiles/place_api/icons/v2/school_pinlet", "name": "2216 no madhyapetla LP school", "photos": [{"height": 2128, "html_attributions": ["<a href=\"https://maps.google.com/maps/contrib/109829350028123419553\">Local new Channel</a>"], "photo_reference": "Aap_uEDLTF7O6Z0TyAEBxrPmN0kGBg5i3d75l-AjKaZCkaqPx-1kPX9S8RRJmTHKBUuTWYUSvKNCGPUH7UBDvY9pFR4KjMzRSFbz26snpSW2rHzaS2gOlr2REqb6xIGShhn5NDeIsy5-7Fde3hLgXOlMdwId3Y8eykhR4xy7BMY0aLxhwjkp", "width": 4608}], "place_id": "ChIJEXiczVmP4jkRSXjqbzotZM0", "plus_code": {"compound_code": "7V62+62 Bhatipetla, Assam, India", "global_code": "7MRF7V62+62"}, "reference": "ChIJEXiczVmP4jkRSXjqbzotZM0", "scope": "GOOGLE", "types": ["school", "point_of_interest", "establishment"], "vicinity": "Dhubri - Kochugaon Road, Bhatipetla"}, {"business_status": "OPERATIONAL", "geometry": {"location": {"lat": 26.268475, "lng": 89.8393025}, "viewport": {"northeast": {"lat": 26.2698608802915, "lng": 89.8406812802915}, "southwest": {"lat": 26.2671629197085, "lng": 89.83798331970848}}}, "icon": "https://maps.gstatic.com/mapfiles/place_api/icons/v1/png_71/school-71.png", "icon_background_color": "#7B9EB0", "icon_mask_base_uri": "https://maps.gstatic.com/mapfiles/place_api/icons/v2/school_pinlet", "name": "782 No Shimlabari L.P School", "opening_hours": {"open_now": true}, "photos": [{"height": 720, "html_attributions": ["<a href=\"https://maps.google.com/maps/contrib/112004444695122465271\">\u0199\u0f5e\u0131\u0282\u0267\u014b\u0105 \u0199\u01a1\u0188\u0267 \u0f5e\u0105\u029d\u10ea\u0105\u014b\u0260\u0282\u0267\u0131</a>"], "photo_reference": "Aap_uEBsWOqm34nsc4rm_oUdP8GQeCiAUpU3Vfft-IHqtDTUr_ouWqm7sL79AIAbOXrFibe_OvoEz-UmiHAc0sPkeRqvJsc2E8g7pCMBFv1LqMpbYuDi3GKcFsc0vJ5vw_n7c29zSjPwOitY76_PPid06C-A7hkOlZRQKSAg1tWDVruqOqQk", "width": 1280}], "place_id": "ChIJC6cAj0CP4jkR7bA-eIdxPJY", "rating": 5, "reference": "ChIJC6cAj0CP4jkR7bA-eIdxPJY", "scope": "GOOGLE", "types": ["school", "point_of_interest", "establishment"], "user_ratings_total": 2, "vicinity": "7R9Q+9PM, Kaimari Pt.VI"}, {"business_status": "OPERATIONAL", "geometry": {"location": {"lat": 26.2732035, "lng": 89.84202789999999}, "viewport": {"northeast": {"lat": 26.2746142802915, "lng": 89.8433830302915}, "southwest": {"lat": 26.2719163197085, "lng": 89.8406850697085}}}, "icon": "https://maps.gstatic.com/mapfiles/place_api/icons/v1/png_71/school-71.png", "icon_background_color": "#7B9EB0", "icon_mask_base_uri": "https://maps.gstatic.com/mapfiles/place_api/icons/v2/school_pinlet", "name": "Shimlabari Kachari LP School", "photos": [{"height": 3120, "html_attributions": ["<a href=\"https://maps.google.com/maps/contrib/117815743374174500304\">zaid23</a>"], "photo_reference": "Aap_uECdlUL99pnPY__l1patGH6CQ5u5m3I2edg8AF4SlvmqDbWBDTDrR1qAph9gnxfrcsfZZUcQqAWC2lRdFvnNbFpJqzflDdQsf-mxk2dE-2dXWVMtHavu4uMn2UMYfDM9rGUH4fyZyLa5zJ0o6sfcs7XdE1kgqfHCyeqEhgBoFUXUYwzl", "width": 4160}], "place_id": "ChIJ59QDWceP4jkRTtRTxDdLXiw", "plus_code": {"compound_code": "7RFR+7R Kaimari Pt.VI, Assam, India", "global_code": "7MRF7RFR+7R"}, "reference": "ChIJ59QDWceP4jkRTtRTxDdLXiw", "scope": "GOOGLE", "types": ["school", "point_of_interest", "establishment"], "vicinity": "Baterhat Shimlabari Road, Kaimari Pt.VI"}, {"business_status": "OPERATIONAL", "geometry": {"location": {"lat": 26.268141, "lng": 89.854868}, "viewport": {"northeast": {"lat": 26.2695827802915, "lng": 89.8560030802915}, "southwest": {"lat": 26.2668848197085, "lng": 89.8533051197085}}}, "icon": "https://maps.gstatic.com/mapfiles/place_api/icons/v1/png_71/school-71.png", "icon_background_color": "#7B9EB0", "icon_mask_base_uri": "https://maps.gstatic.com/mapfiles/place_api/icons/v2/school_pinlet", "name": "Kumarganj ME School", "place_id": "ChIJc9mYhHyF4jkRbZmxQo7VXgY", "reference": "ChIJc9mYhHyF4jkRbZmxQo7VXgY", "scope": "GOOGLE", "types": ["primary_school", "school", "point_of_interest", "establishment"], "vicinity": "7V93+7W5, Kumarganj"}, {"business_status": "OPERATIONAL", "geometry": {"location": {"lat": 26.2680658, "lng": 89.8554118}, "viewport": {"northeast": {"lat": 26.2696102802915, "lng": 89.85631013029149}, "southwest": {"lat": 26.2669123197085, "lng": 89.85361216970848}}}, "icon": "https://maps.gstatic.com/mapfiles/place_api/icons/v1/png_71/school-71.png", "icon_background_color": "#7B9EB0", "icon_mask_base_uri": "https://maps.gstatic.com/mapfiles/place_api/icons/v2/school_pinlet", "name": "Kumarganj High School", "place_id": "ChIJC-f2gnyF4jkRTITMeYa7UdU", "plus_code": {"compound_code": "7V94+65 Kumarganj, Assam, India", "global_code": "7MRF7V94+65"}, "rating": 5, "reference": "ChIJC-f2gnyF4jkRTITMeYa7UdU", "scope": "GOOGLE", "types": ["school", "point_of_interest", "establishment"], "user_ratings_total": 4, "vicinity": "National Highway 127B, Kumarganj"}], "status": "OK"}