{"html_attributions": [], "results": [{"business_status": "OPERATIONAL", "geometry": {"location": {"lat": 26.34552189999999, "lng": 89.8434791}, "viewport": {"northeast": {"lat": 26.3468621302915, "lng": 89.84439693029151}, "southwest": {"lat": 26.34416416970849, "lng": 89.8416989697085}}}, "icon": "https://maps.gstatic.com/mapfiles/place_api/icons/v1/png_71/school-71.png", "icon_background_color": "#7B9EB0", "icon_mask_base_uri": "https://maps.gstatic.com/mapfiles/place_api/icons/v2/school_pinlet", "name": "Sonalurdabri L P school", "opening_hours": {"open_now": false}, "place_id": "ChIJJbTXBTmJ4jkR9OiDi5MZm3E", "reference": "ChIJJbTXBTmJ4jkR9OiDi5MZm3E", "scope": "GOOGLE", "types": ["school", "point_of_interest", "establishment"], "vicinity": "8RWV+695, Sonaludabri"}, {"business_status": "OPERATIONAL", "geometry": {"location": {"lat": 26.3387831, "lng": 89.84622159999999}, "viewport": {"northeast": {"lat": 26.3401061302915, "lng": 89.8476823802915}, "southwest": {"lat": 26.3374081697085, "lng": 89.84498441970848}}}, "icon": "https://maps.gstatic.com/mapfiles/place_api/icons/v1/png_71/school-71.png", "icon_background_color": "#7B9EB0", "icon_mask_base_uri": "https://maps.gstatic.com/mapfiles/place_api/icons/v2/school_pinlet", "name": "Ramnathpara L.P. school", "photos": [{"height": 1504, "html_attributions": ["<a href=\"https://maps.google.com/maps/contrib/116989017487241716593\">\u0f12\u3016MR\u3017\u0f3aM\u023a\u0197\u0110\u1d7e\u0141 \u0197S\u0141\u023aM \u2c63\u024c\u00d8\u0110\u0126\u023aNi</a>"], "photo_reference": "Aap_uEBELMb9rnRwb-0PZt-VxLaFRMdT4wnXNJ_9iSvXz6lJQpbJt2_ibUqDDHt8mdj-1ZKF9kTvxQEtZBKT2GHuoq4ZS3-y5L8T1REY3dalIhKOTaaS0XppuwuzkKRhDcxnWEj0YE3DpDm1jw1On_2_kHF2e_bXMIqyz_GBgDJUDvfyd3ig", "width": 3264}], "place_id": "ChIJTXV1mAGJ4jkRGHpBsSxrP5I", "plus_code": {"compound_code": "8RQW+GF Sonaludabri, Assam, India", "global_code": "7MRF8RQW+GF"}, "rating": 1, "reference": "ChIJTXV1mAGJ4jkRGHpBsSxrP5I", "scope": "GOOGLE", "types": ["school", "point_of_interest", "establishment"], "user_ratings_total": 1, "vicinity": "Unnamed Road, Sonaludabri"}, {"business_status": "OPERATIONAL", "geometry": {"location": {"lat": 26.3386428, "lng": 89.84630539999999}, "viewport": {"northeast": {"lat": 26.3399793302915, "lng": 89.8477079302915}, "southwest": {"lat": 26.3372813697085, "lng": 89.8450099697085}}}, "icon": "https://maps.gstatic.com/mapfiles/place_api/icons/v1/png_71/school-71.png", "icon_background_color": "#7B9EB0", "icon_mask_base_uri": "https://maps.gstatic.com/mapfiles/place_api/icons/v2/school_pinlet", "name": "608on Ramnath Para school", "place_id": "ChIJ4882NISJ4jkRCEsXzWfS3WQ", "reference": "ChIJ4882NISJ4jkRCEsXzWfS3WQ", "scope": "GOOGLE", "types": ["school", "point_of_interest", "establishment"], "vicinity": "8RQW+FG3, Ramnathpara"}, {"business_status": "OPERATIONAL", "geometry": {"location": {"lat": 26.337362, "lng": 89.8463905}, "viewport": {"northeast": {"lat": 26.3389732802915, "lng": 89.8479827302915}, "southwest": {"lat": 26.3362753197085, "lng": 89.8452847697085}}}, "icon": "https://maps.gstatic.com/mapfiles/place_api/icons/v1/png_71/school-71.png", "icon_background_color": "#7B9EB0", "icon_mask_base_uri": "https://maps.gstatic.com/mapfiles/place_api/icons/v2/school_pinlet", "name": "Zakir", "place_id": "ChIJIcPNY1GJ4jkREGWm9U6ZXDU", "plus_code": {"compound_code": "8RPW+WH Ramnathpara, Assam, India", "global_code": "7MRF8RPW+WH"}, "reference": "ChIJIcPNY1GJ4jkREGWm9U6ZXDU", "scope": "GOOGLE", "types": ["school", "point_of_interest", "establishment"], "vicinity": "Pocket Road, Ramnathpara"}, {"business_status": "OPERATIONAL", "geometry": {"location": {"lat": 26.346373, "lng": 89.8498426}, "viewport": {"northeast": {"lat": 26.3477348802915, "lng": 89.85154108029151}, "southwest": {"lat": 26.3450369197085, "lng": 89.84884311970849}}}, "icon": "https://maps.gstatic.com/mapfiles/place_api/icons/v1/png_71/school-71.png", "icon_background_color": "#7B9EB0", "icon_mask_base_uri": "https://maps.gstatic.com/mapfiles/place_api/icons/v2/school_pinlet", "name": "Pokalagi Novo noor Me Madrassa", "place_id": "ChIJXa1B_zqJ4jkR8RWPdvh81ts", "plus_code": {"compound_code": "8RWX+GW Pokalagi, Assam, India", "global_code": "7MRF8RWX+GW"}, "reference": "ChIJXa1B_zqJ4jkR8RWPdvh81ts", "scope": "GOOGLE", "types": ["school", "point_of_interest", "establishment"], "vicinity": "Pokalagi"}, {"business_status": "OPERATIONAL", "geometry": {"location": {"lat": 26.3498219, "lng": 89.8431914}, "viewport": {"northeast": {"lat": 26.3515879802915, "lng": 89.8446491302915}, "southwest": {"lat": 26.3488900197085, "lng": 89.8419511697085}}}, "icon": "https://maps.gstatic.com/mapfiles/place_api/icons/v1/png_71/school-71.png", "icon_background_color": "#7B9EB0", "icon_mask_base_uri": "https://maps.gstatic.com/mapfiles/place_api/icons/v2/school_pinlet", "name": "AWC, Pokalagi Pt.3", "opening_hours": {"open_now": false}, "photos": [{"height": 3096, "html_attributions": ["<a href=\"https://maps.google.com/maps/contrib/108704375144042611690\">Mujahidul Islam</a>"], "photo_reference": "Aap_uEDnOIvjSNWfZMvQnkXTXn_G6HZQwr018a3S7sUO8hhCI_1Pe-Os44OCUvarnDz4G53FeNnsAqSaFbZq9EuMoTSKO-MJfrUrK2lVZ04A3kcdecjaPqFCMpAhzYbrrDe0VOsky45ns4Ly09lU49RmV7niOMpRL8H9XwxzYlX6bMuujmof", "width": 4128}], "place_id": "ChIJ9yBPUhKJ4jkRQ5QQK7xifxI", "plus_code": {"compound_code": "8RXV+W7 Pokalagi, Assam, India", "global_code": "7MRF8RXV+W7"}, "reference": "ChIJ9yBPUhKJ4jkRQ5QQK7xifxI", "scope": "GOOGLE", "types": ["school", "point_of_interest", "establishment"], "vicinity": "Baghdokra Road, Pokalagi"}, {"business_status": "OPERATIONAL", "geometry": {"location": {"lat": 26.3509013, "lng": 89.8391439}, "viewport": {"northeast": {"lat": 26.3521488802915, "lng": 89.8405649802915}, "southwest": {"lat": 26.3494509197085, "lng": 89.8378670197085}}}, "icon": "https://maps.gstatic.com/mapfiles/place_api/icons/v1/png_71/school-71.png", "icon_background_color": "#7B9EB0", "icon_mask_base_uri": "https://maps.gstatic.com/mapfiles/place_api/icons/v2/school_pinlet", "name": "89.No Kamandanga l.p school", "place_id": "ChIJgSDWGEqJ4jkRT_9jPo_SzRU", "reference": "ChIJgSDWGEqJ4jkRT_9jPo_SzRU", "scope": "GOOGLE", "types": ["school", "point_of_interest", "establishment"], "vicinity": "9R2Q+9M6, Kamandanga"}, {"business_status": "OPERATIONAL", "geometry": {"location": {"lat": 26.3512127, "lng": 89.8388913}, "viewport": {"northeast": {"lat": 26.3527676302915, "lng": 89.84032423029151}, "southwest": {"lat": 26.3500696697085, "lng": 89.83762626970851}}}, "icon": "https://maps.gstatic.com/mapfiles/place_api/icons/v1/png_71/school-71.png", "icon_background_color": "#7B9EB0", "icon_mask_base_uri": "https://maps.gstatic.com/mapfiles/place_api/icons/v2/school_pinlet", "name": "Kamandanga High Madrassa", "photos": [{"height": 4160, "html_attributions": ["<a href=\"https://maps.google.com/maps/contrib/100927318546322779713\">Tube bady</a>"], "photo_reference": "Aap_uEA6uPYsy-oBwlF9e0v2AKCsbxZcoEuXxRtFn6tGvu8vr2NRGVCAXzpBfMux51_mcfiWw-NysDBDPJDkzMXoB27Z3rnWfz165JRU6nWavuuvZG91Lei4kY_ytEpa3wqTCd9xgm0DVaYLs-FXmT3xZAJhDREF1IpryH65La9Z-yl1oTQ_", "width": 3120}], "place_id": "ChIJOWFLq5eI4jkRsKya9Cvvrq4", "plus_code": {"compound_code": "9R2Q+FH Hatidhura, Assam, India", "global_code": "7MRF9R2Q+FH"}, "rating": 5, "reference": "ChIJOWFLq5eI4jkRsKya9Cvvrq4", "scope": "GOOGLE", "types": ["school", "point_of_interest", "establishment"], "user_ratings_total": 6, "vicinity": "Pokalagi, Hatidhura"}, {"business_status": "OPERATIONAL", "geometry": {"location": {"lat": 26.3515172, "lng": 89.839224}, "viewport": {"northeast": {"lat": 26.3528837802915, "lng": 89.84058013029151}, "southwest": {"lat": 26.3501858197085, "lng": 89.83788216970851}}}, "icon": "https://maps.gstatic.com/mapfiles/place_api/icons/v1/png_71/school-71.png", "icon_background_color": "#7B9EB0", "icon_mask_base_uri": "https://maps.gstatic.com/mapfiles/place_api/icons/v2/school_pinlet", "name": "Belpara M.E. School", "place_id": "ChIJfzwLB5eI4jkRh-ycnchcl0M", "reference": "ChIJfzwLB5eI4jkRh-ycnchcl0M", "scope": "GOOGLE", "types": ["school", "point_of_interest", "establishment"], "vicinity": "9R2Q+JM5, Kamandanga"}, {"business_status": "OPERATIONAL", "geometry": {"location": {"lat": 26.3513649, "lng": 89.8388492}, "viewport": {"northeast": {"lat": 26.3528587802915, "lng": 89.8402572302915}, "southwest": {"lat": 26.3501608197085, "lng": 89.83755926970849}}}, "icon": "https://maps.gstatic.com/mapfiles/place_api/icons/v1/png_71/school-71.png", "icon_background_color": "#7B9EB0", "icon_mask_base_uri": "https://maps.gstatic.com/mapfiles/place_api/icons/v2/school_pinlet", "name": "Kamandanga Bazar Masjid", "place_id": "ChIJT3C7qpeI4jkReTtkICtidOY", "rating": 5, "reference": "ChIJT3C7qpeI4jkReTtkICtidOY", "scope": "GOOGLE", "types": ["school", "point_of_interest", "establishment"], "user_ratings_total": 1, "vicinity": "9R2Q+GGX, Kamandanga"}, {"business_status": "OPERATIONAL", "geometry": {"location": {"lat": 26.3506877, "lng": 89.85151929999999}, "viewport": {"northeast": {"lat": 26.3520491802915, "lng": 89.85292048029149}, "southwest": {"lat": 26.3493512197085, "lng": 89.85022251970848}}}, "icon": "https://maps.gstatic.com/mapfiles/place_api/icons/v1/png_71/school-71.png", "icon_background_color": "#7B9EB0", "icon_mask_base_uri": "https://maps.gstatic.com/mapfiles/place_api/icons/v2/school_pinlet", "name": "POKALAGI LP SCHOOL", "opening_hours": {"open_now": true}, "photos": [{"height": 960, "html_attributions": ["<a href=\"https://maps.google.com/maps/contrib/103536203868532604133\">Sadullah Sheikh</a>"], "photo_reference": "Aap_uECh8-bPVw2MHdzW-w59e2o8g6Bvr_4Wh1iVK5QFjDvwXu8gItQ2fOa1uTJkRXH8B_u4lb1tBxz07iBP1qO2SWFBURbyTNlSovr7xcvkidYmk65blIQeGMbd_sqeHzj-9sPQLTdJr0OnlFOzcdrvMiCzOq32qXbTcubTV1mQ9XQKfGJZ", "width": 1280}], "place_id": "ChIJc4qIuEiH4jkR6tLCvZuCsp0", "plus_code": {"compound_code": "9V22+7J Kacharigaon, Assam, India", "global_code": "7MRF9V22+7J"}, "rating": 1, "reference": "ChIJc4qIuEiH4jkR6tLCvZuCsp0", "scope": "GOOGLE", "types": ["school", "point_of_interest", "establishment"], "user_ratings_total": 1, "vicinity": "Pokalagi, Road, Kacharigaon"}, {"business_status": "OPERATIONAL", "geometry": {"location": {"lat": 26.3478062, "lng": 89.8325765}, "viewport": {"northeast": {"lat": 26.3491275302915, "lng": 89.8340541802915}, "southwest": {"lat": 26.3464295697085, "lng": 89.8313562197085}}}, "icon": "https://maps.gstatic.com/mapfiles/place_api/icons/v1/png_71/school-71.png", "icon_background_color": "#7B9EB0", "icon_mask_base_uri": "https://maps.gstatic.com/mapfiles/place_api/icons/v2/school_pinlet", "name": "Sonalurdabri L.P.School.", "photos": [{"height": 1836, "html_attributions": ["<a href=\"https://maps.google.com/maps/contrib/101419365257078709707\">Sudip Barman</a>"], "photo_reference": "Aap_uEC_jjA945qZ8nr8eYP39w0lEmvL691LYmnpBGn8gDZqD7giILTYRpC7lSlbC19C9RgtvMyYT8i_k-MejdJpq0vFppT1VyXJ6tnvbBOIaXkvlNTotEu7ewUs3hDAnwOgFDn02sR-5QZeEhU5B2cguClqEqGuuHC_nOiJ7TxI2jRj6ReK", "width": 3264}], "place_id": "ChIJjy6V5b-I4jkRru4CjSfwcO4", "plus_code": {"compound_code": "8RXM+42 Sonaludabri, Assam, India", "global_code": "7MRF8RXM+42"}, "rating": 5, "reference": "ChIJjy6V5b-I4jkRru4CjSfwcO4", "scope": "GOOGLE", "types": ["school", "point_of_interest", "establishment"], "user_ratings_total": 1, "vicinity": "Vill-Sonalurdabri, P,O,-Kamandanga, Dist Kokrajhar, Assam, Pin .- 783332, Sonaludabri"}, {"geometry": {"location": {"lat": 26.3389756, "lng": 89.84618569999999}, "viewport": {"northeast": {"lat": 26.34025199545925, "lng": 89.84754038391961}, "southwest": {"lat": 26.33755403487625, "lng": 89.8448424233366}}}, "icon": "https://maps.gstatic.com/mapfiles/place_api/icons/v1/png_71/school-71.png", "icon_background_color": "#7B9EB0", "icon_mask_base_uri": "https://maps.gstatic.com/mapfiles/place_api/icons/v2/school_pinlet", "name": "Ramnath para school", "photos": [{"height": 1440, "html_attributions": ["<a href=\"https://maps.google.com/maps/contrib/103026130895870878083\">A.J Gameing</a>"], "photo_reference": "Aap_uEDzn4_fXngbIgepNNmkIDjkPl6PwSGWq0L0f1M9jsoMJhUtd9g8HwpQ1eGtZLxkuIglB-6RIXZ1CC1YyOdNVe_X6e8m6hfPdjhWtykuUDldAG6Hf672FohFfa2eW0K3Pddp4StM9hSFdCffCwnZKlZ9bIBNWK9mrO9DKsBonkz6ma74", "width": 2560}], "place_id": "ChIJM5d0eqaI4jkRuuHFl_dthu4", "reference": "ChIJM5d0eqaI4jkRuuHFl_dthu4", "scope": "GOOGLE", "types": ["school", "premise", "establishment"], "vicinity": "Ramnathpara"}, {"geometry": {"location": {"lat": 26.3512361, "lng": 89.839236}, "viewport": {"northeast": {"lat": 26.35256334869446, "lng": 89.84050221291766}, "southwest": {"lat": 26.34986538811146, "lng": 89.83780425233464}}}, "icon": "https://maps.gstatic.com/mapfiles/place_api/icons/v1/png_71/school-71.png", "icon_background_color": "#7B9EB0", "icon_mask_base_uri": "https://maps.gstatic.com/mapfiles/place_api/icons/v2/school_pinlet", "name": "Kamandanga High Madrassa", "photos": [{"height": 1200, "html_attributions": ["<a href=\"https://maps.google.com/maps/contrib/107139067836669456983\">Ariz Ahmed Sk</a>"], "photo_reference": "Aap_uEBSuVxx1MtcxigpRC2fdOOfxlSEu5OazfQyjVJrmBWxaxPBsPVa4MiD1GK4M8T2UbAfJGzcQzODXX8C5G6hG9yS7onEkCjTd1BVkLFs-lR2MCuidtBc8HjHn_8sS9AwCtZvgkrgRxnoaUXlfEWXOQxoNfCxa3JuCGaWYVPrE4okOPjz", "width": 1600}], "place_id": "ChIJeX50qZeI4jkR8XF4NbgRRs0", "reference": "ChIJeX50qZeI4jkR8XF4NbgRRs0", "scope": "GOOGLE", "types": ["school", "premise", "establishment"], "vicinity": "Kamandanga"}], "status": "OK"}