{"html_attributions": [], "results": [{"business_status": "OPERATIONAL", "geometry": {"location": {"lat": 26.2634841, "lng": 89.7102208}, "viewport": {"northeast": {"lat": 26.2648560802915, "lng": 89.71164523029151}, "southwest": {"lat": 26.2621581197085, "lng": 89.70894726970849}}}, "icon": "https://maps.gstatic.com/mapfiles/place_api/icons/v1/png_71/school-71.png", "icon_background_color": "#7B9EB0", "icon_mask_base_uri": "https://maps.gstatic.com/mapfiles/place_api/icons/v2/school_pinlet", "name": "Modinatul Ullum Bauserkuti Hafijia maddrasa", "place_id": "ChIJ2_yUJh2N4jkReePHMJNQx6Q", "reference": "ChIJ2_yUJh2N4jkReePHMJNQx6Q", "scope": "GOOGLE", "types": ["school", "point_of_interest", "establishment"], "vicinity": "7P76+93X, Bouserkuti"}, {"business_status": "OPERATIONAL", "geometry": {"location": {"lat": 26.2659639, "lng": 89.70950669999999}, "viewport": {"northeast": {"lat": 26.2673045302915, "lng": 89.7108997802915}, "southwest": {"lat": 26.2646065697085, "lng": 89.70820181970848}}}, "icon": "https://maps.gstatic.com/mapfiles/place_api/icons/v1/png_71/school-71.png", "icon_background_color": "#7B9EB0", "icon_mask_base_uri": "https://maps.gstatic.com/mapfiles/place_api/icons/v2/school_pinlet", "name": "1268 No Bauserkuti L. P. School", "photos": [{"height": 4160, "html_attributions": ["<a href=\"https://maps.google.com/maps/contrib/110067407513676572340\">Abdur Abdur</a>"], "photo_reference": "Aap_uEB2RlF7VGTwOa97kXURq3Td1axxyljnXkrRPsb2bFz6uLfbMz0XJ3rBeimDnTAWL7NTlDssUa2n17crC7BDU2TIRPQluWc_zMt0mOZXGoi2excW0E-kC_7vYsJYfyxt2ybXuuuE0RKsmNyyPE4F2qSV0XJdI6IgQLM8W0e5jyrJJcGx", "width": 3120}], "place_id": "ChIJ90jPKCiN4jkREaRxzjcEoBg", "rating": 5, "reference": "ChIJ90jPKCiN4jkREaRxzjcEoBg", "scope": "GOOGLE", "types": ["school", "point_of_interest", "establishment"], "user_ratings_total": 4, "vicinity": "7P85+9RJ, Bouserkuti"}, {"business_status": "OPERATIONAL", "geometry": {"location": {"lat": 26.2619257, "lng": 89.71485190000001}, "viewport": {"northeast": {"lat": 26.2633279302915, "lng": 89.71668348029152}, "southwest": {"lat": 26.2606299697085, "lng": 89.71398551970852}}}, "icon": "https://maps.gstatic.com/mapfiles/place_api/icons/v1/png_71/school-71.png", "icon_background_color": "#7B9EB0", "icon_mask_base_uri": "https://maps.gstatic.com/mapfiles/place_api/icons/v2/school_pinlet", "name": "Cholo Pori Kichu Sikhi Academy. (A learning Hut)", "place_id": "ChIJn2Fs-3SN4jkReGE1FBapzs4", "plus_code": {"compound_code": "7P67+QW Mansai, West Bengal, India", "global_code": "7MRF7P67+QW"}, "reference": "ChIJn2Fs-3SN4jkReGE1FBapzs4", "scope": "GOOGLE", "types": ["school", "point_of_interest", "establishment"], "vicinity": "Unnamed Road, Mansai"}, {"business_status": "OPERATIONAL", "geometry": {"location": {"lat": 26.2712788, "lng": 89.6996358}, "viewport": {"northeast": {"lat": 26.27259248029151, "lng": 89.7010781802915}, "southwest": {"lat": 26.2698945197085, "lng": 89.6983802197085}}}, "icon": "https://maps.gstatic.com/mapfiles/place_api/icons/v1/png_71/school-71.png", "icon_background_color": "#7B9EB0", "icon_mask_base_uri": "https://maps.gstatic.com/mapfiles/place_api/icons/v2/school_pinlet", "name": "Dhanmatia Nimno Buniyadi Vidyalaya", "photos": [{"height": 1080, "html_attributions": ["<a href=\"https://maps.google.com/maps/contrib/100604486982043378665\">Subhajit Sarkar</a>"], "photo_reference": "Aap_uEBzCuO_T387vwqJ5xUul05bVGlIa2vEFekdRjTOTNy29XCvHZYKVyZfBpA4hzZeeMp4CEAicVwING91csEuKf1lt9ApsnHeFPf-oWJxkZJVucO2tBwxAZw9sUqZildy7s05HEIIXOQFXE_bGkMK13-yYYEuffeiFE-9X-ikXb6Jk1uR", "width": 1920}], "place_id": "ChIJe2M5P43z4jkRzLjS7x8bZ_w", "reference": "ChIJe2M5P43z4jkRzLjS7x8bZ_w", "scope": "GOOGLE", "types": ["primary_school", "school", "point_of_interest", "establishment"], "vicinity": "7MCX+GV6, Dhanmatia"}, {"business_status": "OPERATIONAL", "geometry": {"location": {"lat": 26.2623265, "lng": 89.71536429999999}, "viewport": {"northeast": {"lat": 26.26369098029151, "lng": 89.7169190802915}, "southwest": {"lat": 26.2609930197085, "lng": 89.71422111970848}}}, "icon": "https://maps.gstatic.com/mapfiles/place_api/icons/v1/png_71/school-71.png", "icon_background_color": "#7B9EB0", "icon_mask_base_uri": "https://maps.gstatic.com/mapfiles/place_api/icons/v2/school_pinlet", "name": "Mansai High School(HS)", "opening_hours": {"open_now": true}, "photos": [{"height": 3000, "html_attributions": ["<a href=\"https://maps.google.com/maps/contrib/113428025130559140946\">INFmystic</a>"], "photo_reference": "Aap_uEBXGOa78aztTpMyOvGAX7ndnIipKlawrLUhz5VkgCE8XWMBneM9x0CCCzWcRaIYtWU7CzfxIujQBe9HrIwhIhlqIj1MhSU61d6szaoCIksJyFcYQI5PeYS93rrBgTiMpy1sFcIYQhSYhYx1TWXOSB4V8MMC51L_MJmwFJw7dUY-yn6z", "width": 4000}], "place_id": "ChIJt2f6YzyN4jkRNVGSPclrnt4", "plus_code": {"compound_code": "7P68+W4 Bakshirhat, West Bengal, India", "global_code": "7MRF7P68+W4"}, "rating": 4, "reference": "ChIJt2f6YzyN4jkRNVGSPclrnt4", "scope": "GOOGLE", "types": ["school", "point_of_interest", "establishment"], "user_ratings_total": 27, "vicinity": "Mansai Road, Bakshirhat"}, {"business_status": "OPERATIONAL", "geometry": {"location": {"lat": 26.2715332, "lng": 89.69968279999999}, "viewport": {"northeast": {"lat": 26.27271968029151, "lng": 89.7011016802915}, "southwest": {"lat": 26.2700217197085, "lng": 89.69840371970848}}}, "icon": "https://maps.gstatic.com/mapfiles/place_api/icons/v1/png_71/school-71.png", "icon_background_color": "#7B9EB0", "icon_mask_base_uri": "https://maps.gstatic.com/mapfiles/place_api/icons/v2/school_pinlet", "name": "Dhanmatia Vidyasagar Madhyamik Siksha Kendra", "photos": [{"height": 1080, "html_attributions": ["<a href=\"https://maps.google.com/maps/contrib/100604486982043378665\">Subhajit Sarkar</a>"], "photo_reference": "Aap_uEBEr36V5sqYVqfBixLhPmWHzRV7jeoVuEqqTM6GJAAseLpC0lj_mBrKB-UVTGXnSeTt0LxT1Dj5DENDcZqMcltsiC9zqHkSFVIEViyx6C3g3HdBgxuFiTd4toY3pTaVzdPPp4Yw04sqlSUs08gY0H_JIcirqvJZbbcPiYr0LQ6HnWq7", "width": 1920}], "place_id": "ChIJa9XfI5Dz4jkR_9uvKcBS_XA", "reference": "ChIJa9XfI5Dz4jkR_9uvKcBS_XA", "scope": "GOOGLE", "types": ["secondary_school", "school", "point_of_interest", "establishment"], "vicinity": "7MCX+JV7, Dhanmatia"}, {"business_status": "OPERATIONAL", "geometry": {"location": {"lat": 26.2545888, "lng": 89.7130921}, "viewport": {"northeast": {"lat": 26.2558858802915, "lng": 89.7145250302915}, "southwest": {"lat": 26.2531879197085, "lng": 89.71182706970849}}}, "icon": "https://maps.gstatic.com/mapfiles/place_api/icons/v1/png_71/school-71.png", "icon_background_color": "#7B9EB0", "icon_mask_base_uri": "https://maps.gstatic.com/mapfiles/place_api/icons/v2/school_pinlet", "name": "Debagram 2 No SC prathamik Vidyalaya", "opening_hours": {"open_now": true}, "photos": [{"height": 3456, "html_attributions": ["<a href=\"https://maps.google.com/maps/contrib/103844648876683381955\">Ranadeb Baroi</a>"], "photo_reference": "Aap_uED6R0dzrL8VRv2eTA9oQHfZAQ6NzLRp52lsMunqQVanyJRGQksaaerEUiqA3rLKYQtt-vi8gJBMmo4V79cTcVkUz7Aqg2uCbvV2OMwYD1iOZum2hgIy1UecfdgWQy96hAj6GWxg0Xd_0ftfVbVkUE5GcuHwaWw3pBbBxqMb2r7Kp1QT", "width": 5184}], "place_id": "ChIJnTugelCN4jkRGNsnCovNiQM", "rating": 4, "reference": "ChIJnTugelCN4jkRGNsnCovNiQM", "scope": "GOOGLE", "types": ["school", "point_of_interest", "establishment"], "user_ratings_total": 1, "vicinity": "7P37+R6P, Debgram"}, {"business_status": "OPERATIONAL", "geometry": {"location": {"lat": 26.2528812, "lng": 89.711632}, "viewport": {"northeast": {"lat": 26.2542210302915, "lng": 89.7129853302915}, "southwest": {"lat": 26.2515230697085, "lng": 89.7102873697085}}}, "icon": "https://maps.gstatic.com/mapfiles/place_api/icons/v1/png_71/school-71.png", "icon_background_color": "#7B9EB0", "icon_mask_base_uri": "https://maps.gstatic.com/mapfiles/place_api/icons/v2/school_pinlet", "name": "AMBARY BAZAR", "place_id": "ChIJwQyYwhWN4jkRA7u0HCH21sk", "rating": 3, "reference": "ChIJwQyYwhWN4jkRA7u0HCH21sk", "scope": "GOOGLE", "types": ["school", "point_of_interest", "establishment"], "user_ratings_total": 1, "vicinity": "7P36+5M2, Debgram"}, {"business_status": "OPERATIONAL", "geometry": {"location": {"lat": 26.2651339, "lng": 89.6915284}, "viewport": {"northeast": {"lat": 26.26645603029151, "lng": 89.6929597802915}, "southwest": {"lat": 26.2637580697085, "lng": 89.69026181970848}}}, "icon": "https://maps.gstatic.com/mapfiles/place_api/icons/v1/png_71/school-71.png", "icon_background_color": "#7B9EB0", "icon_mask_base_uri": "https://maps.gstatic.com/mapfiles/place_api/icons/v2/school_pinlet", "name": "Dwiparpar No.2 Primary School", "opening_hours": {"open_now": true}, "photos": [{"height": 2448, "html_attributions": ["<a href=\"https://maps.google.com/maps/contrib/114104982425373365153\">Sirtaj Ali Sehjad</a>"], "photo_reference": "Aap_uEAwS9FOLol2cKLPTLyCVpjl4fSnhzmCtZFxmAfHaFYETgtDk_eOpYFE_p3mSXEtz6ue0myVA8I8IwULZCPZY2LCjxGNdw8Dh3qV3MmgKV_1A0k8YTQ45-8vARMI4anHcepWllgWuHH6tiL2tfBiPwvaaZmltfxJqDeHoPJm8444u6i9", "width": 3264}], "place_id": "ChIJj0T5927z4jkRwKD1iu2ikD8", "plus_code": {"compound_code": "7M8R+3J Dwiparpar, West Bengal, India", "global_code": "7MRF7M8R+3J"}, "rating": 4.5, "reference": "ChIJj0T5927z4jkRwKD1iu2ikD8", "scope": "GOOGLE", "types": ["school", "point_of_interest", "establishment"], "user_ratings_total": 4, "vicinity": "Rajarkuthi, Harir Hat Road, Dwiparpar"}, {"business_status": "OPERATIONAL", "geometry": {"location": {"lat": 26.264899, "lng": 89.7172559}, "viewport": {"northeast": {"lat": 26.2662286302915, "lng": 89.71853978029151}, "southwest": {"lat": 26.2635306697085, "lng": 89.71584181970849}}}, "icon": "https://maps.gstatic.com/mapfiles/place_api/icons/v1/png_71/school-71.png", "icon_background_color": "#7B9EB0", "icon_mask_base_uri": "https://maps.gstatic.com/mapfiles/place_api/icons/v2/school_pinlet", "name": "Sonali Shishu Tirtha", "opening_hours": {"open_now": true}, "place_id": "ChIJ971jLz2N4jkRMNUUPmUUU98", "reference": "ChIJ971jLz2N4jkRMNUUPmUUU98", "scope": "GOOGLE", "types": ["school", "point_of_interest", "establishment"], "vicinity": "7P78+XW2, Mansai"}], "status": "OK"}