{"html_attributions": [], "results": [{"business_status": "OPERATIONAL", "geometry": {"location": {"lat": 26.2366598, "lng": 89.85986229999999}, "viewport": {"northeast": {"lat": 26.23736355000001, "lng": 89.8617448}, "southwest": {"lat": 26.23454855, "lng": 89.85421480000001}}}, "icon": "https://maps.gstatic.com/mapfiles/place_api/icons/v1/png_71/school-71.png", "icon_background_color": "#7B9EB0", "icon_mask_base_uri": "https://maps.gstatic.com/mapfiles/place_api/icons/v2/school_pinlet", "name": "Uttar Kachokhana", "place_id": "ChIJv540suyF4jkRDdQbQV2RJRM", "reference": "ChIJv540suyF4jkRDdQbQV2RJRM", "scope": "GOOGLE", "types": ["school", "point_of_interest", "establishment"], "vicinity": "6VP5+MW9, Uttar Kachokhana"}, {"business_status": "OPERATIONAL", "geometry": {"location": {"lat": 26.2389565, "lng": 89.87247339999999}, "viewport": {"northeast": {"lat": 26.2402696802915, "lng": 89.8739542302915}, "southwest": {"lat": 26.2375717197085, "lng": 89.8712562697085}}}, "icon": "https://maps.gstatic.com/mapfiles/place_api/icons/v1/png_71/school-71.png", "icon_background_color": "#7B9EB0", "icon_mask_base_uri": "https://maps.gstatic.com/mapfiles/place_api/icons/v2/school_pinlet", "name": "uttar Jaldoba Nabojyoti M.E School", "place_id": "ChIJ10a5DciF4jkR9NUCQl9zic0", "reference": "ChIJ10a5DciF4jkR9NUCQl9zic0", "scope": "GOOGLE", "types": ["school", "point_of_interest", "establishment"], "vicinity": "6VQC+HXQ, Joldoba Pt.II"}, {"business_status": "OPERATIONAL", "geometry": {"location": {"lat": 26.2451519, "lng": 89.85284159999999}, "viewport": {"northeast": {"lat": 26.24598195, "lng": 89.85414924999999}, "southwest": {"lat": 26.24266175, "lng": 89.84891865000002}}}, "icon": "https://maps.gstatic.com/mapfiles/place_api/icons/v1/png_71/school-71.png", "icon_background_color": "#7B9EB0", "icon_mask_base_uri": "https://maps.gstatic.com/mapfiles/place_api/icons/v2/school_pinlet", "name": "Bhatipetla Me Madrasa", "place_id": "ChIJB_1tnqmF4jkRGG1apLyuGdc", "rating": 3, "reference": "ChIJB_1tnqmF4jkRGG1apLyuGdc", "scope": "GOOGLE", "types": ["school", "point_of_interest", "establishment"], "user_ratings_total": 2, "vicinity": "6VW3+348, Bhatipetla"}, {"business_status": "OPERATIONAL", "geometry": {"location": {"lat": 26.23832, "lng": 89.8529551}, "viewport": {"northeast": {"lat": 26.2398867302915, "lng": 89.8546685302915}, "southwest": {"lat": 26.2371887697085, "lng": 89.8519705697085}}}, "icon": "https://maps.gstatic.com/mapfiles/place_api/icons/v1/png_71/school-71.png", "icon_background_color": "#7B9EB0", "icon_mask_base_uri": "https://maps.gstatic.com/mapfiles/place_api/icons/v2/school_pinlet", "name": "Satsewra kalyankami high school", "photos": [{"height": 2128, "html_attributions": ["<a href=\"https://maps.google.com/maps/contrib/111615237058937234633\">Asaraf Vlogs</a>"], "photo_reference": "Aap_uEA46UOe90ljX3UjyLiJaeW00B3sm4-RQNbTPoIpMmZDlgII6dRsHZB0mynyc3vwQ1YATsjYWOg-21mWjz836ZLt1vR8VP5t92qM5PDJA-yIyBI6Nt0gHktrAX5MrnEInUP9Ksvq5JVdBjWUsOH4S4_hxU__Xp5UUsO37pCn9LGb6cF3", "width": 4608}], "place_id": "ChIJt3dgEamF4jkRpBMQKU2BDD8", "plus_code": {"compound_code": "6VQ3+85 Bhatipetla, Assam, India", "global_code": "7MRF6VQ3+85"}, "rating": 5, "reference": "ChIJt3dgEamF4jkRpBMQKU2BDD8", "scope": "GOOGLE", "types": ["school", "point_of_interest", "establishment"], "user_ratings_total": 1, "vicinity": "Dhubri - Kochugaon Road, Bhatipetla"}, {"business_status": "OPERATIONAL", "geometry": {"location": {"lat": 26.2494178, "lng": 89.87521420000002}, "viewport": {"northeast": {"lat": 26.2503362802915, "lng": 89.87838639999998}, "southwest": {"lat": 26.2476383197085, "lng": 89.87415680000004}}}, "icon": "https://maps.gstatic.com/mapfiles/place_api/icons/v1/png_71/school-71.png", "icon_background_color": "#7B9EB0", "icon_mask_base_uri": "https://maps.gstatic.com/mapfiles/place_api/icons/v2/school_pinlet", "name": "582 No. Molandubi LPS", "place_id": "ChIJDQ6m9kOF4jkRkZVifVTOVfk", "rating": 5, "reference": "ChIJDQ6m9kOF4jkRkZVifVTOVfk", "scope": "GOOGLE", "types": ["school", "point_of_interest", "establishment"], "user_ratings_total": 1, "vicinity": "6VXG+Q38, Molandubi"}], "status": "OK"}