{"html_attributions": [], "next_page_token": "Aap_uEC-QjhHD5tbd9caK4Nej5gk0DmrmdJYr4wlbDqncApZ5JpPd00bvn3tXlQ6QbRr512ap2XeFGg5aiIa1shTKUMb3DJHqduBKsChFeqsJybbg2hW23NW_pdm2xdr97uKCg2xAMDfi841CeilEpnfMy3TjQNzZ1suzstxBLXH0YgZoJZ7_AoA_6uY7iLp-70ha9dy6Qj5Abo56HV9Hu5IFRf-NKtju2KEICLosz4SfGEpBAdX07fBruVyfU97q7hlgaV5hfsuj5L7e4D9fqtN3STLfO40Qcx4ioJTuSlMqM2vhOSpA7ssmqd-EK_UE-ddrjCEsiCRajdkCJhyhT8ITj-1ArkeZCZ9wARaeh7V1uj6f6KdGgpt8iHjGZnx16v915EXp4-_hDtK1dx06EEWaXRZqZVOQbeMnFnoYWBxaVgliEO-htc", "results": [{"business_status": "OPERATIONAL", "geometry": {"location": {"lat": 25.6814927, "lng": 89.8838067}, "viewport": {"northeast": {"lat": 25.6827433802915, "lng": 89.8851211802915}, "southwest": {"lat": 25.6800454197085, "lng": 89.88242321970849}}}, "icon": "https://maps.gstatic.com/mapfiles/place_api/icons/v1/png_71/school-71.png", "icon_background_color": "#7B9EB0", "icon_mask_base_uri": "https://maps.gstatic.com/mapfiles/place_api/icons/v2/school_pinlet", "name": "Sonapur high school", "photos": [{"height": 1440, "html_attributions": ["<a href=\"https://maps.google.com/maps/contrib/108471090716473493986\">Raju ddk masti channel</a>"], "photo_reference": "Aap_uEACprhKZbtLf7AWe7aC1VilXJIf5sd9Uv3PYxZVPW3uTbk_C5wevnRMfGIE95ZaQMFc9hOLWUplYQXwXnCWL03LK_F9MXxVX6QLSnshFRpIu0UMzedKEsPia_-7ULm_Z7Ovq5lrDjurZ_5anskMPO867r21ck-nUhLmopmRnpqyoSGB", "width": 720}], "place_id": "ChIJeUbP8zWt4jkRAksxRypeHmk", "rating": 1, "reference": "ChIJeUbP8zWt4jkRAksxRypeHmk", "scope": "GOOGLE", "types": ["school", "point_of_interest", "establishment"], "user_ratings_total": 1, "vicinity": "MVJM+HGV, Kathalbari"}, {"business_status": "OPERATIONAL", "geometry": {"location": {"lat": 25.6775791, "lng": 89.8809151}, "viewport": {"northeast": {"lat": 25.6815598, "lng": 89.88167905}, "southwest": {"lat": 25.6762522, "lng": 89.87862325}}}, "icon": "https://maps.gstatic.com/mapfiles/place_api/icons/v1/png_71/school-71.png", "icon_background_color": "#7B9EB0", "icon_mask_base_uri": "https://maps.gstatic.com/mapfiles/place_api/icons/v2/school_pinlet", "name": "19 No Kathalbari (B) Anganwadi centre", "photos": [{"height": 3120, "html_attributions": ["<a href=\"https://maps.google.com/maps/contrib/108676478322289148033\">Abu Sopian</a>"], "photo_reference": "Aap_uEArUT0IlWDZB2TLvQcqH-D-TduArRgl80Ag7pJqysyc6bsnTXlEg4_XJATfwAf9U06Szyy6T58eBNN8jkqJv8z52N52LndHGLEaO2G8yo-rw1jq11YbRmFj2TPbxMMD4ff53YfvK64h9tisgx9qrZbZ9GpeGmOYTLN6SYG1g0x4yF47", "width": 4160}], "place_id": "ChIJLY6Ann2t4jkRWyzqx-0Mw_0", "reference": "ChIJLY6Ann2t4jkRWyzqx-0Mw_0", "scope": "GOOGLE", "types": ["school", "point_of_interest", "establishment"], "vicinity": "MVHJ+29M, Kathalbari"}, {"business_status": "OPERATIONAL", "geometry": {"location": {"lat": 25.6804469, "lng": 89.8897954}, "viewport": {"northeast": {"lat": 25.6819267802915, "lng": 89.8911437302915}, "southwest": {"lat": 25.6792288197085, "lng": 89.8884457697085}}}, "icon": "https://maps.gstatic.com/mapfiles/place_api/icons/v1/png_71/school-71.png", "icon_background_color": "#7B9EB0", "icon_mask_base_uri": "https://maps.gstatic.com/mapfiles/place_api/icons/v2/school_pinlet", "name": "1586 No. Bekardoba L.P School", "photos": [{"height": 534, "html_attributions": ["<a href=\"https://maps.google.com/maps/contrib/111069486297417671888\">Baadal Khan</a>"], "photo_reference": "Aap_uEBTzUrNKD5zpXOtzzsvz41Hzz0jouBoNrxXmAz1ATnVrOkspRNthmPByAl3SYCW0Omv3v1yQISjCc2-a8qXoZx17PkiT559O0YeIssHM-KO2s0Z_FLgpL4Fk-6_Z9sK85s65SUbbcp3P-_Lylfd32NN5dnyI_cK2aud_xkJN56Q2hPc", "width": 712}], "place_id": "ChIJcd3n0tis4jkRTLwxVJiY_rw", "plus_code": {"compound_code": "MVJQ+5W Pacherkandi, Assam, India", "global_code": "7MQFMVJQ+5W"}, "rating": 5, "reference": "ChIJcd3n0tis4jkRTLwxVJiY_rw", "scope": "GOOGLE", "types": ["primary_school", "school", "point_of_interest", "establishment"], "user_ratings_total": 2, "vicinity": "Bekardoba P.O Fekamari, Dhubri"}, {"business_status": "OPERATIONAL", "geometry": {"location": {"lat": 25.6753182, "lng": 89.8809689}, "viewport": {"northeast": {"lat": 25.6764553, "lng": 89.8821738302915}, "southwest": {"lat": 25.6719069, "lng": 89.8794758697085}}}, "icon": "https://maps.gstatic.com/mapfiles/place_api/icons/v1/png_71/school-71.png", "icon_background_color": "#7B9EB0", "icon_mask_base_uri": "https://maps.gstatic.com/mapfiles/place_api/icons/v2/school_pinlet", "name": "Chengurchar Das Para L.P School", "place_id": "ChIJKbSwgiWt4jkRcteI1aGaAtE", "plus_code": {"compound_code": "MVGJ+49 Kathalbari, Assam, India", "global_code": "7MQFMVGJ+49"}, "rating": 5, "reference": "ChIJKbSwgiWt4jkRcteI1aGaAtE", "scope": "GOOGLE", "types": ["primary_school", "school", "point_of_interest", "establishment"], "user_ratings_total": 2, "vicinity": "Chengurchar P.O Purandiara Dist. Dhubri Assam 783135"}, {"business_status": "OPERATIONAL", "geometry": {"location": {"lat": 25.6757712, "lng": 89.8889586}, "viewport": {"northeast": {"lat": 25.6772088302915, "lng": 89.89416405}, "southwest": {"lat": 25.6745108697085, "lng": 89.88722345}}}, "icon": "https://maps.gstatic.com/mapfiles/place_api/icons/v1/png_71/school-71.png", "icon_background_color": "#7B9EB0", "icon_mask_base_uri": "https://maps.gstatic.com/mapfiles/place_api/icons/v2/school_pinlet", "name": "Telipara M.E Madrassa", "place_id": "ChIJB-HSFdis4jkRrji0scQjuDg", "plus_code": {"compound_code": "MVGQ+8H Kathalbari, Assam, India", "global_code": "7MQFMVGQ+8H"}, "rating": 5, "reference": "ChIJB-HSFdis4jkRrji0scQjuDg", "scope": "GOOGLE", "types": ["school", "point_of_interest", "establishment"], "user_ratings_total": 2, "vicinity": "Telipara P.O Purandiara Dist. Dhubri Assam 783135"}, {"business_status": "CLOSED_TEMPORARILY", "geometry": {"location": {"lat": 25.675634, "lng": 89.8892844}, "viewport": {"northeast": {"lat": 25.6770751302915, "lng": 89.89401525}, "southwest": {"lat": 25.6743771697085, "lng": 89.88770745}}}, "icon": "https://maps.gstatic.com/mapfiles/place_api/icons/v1/png_71/school-71.png", "icon_background_color": "#7B9EB0", "icon_mask_base_uri": "https://maps.gstatic.com/mapfiles/place_api/icons/v2/school_pinlet", "name": "2096 No. Telipara L.P School", "permanently_closed": true, "photos": [{"height": 480, "html_attributions": ["<a href=\"https://maps.google.com/maps/contrib/109744148453018271115\">aminur islam</a>"], "photo_reference": "Aap_uEApU5IiZO6x2Eqt6FFWnQXS0Ii57PDAq6oO8PJTT2kN10qgpwArM4Zwx67YaOiw-VfkgnF5LhOJ1jv6l2MiVakM4nGum4LSDdwu9GH8--AgNqfpSOtJiUsxUL59PlaLrftvNKh0Wkjmg8WNxhISfcyDzyQzdRV6P6q3Dhl7Y0P1l8Q5", "width": 640}], "place_id": "ChIJ19FHPNis4jkRxY6toyjA1Ms", "plus_code": {"compound_code": "MVGQ+7P Kathalbari, Assam, India", "global_code": "7MQFMVGQ+7P"}, "rating": 4.2, "reference": "ChIJ19FHPNis4jkRxY6toyjA1Ms", "scope": "GOOGLE", "types": ["primary_school", "school", "point_of_interest", "establishment"], "user_ratings_total": 5, "vicinity": "Telipara P.O Purandiara Dist. Dhubri Assam 783135"}, {"business_status": "OPERATIONAL", "geometry": {"location": {"lat": 25.6852883, "lng": 89.8920961}, "viewport": {"northeast": {"lat": 25.6867226302915, "lng": 89.89346363029149}, "southwest": {"lat": 25.68402466970849, "lng": 89.89076566970849}}}, "icon": "https://maps.gstatic.com/mapfiles/place_api/icons/v1/png_71/school-71.png", "icon_background_color": "#7B9EB0", "icon_mask_base_uri": "https://maps.gstatic.com/mapfiles/place_api/icons/v2/school_pinlet", "name": "148 No. Sonapur L.P School", "photos": [{"height": 3120, "html_attributions": ["<a href=\"https://maps.google.com/maps/contrib/107720104871415956812\">Murtaza Ahmed</a>"], "photo_reference": "Aap_uEDS381J7FhA0Pp3ci8krC-k6T4ZYehAEPtqE4ZhHOt_KqDjZGds7xVbIRtBNBCyO2Pz2EAj2fQf845SDZcpGf0oTS9SURyvQFDH7U5shnJjBsNoM8FSmcLVwJqRcJh-tHHsSh3wDAPm_2dhap7V8di4-bPfU31cDoQoEOHczKQTVaDy", "width": 4208}], "place_id": "ChIJpQbCDd6s4jkRAUYHycAE43A", "plus_code": {"compound_code": "MVPR+4R Pacherkandi, Assam, India", "global_code": "7MQFMVPR+4R"}, "rating": 5, "reference": "ChIJpQbCDd6s4jkRAUYHycAE43A", "scope": "GOOGLE", "types": ["primary_school", "school", "point_of_interest", "establishment"], "user_ratings_total": 4, "vicinity": "Sonapur P.O Fekamari Dist. Dhubri Assam 783135"}, {"business_status": "CLOSED_TEMPORARILY", "geometry": {"location": {"lat": 25.6786472, "lng": 89.87585759999999}, "viewport": {"northeast": {"lat": 25.67999453029151, "lng": 89.8771952802915}, "southwest": {"lat": 25.6772965697085, "lng": 89.8744973197085}}}, "icon": "https://maps.gstatic.com/mapfiles/place_api/icons/v1/png_71/school-71.png", "icon_background_color": "#7B9EB0", "icon_mask_base_uri": "https://maps.gstatic.com/mapfiles/place_api/icons/v2/school_pinlet", "name": "Borai Kandi L.P School", "permanently_closed": true, "place_id": "ChIJARk3x8Ot4jkRAUMvIn_Jr6s", "reference": "ChIJARk3x8Ot4jkRAUMvIn_Jr6s", "scope": "GOOGLE", "types": ["school", "point_of_interest", "establishment"], "vicinity": "MVHG+F85, Kathalbari"}, {"business_status": "OPERATIONAL", "geometry": {"location": {"lat": 25.6739548, "lng": 89.88515690000001}, "viewport": {"northeast": {"lat": 25.67464075, "lng": 89.88613243029152}, "southwest": {"lat": 25.67189695, "lng": 89.88343446970852}}}, "icon": "https://maps.gstatic.com/mapfiles/place_api/icons/v1/png_71/school-71.png", "icon_background_color": "#7B9EB0", "icon_mask_base_uri": "https://maps.gstatic.com/mapfiles/place_api/icons/v2/school_pinlet", "name": "Boraikandi L.P School", "photos": [{"height": 480, "html_attributions": ["<a href=\"https://maps.google.com/maps/contrib/109744148453018271115\">aminur islam</a>"], "photo_reference": "Aap_uEBwrc129rNZLQqlnYCzTibtlGfP5UvMgEV6Hq6dizB8TsuMyp0BsKCnV7Bg8qpPHtZC-v57JCdL3lWoS3XfI167tdCVtRc6MGAMFoOb6Mh9jBgVUfek8z1C9u7WWsmwS9AzBMn1tXdz0E5_BhLw66Gq1IQJ0r-qQ2f9YmLUwy_CXs6o", "width": 640}], "place_id": "ChIJYQ6ehSit4jkRNUzl3Y93bUk", "plus_code": {"compound_code": "MVFP+H3 Kathalbari, Assam, India", "global_code": "7MQFMVFP+H3"}, "rating": 3.7, "reference": "ChIJYQ6ehSit4jkRNUzl3Y93bUk", "scope": "GOOGLE", "types": ["primary_school", "school", "point_of_interest", "establishment"], "user_ratings_total": 3, "vicinity": "Boraikandi P.O Purandiara Dist. Dhubri Assam 783135"}, {"business_status": "OPERATIONAL", "geometry": {"location": {"lat": 25.6789793, "lng": 89.89313170000001}, "viewport": {"northeast": {"lat": 25.68030528029151, "lng": 89.89443543029152}, "southwest": {"lat": 25.6776073197085, "lng": 89.8917374697085}}}, "icon": "https://maps.gstatic.com/mapfiles/place_api/icons/v1/png_71/school-71.png", "icon_background_color": "#7B9EB0", "icon_mask_base_uri": "https://maps.gstatic.com/mapfiles/place_api/icons/v2/school_pinlet", "name": "Markazul uloom ul islamia sonapur madrasssa", "place_id": "ChIJ-zG8OOKt4jkR5kw1C0bs5pA", "reference": "ChIJ-zG8OOKt4jkR5kw1C0bs5pA", "scope": "GOOGLE", "types": ["school", "point_of_interest", "establishment"], "vicinity": "MVHV+H7R, Pacherkandi"}, {"business_status": "OPERATIONAL", "geometry": {"location": {"lat": 25.67889169999999, "lng": 89.89327159999999}, "viewport": {"northeast": {"lat": 25.6802881802915, "lng": 89.8945053802915}, "southwest": {"lat": 25.67759021970849, "lng": 89.89180741970848}}}, "icon": "https://maps.gstatic.com/mapfiles/place_api/icons/v1/png_71/school-71.png", "icon_background_color": "#7B9EB0", "icon_mask_base_uri": "https://maps.gstatic.com/mapfiles/place_api/icons/v2/school_pinlet", "name": "Marka zul uloom alislamia madrassa", "place_id": "ChIJEw-_L9Ct4jkRRxHVWxCIxEA", "reference": "ChIJEw-_L9Ct4jkRRxHVWxCIxEA", "scope": "GOOGLE", "types": ["school", "point_of_interest", "establishment"], "vicinity": "MVHV+H82, Pacherkandi"}, {"business_status": "OPERATIONAL", "geometry": {"location": {"lat": 25.6740914, "lng": 89.8790853}, "viewport": {"northeast": {"lat": 25.6755620802915, "lng": 89.8800702802915}, "southwest": {"lat": 25.6728641197085, "lng": 89.87737231970848}}}, "icon": "https://maps.gstatic.com/mapfiles/place_api/icons/v1/png_71/school-71.png", "icon_background_color": "#7B9EB0", "icon_mask_base_uri": "https://maps.gstatic.com/mapfiles/place_api/icons/v2/school_pinlet", "name": "2266 No. Chengurchar L.P School", "photos": [{"height": 720, "html_attributions": ["<a href=\"https://maps.google.com/maps/contrib/109744148453018271115\">aminur islam</a>"], "photo_reference": "Aap_uEBK9Pr3P3OlNr9iKJgqFOigiSeqG98yakyxI33ZL4C4nGwU8VI76LcmeJ-qzCR6e2-hjcg7JduHoa1epP21dsFJkCHNUDHRMJiARrShc7JqtfBEX59vLWVbXNl9sakXXA7zI1N0EMb3_peF8nZoZ3GTq61VHArWTzdd2RL9mGOJRsNz", "width": 1280}], "place_id": "ChIJq-1d-i-t4jkRoFS-oEeylB4", "plus_code": {"compound_code": "MVFH+JJ Kathalbari, Assam, India", "global_code": "7MQFMVFH+JJ"}, "rating": 4.2, "reference": "ChIJq-1d-i-t4jkRoFS-oEeylB4", "scope": "GOOGLE", "types": ["primary_school", "school", "point_of_interest", "establishment"], "user_ratings_total": 5, "vicinity": "Chengurchar P.O Purandiara Dist. Dhubri Assam 783135"}, {"business_status": "OPERATIONAL", "geometry": {"location": {"lat": 25.6844559, "lng": 89.8940303}, "viewport": {"northeast": {"lat": 25.6859053802915, "lng": 89.89503773029149}, "southwest": {"lat": 25.6832074197085, "lng": 89.89233976970849}}}, "icon": "https://maps.gstatic.com/mapfiles/place_api/icons/v1/png_71/school-71.png", "icon_background_color": "#7B9EB0", "icon_mask_base_uri": "https://maps.gstatic.com/mapfiles/place_api/icons/v2/school_pinlet", "name": "Sonapur M.E School", "place_id": "ChIJSatwud2s4jkRQ-QzbKWyxWw", "rating": 3.7, "reference": "ChIJSatwud2s4jkRQ-QzbKWyxWw", "scope": "GOOGLE", "types": ["school", "point_of_interest", "establishment"], "user_ratings_total": 3, "vicinity": "MVMV+QJJ, Pacherkandi"}, {"business_status": "CLOSED_TEMPORARILY", "geometry": {"location": {"lat": 25.6848012, "lng": 89.8939984}, "viewport": {"northeast": {"lat": 25.6862280802915, "lng": 89.8950757802915}, "southwest": {"lat": 25.68353011970849, "lng": 89.8923778197085}}}, "icon": "https://maps.gstatic.com/mapfiles/place_api/icons/v1/png_71/school-71.png", "icon_background_color": "#7B9EB0", "icon_mask_base_uri": "https://maps.gstatic.com/mapfiles/place_api/icons/v2/school_pinlet", "name": "Sonapur High School", "permanently_closed": true, "photos": [{"height": 2643, "html_attributions": ["<a href=\"https://maps.google.com/maps/contrib/106144888299791567791\">Raju Mix Masala channel</a>"], "photo_reference": "Aap_uEDqoCK_eIbtfLPbcT9VSSfwL5YBGdQQKxSUzBMpkrWVlvcJGHoHHgvMJpc5Sw-8gzy7TzGafbObN-ZRmD94z8gtCnkWnXPHHoo0c2K1vSIYTztMHsTBl0vp8VlrGKiIzqxKTCo_ifYBsCxB4Ew6UqBRzbdBzhBnATPjX7zwluM5nPyr", "width": 1982}], "place_id": "ChIJZaGKvt2s4jkRN4JUkP2QjeY", "plus_code": {"compound_code": "MVMV+WH Pacherkandi, Assam, India", "global_code": "7MQFMVMV+WH"}, "rating": 4.8, "reference": "ChIJZaGKvt2s4jkRN4JUkP2QjeY", "scope": "GOOGLE", "types": ["school", "point_of_interest", "establishment"], "user_ratings_total": 5, "vicinity": "Sonapur, Pacherkandi, Assam"}, {"business_status": "OPERATIONAL", "geometry": {"location": {"lat": 25.6848704, "lng": 89.8944071}, "viewport": {"northeast": {"lat": 25.6863472802915, "lng": 89.89531003029151}, "southwest": {"lat": 25.6836493197085, "lng": 89.8926120697085}}}, "icon": "https://maps.gstatic.com/mapfiles/place_api/icons/v1/png_71/school-71.png", "icon_background_color": "#7B9EB0", "icon_mask_base_uri": "https://maps.gstatic.com/mapfiles/place_api/icons/v2/school_pinlet", "name": "Gasbari LP school raju", "place_id": "ChIJ59h3fNet4jkRBBnHyhJGrIA", "rating": 5, "reference": "ChIJ59h3fNet4jkRBBnHyhJGrIA", "scope": "GOOGLE", "types": ["school", "point_of_interest", "establishment"], "user_ratings_total": 1, "vicinity": "MVMV+WQV, Pacherkandi"}, {"business_status": "CLOSED_TEMPORARILY", "geometry": {"location": {"lat": 25.6842015, "lng": 89.8947883}, "viewport": {"northeast": {"lat": 25.6857640302915, "lng": 89.89551395000001}, "southwest": {"lat": 25.6830660697085, "lng": 89.89261135000002}}}, "icon": "https://maps.gstatic.com/mapfiles/place_api/icons/v1/png_71/school-71.png", "icon_background_color": "#7B9EB0", "icon_mask_base_uri": "https://maps.gstatic.com/mapfiles/place_api/icons/v2/school_pinlet", "name": "Gasbari LP school", "permanently_closed": true, "photos": [{"height": 3000, "html_attributions": ["<a href=\"https://maps.google.com/maps/contrib/104430703982153045410\">firdous alom</a>"], "photo_reference": "Aap_uEBx22gIiRTMH-g48Cu54V0xJhfoztgrzwV-U7cJxz5-CgtgVnzc1Ung94hKTr_UjosvpgvgOvwjw3FAA4GU2JdjvOfk--zohXorYKf_EMwZpd154FvtuSKKJQvQrBuMCEyj6pqK3l5p03U4bZhtfJgZOhYG00ggY9-4NXdG1cl0dFi_", "width": 4000}], "place_id": "ChIJ990Mz1mt4jkRYaXabdBtDRA", "plus_code": {"compound_code": "MVMV+MW Gasbari, Meghalaya, India", "global_code": "7MQFMVMV+MW"}, "rating": 5, "reference": "ChIJ990Mz1mt4jkRYaXabdBtDRA", "scope": "GOOGLE", "types": ["school", "point_of_interest", "establishment"], "user_ratings_total": 2, "vicinity": "Gasbari"}, {"business_status": "OPERATIONAL", "geometry": {"location": {"lat": 25.6748003, "lng": 89.8750946}, "viewport": {"northeast": {"lat": 25.6761148802915, "lng": 89.8764445802915}, "southwest": {"lat": 25.6734169197085, "lng": 89.8737466197085}}}, "icon": "https://maps.gstatic.com/mapfiles/place_api/icons/v1/png_71/school-71.png", "icon_background_color": "#7B9EB0", "icon_mask_base_uri": "https://maps.gstatic.com/mapfiles/place_api/icons/v2/school_pinlet", "name": "Gurukul Jatiya Vidyalaya Chengurchar (GJVC)", "photos": [{"height": 1920, "html_attributions": ["<a href=\"https://maps.google.com/maps/contrib/101394360429562828473\">Mahmud Hossain</a>"], "photo_reference": "Aap_uEAKobvsZZGqVsQptWU-srn1J7GpWYR9i0aoqBq4KkW3B7eXI5iqGjgrHyh2NCXL6w4UKACF-zd8eBzeYCuOTA-r7juOkJWs0tSxBZn4MPjjpkvhJk--VxtfmgiIXtsIptwUczUmhogmsSDlhxLG4Wzy_AGbcnNf2a7dqnccG-xrcCIA", "width": 1080}], "place_id": "ChIJdc_M8Cyt4jkR4jBPTheva9o", "rating": 5, "reference": "ChIJdc_M8Cyt4jkR4jBPTheva9o", "scope": "GOOGLE", "types": ["school", "point_of_interest", "establishment"], "user_ratings_total": 1, "vicinity": "MVFG+W2H, Kathalbari"}, {"business_status": "OPERATIONAL", "geometry": {"location": {"lat": 25.6747589, "lng": 89.8750952}, "viewport": {"northeast": {"lat": 25.6761119802915, "lng": 89.8764440802915}, "southwest": {"lat": 25.6734140197085, "lng": 89.8737461197085}}}, "icon": "https://maps.gstatic.com/mapfiles/place_api/icons/v1/png_71/school-71.png", "icon_background_color": "#7B9EB0", "icon_mask_base_uri": "https://maps.gstatic.com/mapfiles/place_api/icons/v2/school_pinlet", "name": "GURUKUL JATIYA VIDYALAYA", "place_id": "ChIJ8_jriy2t4jkRO5HX18rkOao", "reference": "ChIJ8_jriy2t4jkRO5HX18rkOao", "scope": "GOOGLE", "types": ["school", "point_of_interest", "establishment"], "vicinity": "MVFG+W25, Kathalbari"}, {"business_status": "OPERATIONAL", "geometry": {"location": {"lat": 25.69276409999999, "lng": 89.8871333}, "viewport": {"northeast": {"lat": 25.6939560302915, "lng": 89.8886588302915}, "southwest": {"lat": 25.6912580697085, "lng": 89.8859608697085}}}, "icon": "https://maps.gstatic.com/mapfiles/place_api/icons/v1/png_71/school-71.png", "icon_background_color": "#7B9EB0", "icon_mask_base_uri": "https://maps.gstatic.com/mapfiles/place_api/icons/v2/school_pinlet", "name": "Paglatola Pre-Senior Madrassa", "place_id": "ChIJ2eR05B2t4jkRjD-bTMsAtEk", "reference": "ChIJ2eR05B2t4jkRjD-bTMsAtEk", "scope": "GOOGLE", "types": ["school", "point_of_interest", "establishment"], "vicinity": "MVVP+4V2, Paglatola"}, {"business_status": "OPERATIONAL", "geometry": {"location": {"lat": 25.6885499, "lng": 89.8947736}, "viewport": {"northeast": {"lat": 25.6899340302915, "lng": 89.8959301802915}, "southwest": {"lat": 25.6872360697085, "lng": 89.8932322197085}}}, "icon": "https://maps.gstatic.com/mapfiles/place_api/icons/v1/png_71/school-71.png", "icon_background_color": "#7B9EB0", "icon_mask_base_uri": "https://maps.gstatic.com/mapfiles/place_api/icons/v2/school_pinlet", "name": "Adarsha jatiyo vidyalaya paglatola", "place_id": "ChIJ6UNoIe2t4jkRgQ1U8rPaGA8", "rating": 5, "reference": "ChIJ6UNoIe2t4jkRgQ1U8rPaGA8", "scope": "GOOGLE", "types": ["school", "point_of_interest", "establishment"], "user_ratings_total": 1, "vicinity": "MVQV+CW6, Pacherkandi"}], "status": "OK"}