{"html_attributions": [], "results": [{"business_status": "OPERATIONAL", "geometry": {"location": {"lat": 25.7440221, "lng": 89.8875688}, "viewport": {"northeast": {"lat": 25.7451433302915, "lng": 89.8888329302915}, "southwest": {"lat": 25.7424453697085, "lng": 89.8861349697085}}}, "icon": "https://maps.gstatic.com/mapfiles/place_api/icons/v1/png_71/school-71.png", "icon_background_color": "#7B9EB0", "icon_mask_base_uri": "https://maps.gstatic.com/mapfiles/place_api/icons/v2/school_pinlet", "name": "2095 No Sukchar Paul Para L.P School", "place_id": "ChIJXbPtoqet4jkR0JyLRAnaXM4", "reference": "ChIJXbPtoqet4jkR0JyLRAnaXM4", "scope": "GOOGLE", "types": ["school", "point_of_interest", "establishment"], "vicinity": "PVVQ+J24, Charkasaripara"}, {"business_status": "OPERATIONAL", "geometry": {"location": {"lat": 25.7426854, "lng": 89.89026849999999}, "viewport": {"northeast": {"lat": 25.7438293302915, "lng": 89.89146783029149}, "southwest": {"lat": 25.7411313697085, "lng": 89.88876986970848}}}, "icon": "https://maps.gstatic.com/mapfiles/place_api/icons/v1/png_71/school-71.png", "icon_background_color": "#7B9EB0", "icon_mask_base_uri": "https://maps.gstatic.com/mapfiles/place_api/icons/v2/school_pinlet", "name": "Manik Sarkar High School", "photos": [{"height": 1920, "html_attributions": ["<a href=\"https://maps.google.com/maps/contrib/109028188049326812101\">Nur Alom</a>"], "photo_reference": "Aap_uEC6CNxQtuaYaxtUzZS3EWvkZWySdtWBOb9AsEuLaVLbiWleJbXa6_Im4HBP_81DZqf3vlPFOawMFElPmWxjGwNZ2wzC1HpDtQw4AFfiU-qZKeQ6NGXwElk3e3-Ux-RU-QAfCluQe3Q4q45I4HxnTKV97YPS3JOFA_pgKaEr7Rz91Yx2", "width": 919}], "place_id": "ChIJ_____zKs4jkRWi-8GtKurdw", "rating": 4, "reference": "ChIJ_____zKs4jkRWi-8GtKurdw", "scope": "GOOGLE", "types": ["school", "point_of_interest", "establishment"], "user_ratings_total": 1, "vicinity": "PVVR+34C, Fulerchar Pt.IV"}, {"business_status": "OPERATIONAL", "geometry": {"location": {"lat": 25.7397135, "lng": 89.8738987}, "viewport": {"northeast": {"lat": 25.7410624802915, "lng": 89.87524768029151}, "southwest": {"lat": 25.7383645197085, "lng": 89.87254971970849}}}, "icon": "https://maps.gstatic.com/mapfiles/place_api/icons/v1/png_71/school-71.png", "icon_background_color": "#7B9EB0", "icon_mask_base_uri": "https://maps.gstatic.com/mapfiles/place_api/icons/v2/school_pinlet", "name": "Manik Sarkar High School", "place_id": "ChIJAQAAAMSt4jkR_oK_E1n93Tk", "reference": "ChIJAQAAAMSt4jkR_oK_E1n93Tk", "scope": "GOOGLE", "types": ["school", "point_of_interest", "establishment"], "vicinity": "PVQF+VHJ, Fulerchar Pt.III"}, {"business_status": "OPERATIONAL", "geometry": {"location": {"lat": 25.732276, "lng": 89.88287299999999}, "viewport": {"northeast": {"lat": 25.7329663302915, "lng": 89.88631054999999}, "southwest": {"lat": 25.7302683697085, "lng": 89.88172714999999}}}, "icon": "https://maps.gstatic.com/mapfiles/place_api/icons/v1/png_71/school-71.png", "icon_background_color": "#7B9EB0", "icon_mask_base_uri": "https://maps.gstatic.com/mapfiles/place_api/icons/v2/school_pinlet", "name": "Mosque And Madrasa Bangrir Char", "place_id": "ChIJZ-Q5c7at4jkR7pRBbNxzG8w", "rating": 5, "reference": "ChIJZ-Q5c7at4jkR7pRBbNxzG8w", "scope": "GOOGLE", "types": ["school", "point_of_interest", "establishment"], "user_ratings_total": 1, "vicinity": "PVJM+W49, Fulerchar Pt.III"}, {"business_status": "OPERATIONAL", "geometry": {"location": {"lat": 25.7318307, "lng": 89.8857543}, "viewport": {"northeast": {"lat": 25.7331317802915, "lng": 89.88715053029149}, "southwest": {"lat": 25.7304338197085, "lng": 89.88445256970849}}}, "icon": "https://maps.gstatic.com/mapfiles/place_api/icons/v1/png_71/school-71.png", "icon_background_color": "#7B9EB0", "icon_mask_base_uri": "https://maps.gstatic.com/mapfiles/place_api/icons/v2/school_pinlet", "name": "Puran sukchar LP School", "place_id": "ChIJv3sTMEit4jkR2HbziI4kBMM", "plus_code": {"compound_code": "PVJP+P8 Fulerchar Pt.III, Assam, India", "global_code": "7MQFPVJP+P8"}, "rating": 5, "reference": "ChIJv3sTMEit4jkR2HbziI4kBMM", "scope": "GOOGLE", "types": ["school", "point_of_interest", "establishment"], "user_ratings_total": 2, "vicinity": "South salmara, mankachar"}, {"business_status": "CLOSED_TEMPORARILY", "geometry": {"location": {"lat": 25.75011049999999, "lng": 89.8931904}, "viewport": {"northeast": {"lat": 25.7513349802915, "lng": 89.8944532302915}, "southwest": {"lat": 25.74863701970849, "lng": 89.8917552697085}}}, "icon": "https://maps.gstatic.com/mapfiles/place_api/icons/v1/png_71/school-71.png", "icon_background_color": "#7B9EB0", "icon_mask_base_uri": "https://maps.gstatic.com/mapfiles/place_api/icons/v2/school_pinlet", "name": "1687 NO. BAMUNER MAJERALGA LP SCHOOL", "permanently_closed": true, "place_id": "ChIJQ6kBe0Ct4jkRvModjpj8gOE", "plus_code": {"compound_code": "QV2V+27 Fattapara, Assam, India", "global_code": "7MQFQV2V+27"}, "rating": 5, "reference": "ChIJQ6kBe0Ct4jkRvModjpj8gOE", "scope": "GOOGLE", "types": ["school", "point_of_interest", "establishment"], "user_ratings_total": 2, "vicinity": "near, Bylan, from main road, bridge, Fattapara"}, {"business_status": "OPERATIONAL", "geometry": {"location": {"lat": 25.736274, "lng": 89.8956249}, "viewport": {"northeast": {"lat": 25.7375807302915, "lng": 89.89739038029151}, "southwest": {"lat": 25.73488276970849, "lng": 89.8946924197085}}}, "icon": "https://maps.gstatic.com/mapfiles/place_api/icons/v1/png_71/school-71.png", "icon_background_color": "#7B9EB0", "icon_mask_base_uri": "https://maps.gstatic.com/mapfiles/place_api/icons/v2/school_pinlet", "name": "BHOLA DEWANI MEMORIAL ACADEMY", "opening_hours": {"open_now": true}, "photos": [{"height": 3000, "html_attributions": ["<a href=\"https://maps.google.com/maps/contrib/114057935085567805004\">Saidur Rahman</a>"], "photo_reference": "Aap_uEA9YRiOIqvkRWTqTdMt2jH-AeY-M0rD4f0JERRlXpl76cHssdHRLW5Y_UbbCzCgXBgfX1fvILmQ1ojobmcIS3SntxGDShkHOcwWMp66fs8lMmQqKmEHbpZPYaxswPTv-UfzAfTgdjtLE0Tqx2GAEf9rWsMwTrntzLfT6RZ5URvpEGKC", "width": 3000}], "place_id": "ChIJK4-D0CGt4jkRvpfvPPMgX3w", "reference": "ChIJK4-D0CGt4jkRvpfvPPMgX3w", "scope": "GOOGLE", "types": ["school", "point_of_interest", "establishment"], "vicinity": "PVPW+G65, Fulerchar Pt.IV"}, {"business_status": "OPERATIONAL", "geometry": {"location": {"lat": 25.7378424, "lng": 89.8964292}, "viewport": {"northeast": {"lat": 25.7391435802915, "lng": 89.89789823029152}, "southwest": {"lat": 25.73644561970849, "lng": 89.8952002697085}}}, "icon": "https://maps.gstatic.com/mapfiles/place_api/icons/v1/png_71/school-71.png", "icon_background_color": "#7B9EB0", "icon_mask_base_uri": "https://maps.gstatic.com/mapfiles/place_api/icons/v2/school_pinlet", "name": "Singimari High School", "photos": [{"height": 1836, "html_attributions": ["<a href=\"https://maps.google.com/maps/contrib/103237874823534051530\">Robiul Islam</a>"], "photo_reference": "Aap_uED_jgSpYOR6HtcfPKvfzbFazPdcSRJZ60Xpb8vN4CqOi6viivwy3j9YfeRLs_6Uu2dE-wnFf1nwdypMKVN3Q-FVvgEukCsh3LkdaEKEj8TVd1lrNs12NGRcZNDuL1ZKlZ4t5m6iqfdX2EYK7LEc1QprcMd8h9YkjyT5sorHqsRZuJxT", "width": 3264}], "place_id": "ChIJbxSvbjes4jkRZkIRqrVV_dY", "plus_code": {"compound_code": "PVQW+4H Fulerchar Pt.IV, Assam, India", "global_code": "7MQFPVQW+4H"}, "rating": 4, "reference": "ChIJbxSvbjes4jkRZkIRqrVV_dY", "scope": "GOOGLE", "types": ["school", "point_of_interest", "establishment"], "user_ratings_total": 4, "vicinity": "Singimari-Phulbari-Agia-Guwahati Road, Fulerchar Pt.IV"}], "status": "OK"}