{"html_attributions": [], "results": [{"business_status": "OPERATIONAL", "geometry": {"location": {"lat": 26.0387819, "lng": 89.88530039999999}, "viewport": {"northeast": {"lat": 26.0401110302915, "lng": 89.8866841802915}, "southwest": {"lat": 26.0374130697085, "lng": 89.88398621970849}}}, "icon": "https://maps.gstatic.com/mapfiles/place_api/icons/v1/png_71/school-71.png", "icon_background_color": "#7B9EB0", "icon_mask_base_uri": "https://maps.gstatic.com/mapfiles/place_api/icons/v2/school_pinlet", "name": "BALAMOYEE M.E.SCHOOL", "opening_hours": {"open_now": true}, "photos": [{"height": 1440, "html_attributions": ["<a href=\"https://maps.google.com/maps/contrib/113189381100245498647\">YusubAli</a>"], "photo_reference": "Aap_uECRXGs4DVy2TYLwboLXtHQrJGtXe-cTpyF-Ri07cqisjTsLwqV7VcEy01JTCGbNBcY8GQoUKRRgeO2PorThjwihFEGTOMt9rbGYPtMC00ekYP7rDwGOcg6T-BR7d8uAmzkMh_AnZp43tKpk_SZdM7b_tVhyfyB4OKX9ND5Hull_XfRs", "width": 2560}], "place_id": "ChIJ83v0r4Gi4jkRerW05KyKLZ8", "rating": 5, "reference": "ChIJ83v0r4Gi4jkRerW05KyKLZ8", "scope": "GOOGLE", "types": ["school", "point_of_interest", "establishment"], "user_ratings_total": 3, "vicinity": "2VQP+G47, Kismat Hasdaha Pt.II"}, {"business_status": "OPERATIONAL", "geometry": {"location": {"lat": 26.0387271, "lng": 89.8852947}, "viewport": {"northeast": {"lat": 26.0400666302915, "lng": 89.8866601802915}, "southwest": {"lat": 26.0373686697085, "lng": 89.8839622197085}}}, "icon": "https://maps.gstatic.com/mapfiles/place_api/icons/v1/png_71/school-71.png", "icon_background_color": "#7B9EB0", "icon_mask_base_uri": "https://maps.gstatic.com/mapfiles/place_api/icons/v2/school_pinlet", "name": "Kismat Hasdaha L.P. & M.E. School", "opening_hours": {"open_now": true}, "photos": [{"height": 1440, "html_attributions": ["<a href=\"https://maps.google.com/maps/contrib/113189381100245498647\">YusubAli</a>"], "photo_reference": "Aap_uEAvTD9xPi1Ci5LK55s5dO7Wex12wva_uE7oIOlPlDvNA6KOXGssutECh_iuZU2M0eFDT_YQjv8_X_kTypd7zpDKn8Nzco-kKf89JwIkTFm2-STZFmOw7ABrErvwQgX2_ZA4haEmLQ1HyPl6-gAgidJCb95CxachCPC7yf5F9_1DnQuq", "width": 2560}], "place_id": "ChIJ2UZWqYGi4jkRz3Wvj5iLjvU", "plus_code": {"compound_code": "2VQP+F4 Dharmoshala Pt.V, Assam, India", "global_code": "7MRF2VQP+F4"}, "rating": 4.8, "reference": "ChIJ2UZWqYGi4jkRz3Wvj5iLjvU", "scope": "GOOGLE", "types": ["school", "point_of_interest", "establishment"], "user_ratings_total": 4, "vicinity": "Kismat hasdaha pt lI. TO, Dharmoshala Pt.V"}, {"business_status": "OPERATIONAL", "geometry": {"location": {"lat": 26.0410608, "lng": 89.87508799999999}, "viewport": {"northeast": {"lat": 26.0425878802915, "lng": 89.87645703029149}, "southwest": {"lat": 26.0398899197085, "lng": 89.87375906970848}}}, "icon": "https://maps.gstatic.com/mapfiles/place_api/icons/v1/png_71/school-71.png", "icon_background_color": "#7B9EB0", "icon_mask_base_uri": "https://maps.gstatic.com/mapfiles/place_api/icons/v2/school_pinlet", "name": "Singimari Pt.II, Dhubri Assam", "place_id": "ChIJv4sUWdKj4jkRJmnPQ7eM9V0", "plus_code": {"compound_code": "2VRG+C2 Singimari Pt.II, Assam, India", "global_code": "7MRF2VRG+C2"}, "reference": "ChIJv4sUWdKj4jkRJmnPQ7eM9V0", "scope": "GOOGLE", "types": ["school", "point_of_interest", "establishment"], "vicinity": "Singimari Pt.II"}, {"business_status": "OPERATIONAL", "geometry": {"location": {"lat": 26.047586, "lng": 89.893517}, "viewport": {"northeast": {"lat": 26.0489754302915, "lng": 89.8947624802915}, "southwest": {"lat": 26.0462774697085, "lng": 89.8920645197085}}}, "icon": "https://maps.gstatic.com/mapfiles/place_api/icons/v1/png_71/school-71.png", "icon_background_color": "#7B9EB0", "icon_mask_base_uri": "https://maps.gstatic.com/mapfiles/place_api/icons/v2/school_pinlet", "name": "1578 No Bimala Mayee Bidyapith L.P.school", "photos": [{"height": 2448, "html_attributions": ["<a href=\"https://maps.google.com/maps/contrib/109252423999166660736\">Nagen Ch Sarkar</a>"], "photo_reference": "Aap_uEBZDzewB7xLWU84ON8nGQ9lJ-UT2yK3FYtl3F8BYKj2YIqzWY24FMocsiFiOAMApLcVas2BvAhPlXwjkgRR6ZdyHnLQjIlSyITDWfjZTWHEBmmeGng6yOF0bPsu58JUe-cqyO9KGRZjE2abArhUTsKd6ihHj53LxIJp0HVEgQJ10kig", "width": 3264}], "place_id": "ChIJy5GsIwuZ4jkRa539FUVgUPM", "rating": 4.7, "reference": "ChIJy5GsIwuZ4jkRa539FUVgUPM", "scope": "GOOGLE", "types": ["school", "point_of_interest", "establishment"], "user_ratings_total": 3, "vicinity": "2VXV+2CJ, Kismat Hasdaha Pt.II"}, {"business_status": "OPERATIONAL", "geometry": {"location": {"lat": 26.0321784, "lng": 89.88875499999999}, "viewport": {"northeast": {"lat": 26.0334822302915, "lng": 89.89028313029151}, "southwest": {"lat": 26.0307842697085, "lng": 89.88758516970849}}}, "icon": "https://maps.gstatic.com/mapfiles/place_api/icons/v1/png_71/school-71.png", "icon_background_color": "#7B9EB0", "icon_mask_base_uri": "https://maps.gstatic.com/mapfiles/place_api/icons/v2/school_pinlet", "name": "Basirul Memorial ME School, Dharmasala", "place_id": "ChIJi_TaXTSj4jkRaWoPBiHeRcM", "reference": "ChIJi_TaXTSj4jkRaWoPBiHeRcM", "scope": "GOOGLE", "types": ["school", "point_of_interest", "establishment"], "vicinity": "2VJQ+VGC, Dharmoshala Pt.V"}, {"business_status": "OPERATIONAL", "geometry": {"location": {"lat": 26.052444, "lng": 89.8880013}, "viewport": {"northeast": {"lat": 26.0539359302915, "lng": 89.8890398802915}, "southwest": {"lat": 26.0512379697085, "lng": 89.8863419197085}}}, "icon": "https://maps.gstatic.com/mapfiles/place_api/icons/v1/png_71/school-71.png", "icon_background_color": "#7B9EB0", "icon_mask_base_uri": "https://maps.gstatic.com/mapfiles/place_api/icons/v2/school_pinlet", "name": "Eyakub physical gym traning centre", "opening_hours": {"open_now": true}, "place_id": "ChIJB2Yf-IeY4jkR2020gIxV20k", "reference": "ChIJB2Yf-IeY4jkR2020gIxV20k", "scope": "GOOGLE", "types": ["school", "point_of_interest", "establishment"], "vicinity": "3V2Q+X6C, Kismat Hasdaha Pt.II"}, {"business_status": "OPERATIONAL", "geometry": {"location": {"lat": 26.0480547, "lng": 89.87356539999999}, "viewport": {"northeast": {"lat": 26.0493055302915, "lng": 89.8745567802915}, "southwest": {"lat": 26.0466075697085, "lng": 89.87185881970848}}}, "icon": "https://maps.gstatic.com/mapfiles/place_api/icons/v1/png_71/school-71.png", "icon_background_color": "#7B9EB0", "icon_mask_base_uri": "https://maps.gstatic.com/mapfiles/place_api/icons/v2/school_pinlet", "name": "2170 No Kismat Hasdaha L.P school", "opening_hours": {"open_now": true}, "photos": [{"height": 774, "html_attributions": ["<a href=\"https://maps.google.com/maps/contrib/100826351940855213317\">eusuf ali ahmed</a>"], "photo_reference": "Aap_uEAOieR_MeXqjnU7nLNhk6ZKVsD7tn8PgVUDiJibUNykqimIN4BoLz0_BXVMVF3V-RSdNl213-6UkmmroptaWXLjFdx9RFP6T8GhOiQoQzZrZVvkkXMwDeZIX-O0YfRrbTHBp9awZUOJ_rQyP6S7jpvvXkkBm9end5cO8SYp5eDxaU90", "width": 1032}], "place_id": "ChIJDaPCuUaZ4jkRfs_6XWS-yRk", "plus_code": {"compound_code": "2VXF+6C Kismat Hasdaha Pt.II, Assam, India", "global_code": "7MRF2VXF+6C"}, "rating": 5, "reference": "ChIJDaPCuUaZ4jkRfs_6XWS-yRk", "scope": "GOOGLE", "types": ["school", "point_of_interest", "establishment"], "user_ratings_total": 1, "vicinity": "Unnamed Road, Kismat Hasdaha Pt.II"}], "status": "OK"}