{"html_attributions": [], "results": [{"business_status": "OPERATIONAL", "geometry": {"location": {"lat": 26.1037609, "lng": 89.8852275}, "viewport": {"northeast": {"lat": 26.10527218029151, "lng": 89.8867764802915}, "southwest": {"lat": 26.1025742197085, "lng": 89.88407851970848}}}, "icon": "https://maps.gstatic.com/mapfiles/place_api/icons/v1/png_71/school-71.png", "icon_background_color": "#7B9EB0", "icon_mask_base_uri": "https://maps.gstatic.com/mapfiles/place_api/icons/v2/school_pinlet", "name": "Biki ff lover", "photos": [{"height": 1920, "html_attributions": ["<a href=\"https://maps.google.com/maps/contrib/106165635346971627643\">BIKI TEAM invisible</a>"], "photo_reference": "Aap_uEBp3Me8TMJc37_xGYkAOQWs3kZQDKGuJbmYm-ZQP_jbsBaGV4V4bnqP5frMtDBq181lzaMOtY1yg9-j9HTiqkzAeeJ5FaepfinuEROYxbtSmqM05ib6YfgBayiufD0ROCDkk7nNmVFfvrKoJM51aJQTO0sH-qlu4gLHg1NQIMXTGjLg", "width": 1920}], "place_id": "ChIJo4xbkrCZ4jkRD8u0W2p8qYQ", "reference": "ChIJo4xbkrCZ4jkRD8u0W2p8qYQ", "scope": "GOOGLE", "types": ["secondary_school", "school", "point_of_interest", "establishment"], "vicinity": "4V3P+G35, Balajan"}, {"business_status": "CLOSED_TEMPORARILY", "geometry": {"location": {"lat": 26.0980004, "lng": 89.887186}, "viewport": {"northeast": {"lat": 26.0993964302915, "lng": 89.8888815802915}, "southwest": {"lat": 26.0966984697085, "lng": 89.88618361970849}}}, "icon": "https://maps.gstatic.com/mapfiles/place_api/icons/v1/png_71/school-71.png", "icon_background_color": "#7B9EB0", "icon_mask_base_uri": "https://maps.gstatic.com/mapfiles/place_api/icons/v2/school_pinlet", "name": "Balajan M. E Madrassa School", "permanently_closed": true, "photos": [{"height": 2340, "html_attributions": ["<a href=\"https://maps.google.com/maps/contrib/111944862905320760312\">Prosenjit Mali</a>"], "photo_reference": "Aap_uEAChzJ_CtX_9NGQ9Vwgj3NeSegJBQiO3Pt6uS8C_psyT_yf8wiGL0mai-JQzR2xz5e3Bq73Ra-fAoePVG8a8gnZ34WR7HBGctEReee_3fVQuOTOwxkH9Zsiz6ZU06r9U1jr_aBH6v4PREv9-ESqITuEhg3Y9nbp2MDArYF-KK9b6c-V", "width": 3687}], "place_id": "ChIJoRgGMaiZ4jkRAkGeUyDbqAU", "rating": 3.8, "reference": "ChIJoRgGMaiZ4jkRAkGeUyDbqAU", "scope": "GOOGLE", "types": ["school", "point_of_interest", "establishment"], "user_ratings_total": 4, "vicinity": "3VXP+6V3, Balajan, Brahmattar Jawarimari"}, {"business_status": "OPERATIONAL", "geometry": {"location": {"lat": 26.0980344, "lng": 89.88767039999999}, "viewport": {"northeast": {"lat": 26.09939793029151, "lng": 89.8891264302915}, "southwest": {"lat": 26.0966999697085, "lng": 89.88642846970849}}}, "icon": "https://maps.gstatic.com/mapfiles/place_api/icons/v1/png_71/school-71.png", "icon_background_color": "#7B9EB0", "icon_mask_base_uri": "https://maps.gstatic.com/mapfiles/place_api/icons/v2/school_pinlet", "name": "455 No Balajan L.P School", "opening_hours": {"open_now": true}, "photos": [{"height": 3000, "html_attributions": ["<a href=\"https://maps.google.com/maps/contrib/104534930049966181774\">Angur Hussain</a>"], "photo_reference": "Aap_uEAPjF3FU2jbVGrMRH6kNfA-DwFIOuFeWW1sHywvkwBQcOJNgAd1gW7QJSr3Gslfpdf91NwAGFgB6Gph-doXBXF80Arqj6zdj9nOrqiu36_9F5ZVAdnan3FQYYoHJg60XHxQDrymaRllt2DS_0hwAZ1n5Fb4JLZjvrZMLxymdAsrcoro", "width": 4000}], "place_id": "ChIJ9WAoKaiZ4jkR7DG_wgw2s0o", "rating": 4, "reference": "ChIJ9WAoKaiZ4jkR7DG_wgw2s0o", "scope": "GOOGLE", "types": ["school", "point_of_interest", "establishment"], "user_ratings_total": 1, "vicinity": "3VXQ+637, Balajan, Brahmattar Jawarimari"}, {"business_status": "CLOSED_TEMPORARILY", "geometry": {"location": {"lat": 26.1078299, "lng": 89.884423}, "viewport": {"northeast": {"lat": 26.1090950302915, "lng": 89.8862067302915}, "southwest": {"lat": 26.1063970697085, "lng": 89.8835087697085}}}, "icon": "https://maps.gstatic.com/mapfiles/place_api/icons/v1/png_71/school-71.png", "icon_background_color": "#7B9EB0", "icon_mask_base_uri": "https://maps.gstatic.com/mapfiles/place_api/icons/v2/school_pinlet", "name": "SANKAR AZAN JATIYA VIDYALAYA BALAJAN", "permanently_closed": true, "place_id": "ChIJyZKqf2-Z4jkRWXABDrIcU5w", "plus_code": {"compound_code": "4V5M+4Q Balajan, Assam, India", "global_code": "7MRF4V5M+4Q"}, "reference": "ChIJyZKqf2-Z4jkRWXABDrIcU5w", "scope": "GOOGLE", "types": ["school", "point_of_interest", "establishment"], "vicinity": "Balajan, VILL & PO, Balajan"}, {"business_status": "OPERATIONAL", "geometry": {"location": {"lat": 26.0961634, "lng": 89.8889153}, "viewport": {"northeast": {"lat": 26.0974513802915, "lng": 89.89025578029151}, "southwest": {"lat": 26.0947534197085, "lng": 89.88755781970849}}}, "icon": "https://maps.gstatic.com/mapfiles/place_api/icons/v1/png_71/school-71.png", "icon_background_color": "#7B9EB0", "icon_mask_base_uri": "https://maps.gstatic.com/mapfiles/place_api/icons/v2/school_pinlet", "name": "Balajan Jatia Bidyalay", "opening_hours": {"open_now": true}, "photos": [{"height": 3264, "html_attributions": ["<a href=\"https://maps.google.com/maps/contrib/103099971147760816672\">Suman Das</a>"], "photo_reference": "Aap_uEDA3A1Th9KgXl8Ju4eBoJ9swFx3TN7FmuNwc9abTySHTYE5d2Ab3SLyN9qFLs5Gnabj7WKzi0euh4GZAAaGi4T0hPhmHUS_7Io9Q35Bh62TuJ9HxtVxXLudbddRm3DBv0p2UTWuSQh_eKliZbdXorEI60wNUUQFmZ4IMaIBOGOmdWof", "width": 1840}], "place_id": "ChIJ2dNPageZ4jkRyinpBn7pm_c", "rating": 3.5, "reference": "ChIJ2dNPageZ4jkRyinpBn7pm_c", "scope": "GOOGLE", "types": ["school", "point_of_interest", "establishment"], "user_ratings_total": 6, "vicinity": "3VWQ+FH7, Balajan, Brahmattar Jawarimari"}, {"business_status": "OPERATIONAL", "geometry": {"location": {"lat": 26.0963943, "lng": 89.88930049999999}, "viewport": {"northeast": {"lat": 26.0977397802915, "lng": 89.8905708802915}, "southwest": {"lat": 26.0950418197085, "lng": 89.8878729197085}}}, "icon": "https://maps.gstatic.com/mapfiles/place_api/icons/v1/png_71/school-71.png", "icon_background_color": "#7B9EB0", "icon_mask_base_uri": "https://maps.gstatic.com/mapfiles/place_api/icons/v2/school_pinlet", "name": "231 No Das Para Lp School", "photos": [{"height": 3264, "html_attributions": ["<a href=\"https://maps.google.com/maps/contrib/103099971147760816672\">Suman Das</a>"], "photo_reference": "Aap_uEDobSm1MnijpZHV06bzn0mP0qlKOm2YrHq1Y6y7r_HglBCTliGXAlKH6-JBuvkOmcpzxrMGa3ITD3IhfapgM-hn8_AUktbz3WFZ6HwvxHAyBsMJH7HWx5XOhmEupVY9Lrv9XjE3Ru2Jz4sEifOqYUj7OngLjMekHYDVyb6o-CU1ROLK", "width": 1840}], "place_id": "ChIJ5SmKEweZ4jkR4sTRfre-qNg", "rating": 4, "reference": "ChIJ5SmKEweZ4jkR4sTRfre-qNg", "scope": "GOOGLE", "types": ["school", "point_of_interest", "establishment"], "user_ratings_total": 2, "vicinity": "3VWQ+HP3, Balajan, Brahmattar Jawarimari"}, {"business_status": "OPERATIONAL", "geometry": {"location": {"lat": 26.0960839, "lng": 89.88901419999999}, "viewport": {"northeast": {"lat": 26.0974324802915, "lng": 89.8903754302915}, "southwest": {"lat": 26.0947345197085, "lng": 89.88767746970849}}}, "icon": "https://maps.gstatic.com/mapfiles/place_api/icons/v1/png_71/school-71.png", "icon_background_color": "#7B9EB0", "icon_mask_base_uri": "https://maps.gstatic.com/mapfiles/place_api/icons/v2/school_pinlet", "name": "BALAJAN JATIYA BIDALAYA.", "opening_hours": {"open_now": true}, "photos": [{"height": 2304, "html_attributions": ["<a href=\"https://maps.google.com/maps/contrib/103971783425683693798\">Azizur Rahman</a>"], "photo_reference": "Aap_uEAfpA5N9R-0CgGkLQVn0LSpQno5wCeaW2QasNElcu_Mc5HAQvEECCo54aXyZKPmRjmVNji_PXkBTOsVmOE1McITaNJxL2ZWI1eUb9_Fzd1YsZsE4Xjqb_YcByWrxlMc7bNp9vW0zMNRclQp-LRpTGgdGnnU7WhOTc4bdaLyeXQBq4o", "width": 4096}], "place_id": "ChIJD4B9DImZ4jkRJ1DJ7xfbV58", "plus_code": {"compound_code": "3VWQ+CJ Balajan, Assam, India", "global_code": "7MRF3VWQ+CJ"}, "rating": 4.5, "reference": "ChIJD4B9DImZ4jkRJ1DJ7xfbV58", "scope": "GOOGLE", "types": ["school", "point_of_interest", "establishment"], "user_ratings_total": 2, "vicinity": "Health Sub Center, Balajan"}, {"business_status": "CLOSED_TEMPORARILY", "geometry": {"location": {"lat": 26.09770589999999, "lng": 89.8768829}, "viewport": {"northeast": {"lat": 26.0990622802915, "lng": 89.8781468302915}, "southwest": {"lat": 26.0963643197085, "lng": 89.87544886970849}}}, "icon": "https://maps.gstatic.com/mapfiles/place_api/icons/v1/png_71/school-71.png", "icon_background_color": "#7B9EB0", "icon_mask_base_uri": "https://maps.gstatic.com/mapfiles/place_api/icons/v2/school_pinlet", "name": "Balajan M.V.School", "permanently_closed": true, "place_id": "ChIJq8QNOAiZ4jkR1YSAFjWkOxI", "rating": 4, "reference": "ChIJq8QNOAiZ4jkR1YSAFjWkOxI", "scope": "GOOGLE", "types": ["school", "point_of_interest", "establishment"], "user_ratings_total": 1, "vicinity": "3VXG+3QJ, Batuatuli"}, {"business_status": "OPERATIONAL", "geometry": {"location": {"lat": 26.0974539, "lng": 89.87704020000001}, "viewport": {"northeast": {"lat": 26.0988002802915, "lng": 89.87838953029151}, "southwest": {"lat": 26.0961023197085, "lng": 89.87569156970851}}}, "icon": "https://maps.gstatic.com/mapfiles/place_api/icons/v1/png_71/school-71.png", "icon_background_color": "#7B9EB0", "icon_mask_base_uri": "https://maps.gstatic.com/mapfiles/place_api/icons/v2/school_pinlet", "name": "Balajan M.E School", "opening_hours": {"open_now": true}, "photos": [{"height": 4128, "html_attributions": ["<a href=\"https://maps.google.com/maps/contrib/116750167734576716462\">Rati Kanta Roy</a>"], "photo_reference": "Aap_uEAXYDkyHYSNcPe3mz44sVExHOhaVA70kcUGg3Q2YDLkpRFMZoUvshMyIaO3aptLSpi6OSssfgXRIWQZuX7m0O3dQc-bCi7-vJymJID8Hb-Bfg8MRE0S8_Y97EP1cCa7Gv6qMj-CXX2WUov4N3WB4KTxCloyaLsZNCbsC3tIQMJsneLh", "width": 3096}], "place_id": "ChIJryUHTrCZ4jkR0kpEViHkQU8", "plus_code": {"compound_code": "3VWG+XR Brahmattar Jawarimari, Assam, India", "global_code": "7MRF3VWG+XR"}, "rating": 4.5, "reference": "ChIJryUHTrCZ4jkR0kpEViHkQU8", "scope": "GOOGLE", "types": ["school", "point_of_interest", "establishment"], "user_ratings_total": 2, "vicinity": "Shiva Mandir, Brohmattar, Brahmattar Jawarimari"}, {"business_status": "OPERATIONAL", "geometry": {"location": {"lat": 26.094598, "lng": 89.8867484}, "viewport": {"northeast": {"lat": 26.0959969802915, "lng": 89.8881057302915}, "southwest": {"lat": 26.0932990197085, "lng": 89.8854077697085}}}, "icon": "https://maps.gstatic.com/mapfiles/place_api/icons/v1/png_71/school-71.png", "icon_background_color": "#7B9EB0", "icon_mask_base_uri": "https://maps.gstatic.com/mapfiles/place_api/icons/v2/school_pinlet", "name": "balajan L.P school", "opening_hours": {"open_now": true}, "photos": [{"height": 1632, "html_attributions": ["<a href=\"https://maps.google.com/maps/contrib/111944862905320760312\">Prosenjit Mali</a>"], "photo_reference": "Aap_uECYGXzuscBg_epBdac21UM6Ysp8h_8oHnBAKBeh9Y5Lj1zeEGK7kQL9Ruw0-45rZAZ3ifw4iLgdGw1Dc5t_pEj7hAf9AnZXZJbomBagipy6p6EPu7tlD2UWyiGMV4SWJNbDoTiymETTfiebQtRWJPQO5Agr4xhS5I0cb8W8Y6P-jqPH", "width": 3296}], "place_id": "ChIJx76ziqmZ4jkRTf_w5kpJEjs", "plus_code": {"compound_code": "3VVP+RM Brahmattar Jawarimari, Assam, India", "global_code": "7MRF3VVP+RM"}, "rating": 3.7, "reference": "ChIJx76ziqmZ4jkRTf_w5kpJEjs", "scope": "GOOGLE", "types": ["school", "point_of_interest", "establishment"], "user_ratings_total": 3, "vicinity": "Balajan Basugaon Road, Khudra Basugaon"}, {"business_status": "OPERATIONAL", "geometry": {"location": {"lat": 26.0979778, "lng": 89.8760605}, "viewport": {"northeast": {"lat": 26.0991120802915, "lng": 89.8774116302915}, "southwest": {"lat": 26.0964141197085, "lng": 89.87471366970848}}}, "icon": "https://maps.gstatic.com/mapfiles/place_api/icons/v1/png_71/school-71.png", "icon_background_color": "#7B9EB0", "icon_mask_base_uri": "https://maps.gstatic.com/mapfiles/place_api/icons/v2/school_pinlet", "name": "Palash", "place_id": "ChIJQ2WPVVeZ4jkR4AsJgy1c2Go", "reference": "ChIJQ2WPVVeZ4jkR4AsJgy1c2Go", "scope": "GOOGLE", "types": ["school", "point_of_interest", "establishment"], "vicinity": "3VXG+5CV, Batuatuli"}, {"business_status": "OPERATIONAL", "geometry": {"location": {"lat": 26.110648, "lng": 89.8867048}, "viewport": {"northeast": {"lat": 26.1120363302915, "lng": 89.88781038029151}, "southwest": {"lat": 26.1093383697085, "lng": 89.8851124197085}}}, "icon": "https://maps.gstatic.com/mapfiles/place_api/icons/v1/png_71/school-71.png", "icon_background_color": "#7B9EB0", "icon_mask_base_uri": "https://maps.gstatic.com/mapfiles/place_api/icons/v2/school_pinlet", "name": "Balajan pt 2 L.p school", "photos": [{"height": 1080, "html_attributions": ["<a href=\"https://maps.google.com/maps/contrib/106176275737992766792\">Siben Top 10</a>"], "photo_reference": "Aap_uEAdt401vJ5kRxQaPVCWA4agPVJtNnB-HwGsSh7C7MvavCPvwVCQ-NCZCL9TfgGOmub7p7bfHldkRkU6lkl4D7AsATPUPSWYZZIE-Us9sEA_E2iWI0dYsQHhBXsGicu-UF4DgZDFDOrAULWWfF5lEzgcrLnSQlGyccRWra-L15X6KTHT", "width": 1920}], "place_id": "ChIJlaRIl8eZ4jkRTRdwofxN7xY", "rating": 4.3, "reference": "ChIJlaRIl8eZ4jkRTRdwofxN7xY", "scope": "GOOGLE", "types": ["school", "point_of_interest", "establishment"], "user_ratings_total": 4, "vicinity": "4V6P+7M4, Balajan"}, {"business_status": "OPERATIONAL", "geometry": {"location": {"lat": 26.0941048, "lng": 89.8889411}, "viewport": {"northeast": {"lat": 26.0954693302915, "lng": 89.89027723029152}, "southwest": {"lat": 26.0927713697085, "lng": 89.88757926970851}}}, "icon": "https://maps.gstatic.com/mapfiles/place_api/icons/v1/png_71/school-71.png", "icon_background_color": "#7B9EB0", "icon_mask_base_uri": "https://maps.gstatic.com/mapfiles/place_api/icons/v2/school_pinlet", "name": "balajan girls school", "opening_hours": {"open_now": true}, "photos": [{"height": 2340, "html_attributions": ["<a href=\"https://maps.google.com/maps/contrib/111944862905320760312\">Prosenjit Mali</a>"], "photo_reference": "Aap_uECxa3Gk1fKFN_JmE4jZO8AWc8_4ktKC_6OA20Cy-FM3ys1fKh4zBgrxhTPTVGGVUaAA398fTKzg3nG2lMKSt3LWcesHcd2_eAn2jm-O9mL0GLFLRiVQdQKvc4CMv0lMyvyWb5wBtGqXVem_Aj-1vzGnxrRdHDzX3XcScPqHGhVe9xts", "width": 4160}], "place_id": "ChIJOROJtgCZ4jkRc_Zytj4zVi4", "plus_code": {"compound_code": "3VVQ+JH Balajan, Assam, India", "global_code": "7MRF3VVQ+JH"}, "rating": 4, "reference": "ChIJOROJtgCZ4jkRc_Zytj4zVi4", "scope": "GOOGLE", "types": ["school", "point_of_interest", "establishment"], "user_ratings_total": 2, "vicinity": "Balajan"}, {"business_status": "CLOSED_TEMPORARILY", "geometry": {"location": {"lat": 26.0942122, "lng": 89.8894072}, "viewport": {"northeast": {"lat": 26.0956173302915, "lng": 89.89066843029151}, "southwest": {"lat": 26.0929193697085, "lng": 89.8879704697085}}}, "icon": "https://maps.gstatic.com/mapfiles/place_api/icons/v1/png_71/school-71.png", "icon_background_color": "#7B9EB0", "icon_mask_base_uri": "https://maps.gstatic.com/mapfiles/place_api/icons/v2/school_pinlet", "name": "Balajan High School \u09ac\u09be\u09b2\u09be\u099c\u09be\u09a8 \u0989\u099a\u09cd\u099a \u09ae\u09be\u09a7\u09cd\u09af\u09ae\u09bf\u0995 \u09ac\u09bf\u09a6\u09cd\u09af\u09be\u09b2\u09df", "permanently_closed": true, "photos": [{"height": 2213, "html_attributions": ["<a href=\"https://maps.google.com/maps/contrib/111944862905320760312\">Prosenjit Mali</a>"], "photo_reference": "Aap_uEBbLdHtYAv3yfirl0cgRR2cvDzpQjLyTLF4yI8VZvifSlMcTHVK5Zy1-pYJiyqqj800WHaewAqIWauAwnRhDSC7ipb0hJAWcbrrTNJ25kjjVSpZo7-n-MwUZf-HrpHFA_oNcNerSh9uX3AuBlCdoa9b7TEqYxoHTl3eBOYA0y0ylxNX", "width": 3676}], "place_id": "ChIJ9xoGzACZ4jkRVAedlBWfXtM", "plus_code": {"compound_code": "3VVQ+MQ Balajan, Assam, India", "global_code": "7MRF3VVQ+MQ"}, "rating": 4.2, "reference": "ChIJ9xoGzACZ4jkRVAedlBWfXtM", "scope": "GOOGLE", "types": ["school", "point_of_interest", "establishment"], "user_ratings_total": 14, "vicinity": "Balajan"}, {"business_status": "OPERATIONAL", "geometry": {"location": {"lat": 26.0939852, "lng": 89.88950539999999}, "viewport": {"northeast": {"lat": 26.0955038302915, "lng": 89.89071753029151}, "southwest": {"lat": 26.0928058697085, "lng": 89.88801956970849}}}, "icon": "https://maps.gstatic.com/mapfiles/place_api/icons/v1/png_71/school-71.png", "icon_background_color": "#7B9EB0", "icon_mask_base_uri": "https://maps.gstatic.com/mapfiles/place_api/icons/v2/school_pinlet", "name": "Balajan H.S School", "place_id": "ChIJf179zgCZ4jkR7uoEGlRlvBM", "reference": "ChIJf179zgCZ4jkR7uoEGlRlvBM", "scope": "GOOGLE", "types": ["school", "point_of_interest", "establishment"], "vicinity": "3VVQ+HRR, Balajan"}, {"business_status": "OPERATIONAL", "geometry": {"location": {"lat": 26.0989562, "lng": 89.8727292}, "viewport": {"northeast": {"lat": 26.1005365302915, "lng": 89.8737601302915}, "southwest": {"lat": 26.0978385697085, "lng": 89.8710621697085}}}, "icon": "https://maps.gstatic.com/mapfiles/place_api/icons/v1/png_71/school-71.png", "icon_background_color": "#7B9EB0", "icon_mask_base_uri": "https://maps.gstatic.com/mapfiles/place_api/icons/v2/school_pinlet", "name": "Gayanjyoti academy batuatuli.", "place_id": "ChIJZ91lh0SZ4jkRmoYHYK5lvKo", "reference": "ChIJZ91lh0SZ4jkRmoYHYK5lvKo", "scope": "GOOGLE", "types": ["school", "point_of_interest", "establishment"], "vicinity": "3VXF+H3Q, Batuatuli"}], "status": "OK"}