{"html_attributions": [], "results": [{"business_status": "OPERATIONAL", "geometry": {"location": {"lat": 26.12401699999999, "lng": 89.9037888}, "viewport": {"northeast": {"lat": 26.1253467802915, "lng": 89.90510073029151}, "southwest": {"lat": 26.12264881970849, "lng": 89.90240276970849}}}, "icon": "https://maps.gstatic.com/mapfiles/place_api/icons/v1/png_71/school-71.png", "icon_background_color": "#7B9EB0", "icon_mask_base_uri": "https://maps.gstatic.com/mapfiles/place_api/icons/v2/school_pinlet", "name": "Sukhatikhata L.P school", "photos": [{"height": 2560, "html_attributions": ["<a href=\"https://maps.google.com/maps/contrib/108271603994824488226\">Probir Deb Sarkar</a>"], "photo_reference": "Aap_uECLr7MhmUgmaViKb2zX32stKIcvm4mCxnYePowSnwO4OuXvAwWtevSq__-CwQGM4SoYjZ7nC77_6cp9ZGE2q0FXxnL7xKdij3qJEY6s5rC5OLedwrB2cmDxBaihou7xr8J_Sc9Sif_GCuuMkZgo3R88UMP0R3amNXOt0X8spMezzVpQ", "width": 1920}], "place_id": "ChIJ4aR-FRKZ4jkR94UUc2W81ew", "reference": "ChIJ4aR-FRKZ4jkR94UUc2W81ew", "scope": "GOOGLE", "types": ["school", "point_of_interest", "establishment"], "vicinity": "4WF3+JG3"}, {"business_status": "OPERATIONAL", "geometry": {"location": {"lat": 26.124367, "lng": 89.903785}, "viewport": {"northeast": {"lat": 26.1256465302915, "lng": 89.90501363029149}, "southwest": {"lat": 26.1229485697085, "lng": 89.90231566970849}}}, "icon": "https://maps.gstatic.com/mapfiles/place_api/icons/v1/png_71/school-71.png", "icon_background_color": "#7B9EB0", "icon_mask_base_uri": "https://maps.gstatic.com/mapfiles/place_api/icons/v2/school_pinlet", "name": "913 No Sukhatikhata LP School", "opening_hours": {"open_now": true}, "place_id": "ChIJo6b47m6Z4jkRg0Yo7hN53zo", "plus_code": {"compound_code": "4WF3+PG Rupshi Pt.I, Assam, India", "global_code": "7MRF4WF3+PG"}, "reference": "ChIJo6b47m6Z4jkRg0Yo7hN53zo", "scope": "GOOGLE", "types": ["school", "point_of_interest", "establishment"], "vicinity": "Unnamed Road"}, {"business_status": "OPERATIONAL", "geometry": {"location": {"lat": 26.1215973, "lng": 89.9074383}, "viewport": {"northeast": {"lat": 26.1230692802915, "lng": 89.90878748029151}, "southwest": {"lat": 26.1203713197085, "lng": 89.9060895197085}}}, "icon": "https://maps.gstatic.com/mapfiles/place_api/icons/v1/png_71/school-71.png", "icon_background_color": "#7B9EB0", "icon_mask_base_uri": "https://maps.gstatic.com/mapfiles/place_api/icons/v2/school_pinlet", "name": "Sukhatikhata Nandalal M.E School", "opening_hours": {"open_now": true}, "photos": [{"height": 2448, "html_attributions": ["<a href=\"https://maps.google.com/maps/contrib/110966763839840747745\">gamer Rahul</a>"], "photo_reference": "Aap_uEASa3jv0jo3ruKs4lNq6xJ1Wqt_lYdqachsC56ROkLaI4_6Pl7u-Nwf7I0YuNmCtEeYOeK7P2oRacO7OCggK3Yt8AfWWB9YUcKnqzNDou3jhaBHHmrf5H57zr_WGrUqRdhvfBoTo5r7ddYxDXP9GLswNTxFFDdhmt7tRBiex40DmrWI", "width": 3264}], "place_id": "ChIJo5S_jkKZ4jkRgNwAgVyiYCc", "rating": 3, "reference": "ChIJo5S_jkKZ4jkRgNwAgVyiYCc", "scope": "GOOGLE", "types": ["school", "point_of_interest", "establishment"], "user_ratings_total": 1, "vicinity": "4WC4+JXP, Rupshi Pt.I"}, {"business_status": "OPERATIONAL", "geometry": {"location": {"lat": 26.1139484, "lng": 89.9027595}, "viewport": {"northeast": {"lat": 26.11529193029151, "lng": 89.90401473029151}, "southwest": {"lat": 26.1125939697085, "lng": 89.9013167697085}}}, "icon": "https://maps.gstatic.com/mapfiles/place_api/icons/v1/png_71/school-71.png", "icon_background_color": "#7B9EB0", "icon_mask_base_uri": "https://maps.gstatic.com/mapfiles/place_api/icons/v2/school_pinlet", "name": "Khagrabari LP School", "opening_hours": {"open_now": true}, "place_id": "ChIJ6dUKaWuZ4jkRSvBtVyWaFkw", "reference": "ChIJ6dUKaWuZ4jkRSvBtVyWaFkw", "scope": "GOOGLE", "types": ["school", "point_of_interest", "establishment"], "vicinity": "4W73+H4C, Khagrabri Dh0Rarghat"}, {"business_status": "CLOSED_TEMPORARILY", "geometry": {"location": {"lat": 26.1203983, "lng": 89.8917558}, "viewport": {"northeast": {"lat": 26.1217563302915, "lng": 89.89318213029149}, "southwest": {"lat": 26.1190583697085, "lng": 89.89048416970849}}}, "icon": "https://maps.gstatic.com/mapfiles/place_api/icons/v1/png_71/school-71.png", "icon_background_color": "#7B9EB0", "icon_mask_base_uri": "https://maps.gstatic.com/mapfiles/place_api/icons/v2/school_pinlet", "name": "Sahebganj High School", "permanently_closed": true, "place_id": "ChIJxezb73aZ4jkRsI_FoUCTkGE", "rating": 3.5, "reference": "ChIJxezb73aZ4jkRsI_FoUCTkGE", "scope": "GOOGLE", "types": ["school", "point_of_interest", "establishment"], "user_ratings_total": 2, "vicinity": "4VCR+5P2, Sahebganj Naicharkuti"}, {"business_status": "OPERATIONAL", "geometry": {"location": {"lat": 26.1107966, "lng": 89.9007883}, "viewport": {"northeast": {"lat": 26.1120374302915, "lng": 89.9025485802915}, "southwest": {"lat": 26.1093394697085, "lng": 89.89985061970849}}}, "icon": "https://maps.gstatic.com/mapfiles/place_api/icons/v1/png_71/school-71.png", "icon_background_color": "#7B9EB0", "icon_mask_base_uri": "https://maps.gstatic.com/mapfiles/place_api/icons/v2/school_pinlet", "name": "229 No. Assamtari LPS", "photos": [{"height": 2448, "html_attributions": ["<a href=\"https://maps.google.com/maps/contrib/118216584292604136645\">Nahar R</a>"], "photo_reference": "Aap_uECPfS11L8wvqT-dUZgzhO6sHAfiwD3A_-FTWnJZvEfeG2MGNzwkEATcXm4obJ7n1s9Wm12zRDdJ7BbMnm4DMdDnOVPqHGGbcD5jf4UO9SYfKq1Zi7RbTxrw0RCTGWPodnehqCPT7vRm-xc1mJ04pHNrG50Rxr0HFUl6aBmyWR2pCvzb", "width": 3264}], "place_id": "ChIJVVVVFROZ4jkRamwXhm2Mzjg", "rating": 3.3, "reference": "ChIJVVVVFROZ4jkRamwXhm2Mzjg", "scope": "GOOGLE", "types": ["school", "point_of_interest", "establishment"], "user_ratings_total": 3, "vicinity": "4W62+887, Dhorarghat Pt.II"}, {"business_status": "CLOSED_TEMPORARILY", "geometry": {"location": {"lat": 26.12036759999999, "lng": 89.8909565}, "viewport": {"northeast": {"lat": 26.1217676302915, "lng": 89.8922642302915}, "southwest": {"lat": 26.11906966970849, "lng": 89.88956626970848}}}, "icon": "https://maps.gstatic.com/mapfiles/place_api/icons/v1/png_71/school-71.png", "icon_background_color": "#7B9EB0", "icon_mask_base_uri": "https://maps.gstatic.com/mapfiles/place_api/icons/v2/school_pinlet", "name": "Sahebganj L.P. School", "permanently_closed": true, "place_id": "ChIJvbr9avqZ4jkRGGWT33Or7E0", "reference": "ChIJvbr9avqZ4jkRGGWT33Or7E0", "scope": "GOOGLE", "types": ["school", "point_of_interest", "establishment"], "vicinity": "4VCR+49W, Sahebganj Naicharkuti"}], "status": "OK"}