{"html_attributions": [], "results": [{"business_status": "OPERATIONAL", "geometry": {"location": {"lat": 26.41952, "lng": 89.9205084}, "viewport": {"northeast": {"lat": 26.4206940302915, "lng": 89.92174488029151}, "southwest": {"lat": 26.4179960697085, "lng": 89.9190469197085}}}, "icon": "https://maps.gstatic.com/mapfiles/place_api/icons/v1/png_71/school-71.png", "icon_background_color": "#7B9EB0", "icon_mask_base_uri": "https://maps.gstatic.com/mapfiles/place_api/icons/v2/school_pinlet", "name": "Chandrapur L P School", "place_id": "ChIJ75H4qvh94jkRTAv8085aUww", "rating": 5, "reference": "ChIJ75H4qvh94jkRTAv8085aUww", "scope": "GOOGLE", "types": ["school", "point_of_interest", "establishment"], "user_ratings_total": 1, "vicinity": "CW9C+R62, Shyamaguri"}, {"business_status": "OPERATIONAL", "geometry": {"location": {"lat": 26.4259346, "lng": 89.92705149999999}, "viewport": {"northeast": {"lat": 26.4271063802915, "lng": 89.9284943302915}, "southwest": {"lat": 26.4244084197085, "lng": 89.9257963697085}}}, "icon": "https://maps.gstatic.com/mapfiles/place_api/icons/v1/png_71/school-71.png", "icon_background_color": "#7B9EB0", "icon_mask_base_uri": "https://maps.gstatic.com/mapfiles/place_api/icons/v2/school_pinlet", "name": "Ranga Gaon LP And School", "photos": [{"height": 4160, "html_attributions": ["<a href=\"https://maps.google.com/maps/contrib/115263030086387907452\">Dipon Tudu</a>"], "photo_reference": "Aap_uECeH9Ov4eSlK1xFl2WUKrYcTau5LxXS60UqBybi6Q2l9NLLySzLVsWx8iCSeIQ97eXAvGP5vYb8eyiuH7TU6j9IkEFdpJI3R-zOgIyptcRzgRQ0aPdZWWSvkVCsIR8b0ExstOKKygrhyQ9BrA3HS6Me3DNhmIMMtrTd2CQ2UkJapBd9", "width": 1920}], "place_id": "ChIJQxMPl5V_4jkRXNcXw2pa3PA", "reference": "ChIJQxMPl5V_4jkRXNcXw2pa3PA", "scope": "GOOGLE", "types": ["school", "point_of_interest", "establishment"], "vicinity": "CWGG+9RF, Tarinipur"}, {"business_status": "OPERATIONAL", "geometry": {"location": {"lat": 26.4258803, "lng": 89.9274442}, "viewport": {"northeast": {"lat": 26.4271422802915, "lng": 89.9288392302915}, "southwest": {"lat": 26.4244443197085, "lng": 89.9261412697085}}}, "icon": "https://maps.gstatic.com/mapfiles/place_api/icons/v1/png_71/school-71.png", "icon_background_color": "#7B9EB0", "icon_mask_base_uri": "https://maps.gstatic.com/mapfiles/place_api/icons/v2/school_pinlet", "name": "Rangapara M.V. School", "opening_hours": {"open_now": true}, "photos": [{"height": 2336, "html_attributions": ["<a href=\"https://maps.google.com/maps/contrib/101557792694262224097\">Ons Pappu</a>"], "photo_reference": "Aap_uEBIbEp3qPvRnSpq2D5q6VgLCsvpQkZ00pgHrcjMZOsivVVkplsmAEKi-LbSHwcggh-LJmEQl3HU-KA3YA2s2e26DFA4z189wKDCqit0gx1GTXJgKZILCwyaOHMuZCxEA5EPSUCQccgWrtcqMmqjXHZYvhoIflZiIBLLFcnrfjJkI4mZ", "width": 4160}], "place_id": "ChIJ_Qz_vIN_4jkR_CMioLJeXRs", "rating": 4, "reference": "ChIJ_Qz_vIN_4jkR_CMioLJeXRs", "scope": "GOOGLE", "types": ["school", "point_of_interest", "establishment"], "user_ratings_total": 1, "vicinity": "CWGG+9X4, Tarinipur"}], "status": "OK"}