{"html_attributions": [], "results": [{"business_status": "OPERATIONAL", "geometry": {"location": {"lat": 25.6624593, "lng": 89.9471962}, "viewport": {"northeast": {"lat": 25.6638610302915, "lng": 89.9485639802915}, "southwest": {"lat": 25.6611630697085, "lng": 89.94586601970849}}}, "icon": "https://maps.gstatic.com/mapfiles/place_api/icons/v1/png_71/school-71.png", "icon_background_color": "#7B9EB0", "icon_mask_base_uri": "https://maps.gstatic.com/mapfiles/place_api/icons/v2/school_pinlet", "name": "Janakalyan High School,pipulbari Bazar", "photos": [{"height": 4000, "html_attributions": ["<a href=\"https://maps.google.com/maps/contrib/107491842469685978390\">unique friendship Hassan</a>"], "photo_reference": "Aap_uECVG4kTSEGTYrWNbBAakt06EuKrBy2ZC4PsTjvB3hnBKMV0ZB8RgXvxThcSu_Cc7MDyXrIbA0CLOpqrrONnyQ_M3jidlFQc501r1SeIe8G7X2vn8iplDtKdtNf9kwRPA4u62CO7cZ8ioHMzWSJLv9t6U2r5B4BRTjvEbO5maa65Ep1Y", "width": 3000}], "place_id": "ChIJ1ToCNMtU_TkRvUDXelSP8E4", "plus_code": {"compound_code": "MW6W+XV Tangoan Pt.III, Assam, India", "global_code": "7MQFMW6W+XV"}, "rating": 1, "reference": "ChIJ1ToCNMtU_TkRvUDXelSP8E4", "scope": "GOOGLE", "types": ["school", "point_of_interest", "establishment"], "user_ratings_total": 1, "vicinity": "Tangoan Pt.III"}, {"business_status": "OPERATIONAL", "geometry": {"location": {"lat": 25.6598606, "lng": 89.9463408}, "viewport": {"northeast": {"lat": 25.6615784302915, "lng": 89.94926670000001}, "southwest": {"lat": 25.6588804697085, "lng": 89.94536550000001}}}, "icon": "https://maps.gstatic.com/mapfiles/place_api/icons/v1/png_71/school-71.png", "icon_background_color": "#7B9EB0", "icon_mask_base_uri": "https://maps.gstatic.com/mapfiles/place_api/icons/v2/school_pinlet", "name": "Janakalyan High School Pipulbari Bazar", "place_id": "ChIJVVVVVcpU_TkRhhk2EyEaVB4", "reference": "ChIJVVVVVcpU_TkRhhk2EyEaVB4", "scope": "GOOGLE", "types": ["school", "point_of_interest", "establishment"], "vicinity": "MW5W+WGW, Tangoan Pt.III"}, {"business_status": "OPERATIONAL", "geometry": {"location": {"lat": 25.6591368, "lng": 89.9484994}, "viewport": {"northeast": {"lat": 25.6605378302915, "lng": 89.95002293029152}, "southwest": {"lat": 25.6578398697085, "lng": 89.9473249697085}}}, "icon": "https://maps.gstatic.com/mapfiles/place_api/icons/v1/png_71/school-71.png", "icon_background_color": "#7B9EB0", "icon_mask_base_uri": "https://maps.gstatic.com/mapfiles/place_api/icons/v2/school_pinlet", "name": "Janakalyan High School", "place_id": "ChIJBe8ohstU_TkRum32HtKZfg0", "plus_code": {"compound_code": "MW5X+M9 Tangoan Pt.III, Assam, India", "global_code": "7MQFMW5X+M9"}, "reference": "ChIJBe8ohstU_TkRum32HtKZfg0", "scope": "GOOGLE", "types": ["school", "point_of_interest", "establishment"], "vicinity": "State Highway 2, Tangoan Pt.III"}, {"business_status": "OPERATIONAL", "geometry": {"location": {"lat": 25.6583758, "lng": 89.9489371}, "viewport": {"northeast": {"lat": 25.6597684802915, "lng": 89.95040548029151}, "southwest": {"lat": 25.6570705197085, "lng": 89.94770751970849}}}, "icon": "https://maps.gstatic.com/mapfiles/place_api/icons/v1/png_71/school-71.png", "icon_background_color": "#7B9EB0", "icon_mask_base_uri": "https://maps.gstatic.com/mapfiles/place_api/icons/v2/school_pinlet", "name": "B H M Parbana", "place_id": "ChIJV4jXd-1V_TkRnyLeiTh7KLI", "reference": "ChIJV4jXd-1V_TkRnyLeiTh7KLI", "scope": "GOOGLE", "types": ["school", "point_of_interest", "establishment"], "vicinity": "MW5X+9H3, Bhurakata"}, {"business_status": "OPERATIONAL", "geometry": {"location": {"lat": 25.669074, "lng": 89.9345621}, "viewport": {"northeast": {"lat": 25.6706134302915, "lng": 89.9360630302915}, "southwest": {"lat": 25.66791546970849, "lng": 89.9333650697085}}}, "icon": "https://maps.gstatic.com/mapfiles/place_api/icons/v1/png_71/school-71.png", "icon_background_color": "#7B9EB0", "icon_mask_base_uri": "https://maps.gstatic.com/mapfiles/place_api/icons/v2/school_pinlet", "name": "Mohibul Islam alone boy", "place_id": "ChIJqwljE9Gr4jkRBfwwqVGIoR0", "plus_code": {"compound_code": "MW9M+JR Dhanua, Assam, India", "global_code": "7MQFMW9M+JR"}, "reference": "ChIJqwljE9Gr4jkRBfwwqVGIoR0", "scope": "GOOGLE", "types": ["school", "point_of_interest", "establishment"], "vicinity": "Tangoan Pt.4, Moynabandha Road"}], "status": "OK"}