{"html_attributions": [], "results": [{"business_status": "OPERATIONAL", "geometry": {"location": {"lat": 26.0581383, "lng": 89.9414822}, "viewport": {"northeast": {"lat": 26.0593902802915, "lng": 89.94300668029149}, "southwest": {"lat": 26.0566923197085, "lng": 89.94030871970848}}}, "icon": "https://maps.gstatic.com/mapfiles/place_api/icons/v1/png_71/school-71.png", "icon_background_color": "#7B9EB0", "icon_mask_base_uri": "https://maps.gstatic.com/mapfiles/place_api/icons/v2/school_pinlet", "name": "A H Memorial LPS", "opening_hours": {"open_now": true}, "place_id": "ChIJ2WJFzEOf4jkRyW6nap2r-4M", "reference": "ChIJ2WJFzEOf4jkRyW6nap2r-4M", "scope": "GOOGLE", "types": ["school", "point_of_interest", "establishment"], "vicinity": "3W5R+7H5, Rowah Pt.III"}, {"business_status": "OPERATIONAL", "geometry": {"location": {"lat": 26.0678695, "lng": 89.94283709999999}, "viewport": {"northeast": {"lat": 26.0693446802915, "lng": 89.94411138029149}, "southwest": {"lat": 26.0666467197085, "lng": 89.94141341970848}}}, "icon": "https://maps.gstatic.com/mapfiles/place_api/icons/v1/png_71/school-71.png", "icon_background_color": "#7B9EB0", "icon_mask_base_uri": "https://maps.gstatic.com/mapfiles/place_api/icons/v2/school_pinlet", "name": "Khash Khamar A.M.E School", "place_id": "ChIJEcfF3Qaf4jkRdnz8yDfEG-8", "rating": 5, "reference": "ChIJEcfF3Qaf4jkRdnz8yDfEG-8", "scope": "GOOGLE", "types": ["school", "point_of_interest", "establishment"], "user_ratings_total": 1, "vicinity": "3W9V+44W, Tiamari Pt.II"}, {"business_status": "OPERATIONAL", "geometry": {"location": {"lat": 26.062379, "lng": 89.9541362}, "viewport": {"northeast": {"lat": 26.0637436802915, "lng": 89.9554311802915}, "southwest": {"lat": 26.0610457197085, "lng": 89.95273321970849}}}, "icon": "https://maps.gstatic.com/mapfiles/place_api/icons/v1/png_71/school-71.png", "icon_background_color": "#7B9EB0", "icon_mask_base_uri": "https://maps.gstatic.com/mapfiles/place_api/icons/v2/school_pinlet", "name": "Aminur Islam Dulu Sood...", "photos": [{"height": 1064, "html_attributions": ["<a href=\"https://maps.google.com/maps/contrib/109528159998893454641\">Dulu Khan</a>"], "photo_reference": "Aap_uEA3Rhd51jCmxrRglMDn7iwXM7RcddynJ_tMoDBp-_t8WYkJ4CR5lRh3YdxhVCoxj1HfSh7N36iJjhHjMQfHPJwbmZ5g3pK76nW0L4LuKYMOE5DklsL7-Hil1nB59hAek_f-2XXjPYmc3KjJmKFjCdUEI-GrhaZAXFNTAkX6JG6zEAjf", "width": 980}], "place_id": "ChIJG8J5Qi-f4jkRzkRDNxqb0q8", "plus_code": {"compound_code": "3X63+XM Tiamari Pt.I, Assam, India", "global_code": "7MRF3X63+XM"}, "reference": "ChIJG8J5Qi-f4jkRzkRDNxqb0q8", "scope": "GOOGLE", "types": ["school", "point_of_interest", "establishment"], "vicinity": "Pt.2, Tiamari Road"}, {"business_status": "OPERATIONAL", "geometry": {"location": {"lat": 26.0708896, "lng": 89.9493334}, "viewport": {"northeast": {"lat": 26.0723801802915, "lng": 89.9506922802915}, "southwest": {"lat": 26.0696822197085, "lng": 89.9479943197085}}}, "icon": "https://maps.gstatic.com/mapfiles/place_api/icons/v1/png_71/school-71.png", "icon_background_color": "#7B9EB0", "icon_mask_base_uri": "https://maps.gstatic.com/mapfiles/place_api/icons/v2/school_pinlet", "name": "Khaskhamar M.V School", "photos": [{"height": 697, "html_attributions": ["<a href=\"https://maps.google.com/maps/contrib/100530603465337337865\">Rubul Alom</a>"], "photo_reference": "Aap_uEBV_uxj3KPvqRajLegdBoIxgHO4O1uvdj9gqJfKqGlCN26sYbHUOoMflhkCnbPFgkcaTUwEA2bIBIA7ivoOkEnx-KTVUS-r47YO8pkGhprD3OKboOhIFJRKq6GSWFjLln7ZQjj7K9NrtJyb9IJFUrXX5YJb9G2x6f6PEvl5EYv5Qx41", "width": 839}], "place_id": "ChIJJ3mSnrqf4jkRS-F6cgN0CfU", "rating": 5, "reference": "ChIJJ3mSnrqf4jkRS-F6cgN0CfU", "scope": "GOOGLE", "types": ["school", "point_of_interest", "establishment"], "user_ratings_total": 1, "vicinity": "3WCX+9P4, Tiamari Pt.II"}, {"business_status": "OPERATIONAL", "geometry": {"location": {"lat": 26.0638602, "lng": 89.9550878}, "viewport": {"northeast": {"lat": 26.0653250302915, "lng": 89.9561803802915}, "southwest": {"lat": 26.06262706970849, "lng": 89.9534824197085}}}, "icon": "https://maps.gstatic.com/mapfiles/place_api/icons/v1/png_71/school-71.png", "icon_background_color": "#7B9EB0", "icon_mask_base_uri": "https://maps.gstatic.com/mapfiles/place_api/icons/v2/school_pinlet", "name": "Md Nurjamal", "photos": [{"height": 960, "html_attributions": ["<a href=\"https://maps.google.com/maps/contrib/107237974307613528190\">Md Nur</a>"], "photo_reference": "Aap_uEBgFsXt8Vfr4BRt3Vbjz1HFWsiCHy4dhodXD7frz9Dcgg1i-N_12YrSdexNqb_exP9WP_AWbsz01RBQRCnCEFcJDBFG6d2f2rHvbRV9YPoaiuhdNxa_nSmMqlZSSpkuUNRC9U59DmaU3bx_knOXNRG6VFik3e-g_SAbSCYKiHy6oSml", "width": 540}], "place_id": "ChIJw-71hi2f4jkRrV90iFw2QjU", "rating": 5, "reference": "ChIJw-71hi2f4jkRrV90iFw2QjU", "scope": "GOOGLE", "types": ["school", "point_of_interest", "establishment"], "user_ratings_total": 1, "vicinity": "3X74+G2W, Tiamari Pt.I"}, {"business_status": "OPERATIONAL", "geometry": {"location": {"lat": 26.0620598, "lng": 89.93233049999999}, "viewport": {"northeast": {"lat": 26.0629931802915, "lng": 89.93638215}, "southwest": {"lat": 26.0602952197085, "lng": 89.93097995}}}, "icon": "https://maps.gstatic.com/mapfiles/place_api/icons/v1/png_71/school-71.png", "icon_background_color": "#7B9EB0", "icon_mask_base_uri": "https://maps.gstatic.com/mapfiles/place_api/icons/v2/school_pinlet", "name": "Hindur Dair Jame masjid", "place_id": "ChIJSWPE0rKf4jkRU8QOPIYm9zE", "reference": "ChIJSWPE0rKf4jkRU8QOPIYm9zE", "scope": "GOOGLE", "types": ["school", "point_of_interest", "establishment"], "vicinity": "3W6J+RWG, Rowah Pt.III"}, {"business_status": "OPERATIONAL", "geometry": {"location": {"lat": 26.0572934, "lng": 89.93305840000001}, "viewport": {"northeast": {"lat": 26.0587347302915, "lng": 89.93438073029151}, "southwest": {"lat": 26.05603676970849, "lng": 89.9316827697085}}}, "icon": "https://maps.gstatic.com/mapfiles/place_api/icons/v1/png_71/school-71.png", "icon_background_color": "#7B9EB0", "icon_mask_base_uri": "https://maps.gstatic.com/mapfiles/place_api/icons/v2/school_pinlet", "name": "Hindurdair Lp school", "opening_hours": {"open_now": false}, "place_id": "ChIJy3_GzyGf4jkRJqs-7X6Z4Sw", "plus_code": {"compound_code": "3W4M+W6 Gauripur, Assam, India", "global_code": "7MRF3W4M+W6"}, "reference": "ChIJy3_GzyGf4jkRJqs-7X6Z4Sw", "scope": "GOOGLE", "types": ["school", "point_of_interest", "establishment"], "vicinity": "RowahPt.III,po,madhusoulmari,pin,783331,ps, dist, Gauripur"}, {"business_status": "OPERATIONAL", "geometry": {"location": {"lat": 26.0738859, "lng": 89.9463408}, "viewport": {"northeast": {"lat": 26.074751, "lng": 89.951391}, "southwest": {"lat": 26.0712906, "lng": 89.94465740000001}}}, "icon": "https://maps.gstatic.com/mapfiles/place_api/icons/v1/png_71/school-71.png", "icon_background_color": "#7B9EB0", "icon_mask_base_uri": "https://maps.gstatic.com/mapfiles/place_api/icons/v2/school_pinlet", "name": "MADINATUL ULUM MADRASSA HS SCHOOL", "place_id": "ChIJHcPyaAWf4jkRstX6kWZgwFE", "rating": 4.7, "reference": "ChIJHcPyaAWf4jkRstX6kWZgwFE", "scope": "GOOGLE", "types": ["school", "point_of_interest", "establishment"], "user_ratings_total": 3, "vicinity": "3WFW+HG4, Tiamari Pt.II"}, {"business_status": "OPERATIONAL", "geometry": {"location": {"lat": 26.062948, "lng": 89.9575162}, "viewport": {"northeast": {"lat": 26.0643046802915, "lng": 89.9588169802915}, "southwest": {"lat": 26.0616067197085, "lng": 89.9561190197085}}}, "icon": "https://maps.gstatic.com/mapfiles/place_api/icons/v1/png_71/school-71.png", "icon_background_color": "#7B9EB0", "icon_mask_base_uri": "https://maps.gstatic.com/mapfiles/place_api/icons/v2/school_pinlet", "name": "South Tiamari M.E School", "opening_hours": {"open_now": true}, "photos": [{"height": 1440, "html_attributions": ["<a href=\"https://maps.google.com/maps/contrib/110777622419632033723\">Numan Ali</a>"], "photo_reference": "Aap_uEBAavpJW5evvbtKNOfg4pVSTM4Nk9zGIePJGbJtHz3gh9bgvMglWg7vLuJWDZ11jv0DWbaleWG6JEt5bjBgnaZOmSpv21yzX18RBUmDrBiZ7Sh2AwgCVFQdom2owEt-nfMh6pzWcNB8B8Qz7ZXgEkqhz9GHIOKjJXISHJ14oTKQ54bi", "width": 2560}], "place_id": "ChIJc_QNZXOf4jkRCFoQX7X7OT8", "rating": 4.9, "reference": "ChIJc_QNZXOf4jkRCFoQX7X7OT8", "scope": "GOOGLE", "types": ["school", "point_of_interest", "establishment"], "user_ratings_total": 7, "vicinity": "3X75+52C, Tiamari Pt.I"}], "status": "OK"}