{"html_attributions": [], "results": [{"business_status": "OPERATIONAL", "geometry": {"location": {"lat": 25.9423211, "lng": 89.7130177}, "viewport": {"northeast": {"lat": 25.9436900302915, "lng": 89.71463698029152}, "southwest": {"lat": 25.9409920697085, "lng": 89.7119390197085}}}, "icon": "https://maps.gstatic.com/mapfiles/place_api/icons/v1/png_71/school-71.png", "icon_background_color": "#7B9EB0", "icon_mask_base_uri": "https://maps.gstatic.com/mapfiles/place_api/icons/v2/school_pinlet", "name": "Poschim Payradanga Primary School", "opening_hours": {"open_now": true}, "photos": [{"height": 1080, "html_attributions": ["<a href=\"https://maps.google.com/maps/contrib/114543069445060485188\">Jayanto Chowdhury</a>"], "photo_reference": "Aap_uEDFUdxwX0dDsu8zLQkXOKmH5_0vO_jI1LzuYDjytMcX8RgF2_k5KeBcS9hJ7TEzuV567HQCu7Z38S-druMpNiBduOa0-IqvM7mxeec13YW6GASCK7FhwV6ggSshjiwQSxutr6q54iiBglwyVjZ4NpvSU5NgaO83Xjih8Sb431GO_OCH", "width": 1920}], "place_id": "ChIJg-59XAy54jkRRz1Uf-dUbqY", "rating": 3, "reference": "ChIJg-59XAy54jkRRz1Uf-dUbqY", "scope": "GOOGLE", "types": ["primary_school", "school", "point_of_interest", "establishment"], "user_ratings_total": 1, "vicinity": "WPR7+W6C"}, {"business_status": "OPERATIONAL", "geometry": {"location": {"lat": 25.9321562, "lng": 89.72238399999999}, "viewport": {"northeast": {"lat": 25.9337314302915, "lng": 89.7238266302915}, "southwest": {"lat": 25.9310334697085, "lng": 89.72112866970848}}}, "icon": "https://maps.gstatic.com/mapfiles/place_api/icons/v1/png_71/school-71.png", "icon_background_color": "#7B9EB0", "icon_mask_base_uri": "https://maps.gstatic.com/mapfiles/place_api/icons/v2/school_pinlet", "name": "Daynarpar High School", "opening_hours": {"open_now": false}, "photos": [{"height": 3120, "html_attributions": ["<a href=\"https://maps.google.com/maps/contrib/112019010643495009854\">Md Mominul Islam</a>"], "photo_reference": "Aap_uEDUz6J7Yt4-ht4sWWiUwjrbgrU6OjCOv4OYRer6YIAEpGH4GcJpbDNcx4rYbp7bLbWi5CiGrL3F5zDydonEkCnESEvxK0kD-Aoga88mmFlj53CaFKyUUcORAc505oYbXidP_ADHW5tGcvxkWqpW_EEnu087T4byp7_BRiGspkT_Iczy", "width": 4160}], "place_id": "ChIJm8DU8Z-54jkRnPReLYHDg6U", "rating": 5, "reference": "ChIJm8DU8Z-54jkRnPReLYHDg6U", "scope": "GOOGLE", "types": ["secondary_school", "school", "point_of_interest", "establishment"], "user_ratings_total": 6, "vicinity": "WPJC+VX6"}, {"business_status": "OPERATIONAL", "geometry": {"location": {"lat": 25.9421818, "lng": 89.71270679999999}, "viewport": {"northeast": {"lat": 25.9435671802915, "lng": 89.7144859302915}, "southwest": {"lat": 25.9408692197085, "lng": 89.71178796970848}}}, "icon": "https://maps.gstatic.com/mapfiles/place_api/icons/v1/png_71/school-71.png", "icon_background_color": "#7B9EB0", "icon_mask_base_uri": "https://maps.gstatic.com/mapfiles/place_api/icons/v2/school_pinlet", "name": "Purba Payradanga Govt. primary school", "opening_hours": {"open_now": true}, "place_id": "ChIJRRqTt7O44jkR9Rw1hX5BtK4", "rating": 5, "reference": "ChIJRRqTt7O44jkR9Rw1hX5BtK4", "scope": "GOOGLE", "types": ["school", "point_of_interest", "establishment"], "user_ratings_total": 1, "vicinity": "WPR7+V3G"}], "status": "OK"}