{"html_attributions": [], "next_page_token": "Aap_uEAW924Mytmjc-VZ_xaJhAKVvTdLl5gV7sf13ZH8Yhckl8-r7H_nJo_Bk97X4t61ibD9aw0a0_h9vPqNh_FJHm2p0K9_pQY59DWaO4UrcWRuSfj9wyfRV2xIgU2S5x3gQNC0u5KUjDLiOBoyvc50fjzTCoVwWumcADe4krDlUVZLBO5pwEFd2gQDdkUHa14G2EG3RJsYzDsvv8jWnCu8Kc4g6P3fyjI_UU36PiC3VNFFoOOB-qzbkrhxYaN41MAiu3RTwfPK0MoYzjRe0R3uixsWE0fhyWUaUreagEajgFB7KOu5VM4ze5E-DQPB1SIPLGZDH0UBphWEhz27Cl46OmiggwkHmVrcQhBFpkCBf3_-GFC7E6i0ilHXmK5Xc_W6lYZo7w65nzMNVUGnMH8pJTvXTv7_7b-NECQKf4RlyTBJ7AcRSeE", "results": [{"business_status": "OPERATIONAL", "geometry": {"location": {"lat": 26.10719139999999, "lng": 89.96712989999999}, "viewport": {"northeast": {"lat": 26.1083641302915, "lng": 89.96864583029149}, "southwest": {"lat": 26.1056661697085, "lng": 89.96594786970849}}}, "icon": "https://maps.gstatic.com/mapfiles/place_api/icons/v1/png_71/school-71.png", "icon_background_color": "#7B9EB0", "icon_mask_base_uri": "https://maps.gstatic.com/mapfiles/place_api/icons/v2/school_pinlet", "name": "Charaldanga High School", "place_id": "ChIJaxOGfYyf4jkRTC8Pc0_hUlM", "plus_code": {"compound_code": "4X48+VV Charaldanga, Assam, India", "global_code": "7MRF4X48+VV"}, "rating": 3, "reference": "ChIJaxOGfYyf4jkRTC8Pc0_hUlM", "scope": "GOOGLE", "types": ["school", "point_of_interest", "establishment"], "user_ratings_total": 1, "vicinity": "Charaldanga"}, {"business_status": "OPERATIONAL", "geometry": {"location": {"lat": 26.10690839999999, "lng": 89.9690711}, "viewport": {"northeast": {"lat": 26.1082025302915, "lng": 89.97043493029149}, "southwest": {"lat": 26.1055045697085, "lng": 89.96773696970848}}}, "icon": "https://maps.gstatic.com/mapfiles/place_api/icons/v1/png_71/school-71.png", "icon_background_color": "#7B9EB0", "icon_mask_base_uri": "https://maps.gstatic.com/mapfiles/place_api/icons/v2/school_pinlet", "name": "\u099a\u09be\u09b0\u09be\u09b2\u09a1\u09be\u0999\u09cd\u0997\u09be \u098f\u09ae \u09ad\u09bf \u09b8\u09cd\u0995\u09c1\u09b2", "photos": [{"height": 533, "html_attributions": ["<a href=\"https://maps.google.com/maps/contrib/107827562972032392243\">Atowar Rahman Salafi</a>"], "photo_reference": "Aap_uEBM2imEpkVoosp4IDopRxPhbDkyBiFViVhSxL7lCtEZmxgf0Fi0OUxwPCO2l03pBRL3MrD8lrLSbagma7mObCk6o9m6M47m7Y2hau6hTMYxNj3TLKvBRVBY-7yXayBILBDJiUQsndz3eIZMKQeKr7A7jOB8FizMqa-lgImSIs8XqzPB", "width": 720}], "place_id": "ChIJX-z1deOf4jkRl_dfHVVdzVg", "rating": 5, "reference": "ChIJX-z1deOf4jkRl_dfHVVdzVg", "scope": "GOOGLE", "types": ["school", "point_of_interest", "establishment"], "user_ratings_total": 1, "vicinity": "4X49+QJ8, Charaldanga"}, {"business_status": "OPERATIONAL", "geometry": {"location": {"lat": 26.1070066, "lng": 89.9691318}, "viewport": {"northeast": {"lat": 26.1083562302915, "lng": 89.9705345302915}, "southwest": {"lat": 26.1056582697085, "lng": 89.9678365697085}}}, "icon": "https://maps.gstatic.com/mapfiles/place_api/icons/v1/png_71/school-71.png", "icon_background_color": "#7B9EB0", "icon_mask_base_uri": "https://maps.gstatic.com/mapfiles/place_api/icons/v2/school_pinlet", "name": "Charaldanga M.V School", "opening_hours": {"open_now": true}, "photos": [{"height": 2592, "html_attributions": ["<a href=\"https://maps.google.com/maps/contrib/104746576287492792510\">\u0985\u09b8\u09ae Bangla news</a>"], "photo_reference": "Aap_uEBgy53USWJNI2o8MpdQquiqXRzb5DsjyCG8uuckdIQXqkIGbo6bE5fJLDyGPR5XkcB1lR0Bfi5335steDN_C-wiBylhQYwGVE13XVkX2GQv15-soWsHOjdKZk1Yfb5vvkP-Oolib1kDDKU8VYZQa8jIH_X6Okre7-Pm16717szCeC_k", "width": 1944}], "place_id": "ChIJdYiQcFye4jkR-phc5aOMj70", "rating": 4.3, "reference": "ChIJdYiQcFye4jkR-phc5aOMj70", "scope": "GOOGLE", "types": ["school", "point_of_interest", "establishment"], "user_ratings_total": 6, "vicinity": "4X49+RM2, Charaldanga"}, {"business_status": "OPERATIONAL", "geometry": {"location": {"lat": 26.1071074, "lng": 89.96914249999999}, "viewport": {"northeast": {"lat": 26.1084569302915, "lng": 89.97053913029151}, "southwest": {"lat": 26.1057589697085, "lng": 89.96784116970849}}}, "icon": "https://maps.gstatic.com/mapfiles/place_api/icons/v1/png_71/school-71.png", "icon_background_color": "#7B9EB0", "icon_mask_base_uri": "https://maps.gstatic.com/mapfiles/place_api/icons/v2/school_pinlet", "name": "Charaldanga Anganwadi Pre-School", "opening_hours": {"open_now": true}, "place_id": "ChIJGU8DBMKf4jkRKRyx1r06rEQ", "reference": "ChIJGU8DBMKf4jkRKRyx1r06rEQ", "scope": "GOOGLE", "types": ["school", "point_of_interest", "establishment"], "vicinity": "4X49+RMR, Charaldanga"}, {"business_status": "OPERATIONAL", "geometry": {"location": {"lat": 26.0953444, "lng": 89.9663222}, "viewport": {"northeast": {"lat": 26.0966258302915, "lng": 89.9677039302915}, "southwest": {"lat": 26.0939278697085, "lng": 89.9650059697085}}}, "icon": "https://maps.gstatic.com/mapfiles/place_api/icons/v1/png_71/school-71.png", "icon_background_color": "#7B9EB0", "icon_mask_base_uri": "https://maps.gstatic.com/mapfiles/place_api/icons/v2/school_pinlet", "name": "Sankardev Sishu Niketan, Gauripur", "photos": [{"height": 3120, "html_attributions": ["<a href=\"https://maps.google.com/maps/contrib/113222983477131147082\">SUVAJIT ROY</a>"], "photo_reference": "Aap_uECXNwOkOnvS7zrbPdY4bjKjm1-uW4ZoMlVoiX39Cw-e-PVeuLQE7TW2oCR7REed1kl7PmPJcoWEKVqXXnumIQWon0iVmEwrBesXmK_2YmCbcQ0CE07gdQNYSF8WKWhlAVpSSkROtIgXyUgmF7FIhl-qnpW5MnlDQ6nUPkqOVmnUPh-Z", "width": 4160}], "place_id": "ChIJD8EpvVae4jkRlUAzqYIIh-4", "rating": 4.6, "reference": "ChIJD8EpvVae4jkRlUAzqYIIh-4", "scope": "GOOGLE", "types": ["school", "point_of_interest", "establishment"], "user_ratings_total": 18, "vicinity": "3XW8+4GP, Gauripur"}, {"business_status": "OPERATIONAL", "geometry": {"location": {"lat": 26.10669499999999, "lng": 89.9701685}, "viewport": {"northeast": {"lat": 26.1079860802915, "lng": 89.9715153802915}, "southwest": {"lat": 26.1052881197085, "lng": 89.9688174197085}}}, "icon": "https://maps.gstatic.com/mapfiles/place_api/icons/v1/png_71/school-71.png", "icon_background_color": "#7B9EB0", "icon_mask_base_uri": "https://maps.gstatic.com/mapfiles/place_api/icons/v2/school_pinlet", "name": "Charaldanga M.E Madrasa", "place_id": "ChIJFdVMvk2f4jkRDeE9pXfn3Wg", "reference": "ChIJFdVMvk2f4jkRDeE9pXfn3Wg", "scope": "GOOGLE", "types": ["school", "point_of_interest", "establishment"], "vicinity": "4X4C+M3F, Charaldanga"}, {"business_status": "OPERATIONAL", "geometry": {"location": {"lat": 26.0949042, "lng": 89.9661431}, "viewport": {"northeast": {"lat": 26.0963412302915, "lng": 89.96744938029151}, "southwest": {"lat": 26.0936432697085, "lng": 89.9647514197085}}}, "icon": "https://maps.gstatic.com/mapfiles/place_api/icons/v1/png_71/school-71.png", "icon_background_color": "#7B9EB0", "icon_mask_base_uri": "https://maps.gstatic.com/mapfiles/place_api/icons/v2/school_pinlet", "name": "Hitesh Roy Choudhari Memorial School", "opening_hours": {"open_now": true}, "photos": [{"height": 3472, "html_attributions": ["<a href=\"https://maps.google.com/maps/contrib/109620402692742018906\">Miltan Chowdhury</a>"], "photo_reference": "Aap_uEAFTCeDfQroaXSVcyJjsMZpKtS6W25EY34w3K5xblSbl-vWn0BcbqfgpwWLY5OQhnBoHqjdvm7tKE6T13VmhHGhjcE00j73OUN0HLY9pMNBHR7f_Ekq46P39CVLhN2dnLL3aGw2VsFoYyFi8rEBaMGhLL4qVuYcCdoRs_0tK5Yc9SsY", "width": 4624}], "place_id": "ChIJtWP5iz-f4jkRxNAt8JG1BIA", "rating": 3.5, "reference": "ChIJtWP5iz-f4jkRxNAt8JG1BIA", "scope": "GOOGLE", "types": ["school", "point_of_interest", "establishment"], "user_ratings_total": 6, "vicinity": "3XV8+XF6, Gauripur"}, {"business_status": "OPERATIONAL", "geometry": {"location": {"lat": 26.0948169, "lng": 89.96614249999999}, "viewport": {"northeast": {"lat": 26.0960615802915, "lng": 89.9675001302915}, "southwest": {"lat": 26.09336361970849, "lng": 89.96480216970849}}}, "icon": "https://maps.gstatic.com/mapfiles/place_api/icons/v1/png_71/school-71.png", "icon_background_color": "#7B9EB0", "icon_mask_base_uri": "https://maps.gstatic.com/mapfiles/place_api/icons/v2/school_pinlet", "name": "Hitesh Kumar Memorial School", "opening_hours": {"open_now": true}, "place_id": "ChIJAYRvn1ae4jkR1F1qEFegYJA", "rating": 5, "reference": "ChIJAYRvn1ae4jkR1F1qEFegYJA", "scope": "GOOGLE", "types": ["school", "point_of_interest", "establishment"], "user_ratings_total": 1, "vicinity": "3XV8+WFC, Gauripur"}, {"business_status": "OPERATIONAL", "geometry": {"location": {"lat": 26.0946699, "lng": 89.9654884}, "viewport": {"northeast": {"lat": 26.0960970802915, "lng": 89.9667991302915}, "southwest": {"lat": 26.0933991197085, "lng": 89.96410116970848}}}, "icon": "https://maps.gstatic.com/mapfiles/place_api/icons/v1/png_71/school-71.png", "icon_background_color": "#7B9EB0", "icon_mask_base_uri": "https://maps.gstatic.com/mapfiles/place_api/icons/v2/school_pinlet", "name": "Dipti Barua", "photos": [{"height": 3024, "html_attributions": ["<a href=\"https://maps.google.com/maps/contrib/103139699595607671737\">Shubhankar Narayan Barua</a>"], "photo_reference": "Aap_uECuU_zaB902mVRqL35Aoe3kGvupcnw7KIx0pZdMZYsSG9i8fVxT15iAUql2vz7MTjyoh_VaRVxN-Xs5DDB8yYGYaaBDBZbvS_PnA5_9IH_vqQWTu9af6_yNuLMd9F7PT1kEE3WEMuPz9WUkETMc01zUPSxBQcNyEtzmzIl9ztF1Qndu", "width": 4032}], "place_id": "ChIJo56mwref4jkRRH-fUL64vWg", "reference": "ChIJo56mwref4jkRRH-fUL64vWg", "scope": "GOOGLE", "types": ["school", "point_of_interest", "establishment"], "vicinity": "3XV8+V59, Gauripur"}, {"business_status": "OPERATIONAL", "geometry": {"location": {"lat": 26.1024432, "lng": 89.97269779999999}, "viewport": {"northeast": {"lat": 26.1037928302915, "lng": 89.97390103029151}, "southwest": {"lat": 26.1010948697085, "lng": 89.9712030697085}}}, "icon": "https://maps.gstatic.com/mapfiles/place_api/icons/v1/png_71/school-71.png", "icon_background_color": "#7B9EB0", "icon_mask_base_uri": "https://maps.gstatic.com/mapfiles/place_api/icons/v2/school_pinlet", "name": "Sajuarkuti Pre-school", "place_id": "ChIJzePF5iif4jkR-m7T9PBtF04", "reference": "ChIJzePF5iif4jkR-m7T9PBtF04", "scope": "GOOGLE", "types": ["school", "point_of_interest", "establishment"], "vicinity": "4X2F+X3G, Sajuarkuti"}, {"business_status": "OPERATIONAL", "geometry": {"location": {"lat": 26.0941189, "lng": 89.9638962}, "viewport": {"northeast": {"lat": 26.0954785302915, "lng": 89.96523503029151}, "southwest": {"lat": 26.0927805697085, "lng": 89.9625370697085}}}, "icon": "https://maps.gstatic.com/mapfiles/place_api/icons/v1/png_71/school-71.png", "icon_background_color": "#7B9EB0", "icon_mask_base_uri": "https://maps.gstatic.com/mapfiles/place_api/icons/v2/school_pinlet", "name": "Adarsha Jatiya Vidyalaya", "opening_hours": {"open_now": true}, "photos": [{"height": 1080, "html_attributions": ["<a href=\"https://maps.google.com/maps/contrib/117287481453177360760\">Rajib Bhuyan</a>"], "photo_reference": "Aap_uEC4OgYDGrSne1NRXaC1hXnwbi4BwbaRBMSaFQ4OIlmEG3VqhuTOJoe5FgpbcnSRD69Mj_7oFc8I27o1C9danXeeS12uj22acxhU0WGTMJw849hpRZHOKEB6CRtkGuxqvHuKj7QpdvQutFivXX5wNcRwRvMqnmMjFniquJvE40qyxT1m", "width": 1920}], "place_id": "ChIJ_83z3VWe4jkR3pUSKOsV0Pg", "plus_code": {"compound_code": "3XV7+JH Gauripur, Assam, India", "global_code": "7MRF3XV7+JH"}, "rating": 3.5, "reference": "ChIJ_83z3VWe4jkR3pUSKOsV0Pg", "scope": "GOOGLE", "types": ["school", "point_of_interest", "establishment"], "user_ratings_total": 4, "vicinity": "Unnamed Road, Gauripur"}, {"business_status": "CLOSED_TEMPORARILY", "geometry": {"location": {"lat": 26.0951728, "lng": 89.97183179999999}, "viewport": {"northeast": {"lat": 26.0965290302915, "lng": 89.9730536802915}, "southwest": {"lat": 26.09383106970849, "lng": 89.9703557197085}}}, "icon": "https://maps.gstatic.com/mapfiles/place_api/icons/v1/png_71/school-71.png", "icon_background_color": "#7B9EB0", "icon_mask_base_uri": "https://maps.gstatic.com/mapfiles/place_api/icons/v2/school_pinlet", "name": "Lokopriya Gopinath Bordoloi LP School", "permanently_closed": true, "photos": [{"height": 3000, "html_attributions": ["<a href=\"https://maps.google.com/maps/contrib/110315769163121388406\">ABHILASH GHOSH</a>"], "photo_reference": "Aap_uEC_D2LM6iJtzFBAM5rFLETpUVUfUXofGME2FF3Gkzrg--uJjb2b42I4omF6LZwrltEg5N09nT24LH2sS7LfqE4VmsEN00no2w9Y6p1IJOZstFhL54FQZv4Xb7Bft_SUc10bbStTN4qhrI9xk7Y3KxCpck3T6DI11A7JVQdgDbbDserm", "width": 4000}], "place_id": "ChIJPaH6_FGe4jkR7RaaLNobp5A", "rating": 4.3, "reference": "ChIJPaH6_FGe4jkR7RaaLNobp5A", "scope": "GOOGLE", "types": ["school", "point_of_interest", "establishment"], "user_ratings_total": 4, "vicinity": "3XWC+3P8, Gauripur"}, {"business_status": "CLOSED_TEMPORARILY", "geometry": {"location": {"lat": 26.092151, "lng": 89.9648792}, "viewport": {"northeast": {"lat": 26.0933869802915, "lng": 89.96621088029151}, "southwest": {"lat": 26.0906890197085, "lng": 89.9635129197085}}}, "icon": "https://maps.gstatic.com/mapfiles/place_api/icons/v1/png_71/school-71.png", "icon_background_color": "#7B9EB0", "icon_mask_base_uri": "https://maps.gstatic.com/mapfiles/place_api/icons/v2/school_pinlet", "name": "Gauripur Uchcha Madhyamik Bidyalaya", "permanently_closed": true, "photos": [{"height": 3120, "html_attributions": ["<a href=\"https://maps.google.com/maps/contrib/117918387033291131869\">Aniket Roy</a>"], "photo_reference": "Aap_uEDjWUMEwpFwqagBA6mW7WagauBL1AX97ZvFEg8DJAhzIOaPUSY9ouGntRH8G8qDyhaW_hr-f4lsWLch8MuQ5xv19lC9nzK_MRgI89EbPuRAJXo23UzssC_JdSjH272GVMK4jvTVYo0qmX8CMpTLI14RzHIOKJLS9IzaGNwxJQ6GhQdt", "width": 4160}], "place_id": "ChIJZzL5rFWe4jkR-k9elMN4Okg", "rating": 4.5, "reference": "ChIJZzL5rFWe4jkR-k9elMN4Okg", "scope": "GOOGLE", "types": ["school", "point_of_interest", "establishment"], "user_ratings_total": 8, "vicinity": "3XR7+VX6, Gauripur"}, {"business_status": "OPERATIONAL", "geometry": {"location": {"lat": 26.0925833, "lng": 89.9602185}, "viewport": {"northeast": {"lat": 26.0940824302915, "lng": 89.9614979802915}, "southwest": {"lat": 26.0913844697085, "lng": 89.95880001970849}}}, "icon": "https://maps.gstatic.com/mapfiles/place_api/icons/v1/png_71/school-71.png", "icon_background_color": "#7B9EB0", "icon_mask_base_uri": "https://maps.gstatic.com/mapfiles/place_api/icons/v2/school_pinlet", "name": "No.1621 Laukhowa Prathamik Vidyalaya", "place_id": "ChIJMTYMvkmf4jkRqJPy5H4GqAg", "reference": "ChIJMTYMvkmf4jkRqJPy5H4GqAg", "scope": "GOOGLE", "types": ["school", "point_of_interest", "establishment"], "vicinity": "3XV6+23P, Gauripur"}, {"business_status": "OPERATIONAL", "geometry": {"location": {"lat": 26.1067773, "lng": 89.9739567}, "viewport": {"northeast": {"lat": 26.1081143302915, "lng": 89.97534158029151}, "southwest": {"lat": 26.1054163697085, "lng": 89.9726436197085}}}, "icon": "https://maps.gstatic.com/mapfiles/place_api/icons/v1/png_71/school-71.png", "icon_background_color": "#7B9EB0", "icon_mask_base_uri": "https://maps.gstatic.com/mapfiles/place_api/icons/v2/school_pinlet", "name": "2265 no. Sajuarkuti LP school", "photos": [{"height": 493, "html_attributions": ["<a href=\"https://maps.google.com/maps/contrib/109747937122074528442\">Voice melody</a>"], "photo_reference": "Aap_uEBL8IW5gv2dEKtgiHGZ6KJIy79VVIHSMYa8xDbn-SD2g9Zr8UfuJkY-iUW4ltVUTU4iV2uK5q3_RYhxceXvz_zih8hnd9hcOFtDc3zBECqil0gtYqQqWBlwGG7oB83cQwPXfKFVuBMKbP5nyVXEvS7-zeMZ-Q75QjaOGs2Jv4GvSviJ", "width": 1040}], "place_id": "ChIJP5XsiNyf4jkR2IefV8zQktY", "plus_code": {"compound_code": "4X4F+PH Sajuarkuti, Assam, India", "global_code": "7MRF4X4F+PH"}, "reference": "ChIJP5XsiNyf4jkR2IefV8zQktY", "scope": "GOOGLE", "types": ["school", "point_of_interest", "establishment"], "vicinity": "Unnamed Road, Sajuarkuti"}, {"business_status": "OPERATIONAL", "geometry": {"location": {"lat": 26.0918052, "lng": 89.9639923}, "viewport": {"northeast": {"lat": 26.0932642302915, "lng": 89.9653579802915}, "southwest": {"lat": 26.0905662697085, "lng": 89.9626600197085}}}, "icon": "https://maps.gstatic.com/mapfiles/place_api/icons/v1/png_71/school-71.png", "icon_background_color": "#7B9EB0", "icon_mask_base_uri": "https://maps.gstatic.com/mapfiles/place_api/icons/v2/school_pinlet", "name": "Oxbridge Academy", "opening_hours": {"open_now": true}, "photos": [{"height": 1920, "html_attributions": ["<a href=\"https://maps.google.com/maps/contrib/111787059543547035985\">Satyajyoti Roy</a>"], "photo_reference": "Aap_uECGWVEbTNkc3QupARumX_jYXpUgDJTXWzW7YUA1ZDZEFr3P6yZrwH_rxpi_NVQW6pJ3uMDU-o9qVArbPCv0DLYF3f5S50-j2TAaalPAW0GIttZkvWXIySxSclO-8p83yuGV8NY7OdpDgEIkxP7S-0k1yKmh2uSgDKljBcgAgoiq5Z6l", "width": 1080}], "place_id": "ChIJ-4YxJiyf4jkRRrxUhXDmI5U", "rating": 5, "reference": "ChIJ-4YxJiyf4jkRRrxUhXDmI5U", "scope": "GOOGLE", "types": ["school", "point_of_interest", "establishment"], "user_ratings_total": 1, "vicinity": "3XR7+PHH, Gauripur"}, {"business_status": "OPERATIONAL", "geometry": {"location": {"lat": 26.0922852, "lng": 89.96028179999999}, "viewport": {"northeast": {"lat": 26.09347008029151, "lng": 89.9616398302915}, "southwest": {"lat": 26.0907721197085, "lng": 89.9589418697085}}}, "icon": "https://maps.gstatic.com/mapfiles/place_api/icons/v1/png_71/school-71.png", "icon_background_color": "#7B9EB0", "icon_mask_base_uri": "https://maps.gstatic.com/mapfiles/place_api/icons/v2/school_pinlet", "name": "Sankardev M.E. School", "place_id": "ChIJ39hA_f6e4jkRsCmUuqCaow8", "plus_code": {"compound_code": "3XR6+W4 Gauripur, Assam, India", "global_code": "7MRF3XR6+W4"}, "rating": 4, "reference": "ChIJ39hA_f6e4jkRsCmUuqCaow8", "scope": "GOOGLE", "types": ["school", "point_of_interest", "establishment"], "user_ratings_total": 1, "vicinity": "Gauripur"}, {"business_status": "OPERATIONAL", "geometry": {"location": {"lat": 26.0916341, "lng": 89.9655224}, "viewport": {"northeast": {"lat": 26.0929730302915, "lng": 89.9667844302915}, "southwest": {"lat": 26.0902750697085, "lng": 89.96408646970849}}}, "icon": "https://maps.gstatic.com/mapfiles/place_api/icons/v1/png_71/school-71.png", "icon_background_color": "#7B9EB0", "icon_mask_base_uri": "https://maps.gstatic.com/mapfiles/place_api/icons/v2/school_pinlet", "name": "Suaibking", "opening_hours": {"open_now": false}, "photos": [{"height": 1373, "html_attributions": ["<a href=\"https://maps.google.com/maps/contrib/111948253877158936605\">Shoaib King</a>"], "photo_reference": "Aap_uEAsPfSUEPhRhpKGSG7uaxMBldq1vI19a2Ebbhw598BdEjg2CO9RQBw9vm2-035MvN2arKzMWDdZWkzdvAwhi3KihSjNd-0IG4qsMFyR2XzNwMgLREQGFmaPvrjJw4iYqjYavv5Edk1JMTsgMeiSlqPTBAlTYSiY8CNJXkMGp71wbUgo", "width": 1080}], "place_id": "ChIJ12HntG-f4jkRJdvumIhA7kE", "reference": "ChIJ12HntG-f4jkRJdvumIhA7kE", "scope": "GOOGLE", "types": ["school", "point_of_interest", "establishment"], "vicinity": "3XR8+M62, Gauripur"}, {"business_status": "OPERATIONAL", "geometry": {"location": {"lat": 26.0916341, "lng": 89.9655224}, "viewport": {"northeast": {"lat": 26.0929730302915, "lng": 89.9667844302915}, "southwest": {"lat": 26.0902750697085, "lng": 89.96408646970849}}}, "icon": "https://maps.gstatic.com/mapfiles/place_api/icons/v1/png_71/school-71.png", "icon_background_color": "#7B9EB0", "icon_mask_base_uri": "https://maps.gstatic.com/mapfiles/place_api/icons/v2/school_pinlet", "name": "Concept Academy, Gauripur", "place_id": "ChIJBfHZPBOf4jkRHVDPpxPoOfk", "plus_code": {"compound_code": "3XR8+M6 Gauripur, Assam, India", "global_code": "7MRF3XR8+M6"}, "rating": 5, "reference": "ChIJBfHZPBOf4jkRHVDPpxPoOfk", "scope": "GOOGLE", "types": ["school", "point_of_interest", "establishment"], "user_ratings_total": 2, "vicinity": "Gauripur Ward no 3, College Road"}, {"business_status": "OPERATIONAL", "geometry": {"location": {"lat": 26.0916341, "lng": 89.9655224}, "viewport": {"northeast": {"lat": 26.0929730302915, "lng": 89.9667844302915}, "southwest": {"lat": 26.0902750697085, "lng": 89.96408646970849}}}, "icon": "https://maps.gstatic.com/mapfiles/place_api/icons/v1/png_71/school-71.png", "icon_background_color": "#7B9EB0", "icon_mask_base_uri": "https://maps.gstatic.com/mapfiles/place_api/icons/v2/school_pinlet", "name": "Private College", "place_id": "ChIJqe67h7-f4jkR9H_1Ps5ZwBk", "reference": "ChIJqe67h7-f4jkR9H_1Ps5ZwBk", "scope": "GOOGLE", "types": ["school", "point_of_interest", "establishment"], "vicinity": "3XR8+M62, Gauripur"}], "status": "OK"}