{"html_attributions": [], "results": [{"business_status": "OPERATIONAL", "geometry": {"location": {"lat": 26.140295, "lng": 89.95909499999999}, "viewport": {"northeast": {"lat": 26.1417002802915, "lng": 89.96047218029149}, "southwest": {"lat": 26.1390023197085, "lng": 89.95777421970848}}}, "icon": "https://maps.gstatic.com/mapfiles/place_api/icons/v1/png_71/school-71.png", "icon_background_color": "#7B9EB0", "icon_mask_base_uri": "https://maps.gstatic.com/mapfiles/place_api/icons/v2/school_pinlet", "name": "Catholic Mission School", "photos": [{"height": 960, "html_attributions": ["<a href=\"https://maps.google.com/maps/contrib/114381929828173290914\">Ganga Sangma</a>"], "photo_reference": "Aap_uEBR4lB9PcK_ut8CWqRJ7Uis_Njbr9t7cfER4e_8EeVAkVUKS6GckYBJfSe3zwOcTzhDMvHtqDOLD-Sa1NVKyQ_Gsy9gNoDw58Iwf_uIWhDRwEB4KRxpVFwxGEyvfj7jSdmyQic0_iBHxAPfu-EN6DspTViRIVm9k10JmOFJBpQ7ZnuI", "width": 1280}], "place_id": "ChIJYUbB6eyd4jkRIweQZorN53I", "plus_code": {"compound_code": "4XR5+4J Bannyaguri Pt.II, Assam, India", "global_code": "7MRF4XR5+4J"}, "reference": "ChIJYUbB6eyd4jkRIweQZorN53I", "scope": "GOOGLE", "types": ["school", "point_of_interest", "establishment"], "vicinity": "Bannyaguri Pt.II"}, {"business_status": "OPERATIONAL", "geometry": {"location": {"lat": 26.140168, "lng": 89.95887739999999}, "viewport": {"northeast": {"lat": 26.1416641302915, "lng": 89.96029048029149}, "southwest": {"lat": 26.1389661697085, "lng": 89.95759251970848}}}, "icon": "https://maps.gstatic.com/mapfiles/place_api/icons/v1/png_71/school-71.png", "icon_background_color": "#7B9EB0", "icon_mask_base_uri": "https://maps.gstatic.com/mapfiles/place_api/icons/v2/school_pinlet", "name": "Bethel English Mission School", "place_id": "ChIJ3VjAwHud4jkRY-fZF1br2tA", "reference": "ChIJ3VjAwHud4jkRY-fZF1br2tA", "scope": "GOOGLE", "types": ["school", "point_of_interest", "establishment"], "vicinity": "4XR5+3H6, Bannyaguri Pt.II"}, {"business_status": "OPERATIONAL", "geometry": {"location": {"lat": 26.1402029, "lng": 89.9587698}, "viewport": {"northeast": {"lat": 26.14170028029151, "lng": 89.96018343029151}, "southwest": {"lat": 26.1390023197085, "lng": 89.9574854697085}}}, "icon": "https://maps.gstatic.com/mapfiles/place_api/icons/v1/png_71/school-71.png", "icon_background_color": "#7B9EB0", "icon_mask_base_uri": "https://maps.gstatic.com/mapfiles/place_api/icons/v2/school_pinlet", "name": "Bethel English Mission School ,Chaporigaon Ptii", "place_id": "ChIJk9CFepud4jkRFB4qU5-2YP8", "plus_code": {"compound_code": "4XR5+3G Bannyaguri Pt.II, Assam, India", "global_code": "7MRF4XR5+3G"}, "reference": "ChIJk9CFepud4jkRFB4qU5-2YP8", "scope": "GOOGLE", "types": ["school", "point_of_interest", "establishment"], "vicinity": "Bannyaguri Pt.II"}, {"business_status": "OPERATIONAL", "geometry": {"location": {"lat": 26.1512403, "lng": 89.9685987}, "viewport": {"northeast": {"lat": 26.1525202802915, "lng": 89.9699206302915}, "southwest": {"lat": 26.14982231970849, "lng": 89.96722266970849}}}, "icon": "https://maps.gstatic.com/mapfiles/place_api/icons/v1/png_71/school-71.png", "icon_background_color": "#7B9EB0", "icon_mask_base_uri": "https://maps.gstatic.com/mapfiles/place_api/icons/v2/school_pinlet", "name": "Modati M.E. School", "place_id": "ChIJfclyZSGd4jkR_3ouCA9Nq6A", "reference": "ChIJfclyZSGd4jkR_3ouCA9Nq6A", "scope": "GOOGLE", "types": ["school", "point_of_interest", "establishment"], "vicinity": "5X29+FCX, Madati Phar Basti Pt.IV"}], "status": "OK"}