{"html_attributions": [], "results": [{"business_status": "OPERATIONAL", "geometry": {"location": {"lat": 26.1816392, "lng": 89.963927}, "viewport": {"northeast": {"lat": 26.1827606302915, "lng": 89.9657306802915}, "southwest": {"lat": 26.1800626697085, "lng": 89.9630327197085}}}, "icon": "https://maps.gstatic.com/mapfiles/place_api/icons/v1/png_71/school-71.png", "icon_background_color": "#7B9EB0", "icon_mask_base_uri": "https://maps.gstatic.com/mapfiles/place_api/icons/v2/school_pinlet", "name": "Khopati LP School", "place_id": "ChIJb3LxIM-d4jkRa_kfSYnnHcY", "plus_code": {"compound_code": "5XJ7+MH Kutkujhora, Assam, India", "global_code": "7MRF5XJ7+MH"}, "reference": "ChIJb3LxIM-d4jkRa_kfSYnnHcY", "scope": "GOOGLE", "types": ["school", "point_of_interest", "establishment"], "vicinity": "Suparighat-Basbari Road, Kutkujhora"}, {"business_status": "OPERATIONAL", "geometry": {"location": {"lat": 26.1865436, "lng": 89.96925379999999}, "viewport": {"northeast": {"lat": 26.1880171302915, "lng": 89.9703895802915}, "southwest": {"lat": 26.1853191697085, "lng": 89.96769161970849}}}, "icon": "https://maps.gstatic.com/mapfiles/place_api/icons/v1/png_71/school-71.png", "icon_background_color": "#7B9EB0", "icon_mask_base_uri": "https://maps.gstatic.com/mapfiles/place_api/icons/v2/school_pinlet", "name": "Khopati High School Barshijhora", "photos": [{"height": 2448, "html_attributions": ["<a href=\"https://maps.google.com/maps/contrib/105998236580040430317\">Khairul Islam</a>"], "photo_reference": "Aap_uECX0dnTdQr-B475w2XpZQ2dSK25SLmGlwZNNZYfYjLTIAontZ2r2AacxdS1B9pSLIgYHdDrxRGeIoy8ZejypgK8HOzoWavzMC2PIPbTdfhwfGbKj76ixf-aNDcR79BPrXnlglge146I_3QGUIg7ibhE7edUIIbnjI91U5W0H40bP2nr", "width": 3264}], "place_id": "ChIJRw2B-wad4jkRXB4Re1v15XA", "rating": 1, "reference": "ChIJRw2B-wad4jkRXB4Re1v15XA", "scope": "GOOGLE", "types": ["school", "point_of_interest", "establishment"], "user_ratings_total": 1, "vicinity": "5XP9+JP6, Barshijhora Pt.III"}, {"business_status": "OPERATIONAL", "geometry": {"location": {"lat": 26.1865406, "lng": 89.96927160000001}, "viewport": {"northeast": {"lat": 26.1880182302915, "lng": 89.97040038029151}, "southwest": {"lat": 26.1853202697085, "lng": 89.9677024197085}}}, "icon": "https://maps.gstatic.com/mapfiles/place_api/icons/v1/png_71/school-71.png", "icon_background_color": "#7B9EB0", "icon_mask_base_uri": "https://maps.gstatic.com/mapfiles/place_api/icons/v2/school_pinlet", "name": "Khopati High School ,barshijhora,Khopati.", "place_id": "ChIJjVCG-wad4jkRf6PTSvoysXc", "reference": "ChIJjVCG-wad4jkRf6PTSvoysXc", "scope": "GOOGLE", "types": ["school", "point_of_interest", "establishment"], "vicinity": "5XP9+JP6, Barshijhora Pt.III"}, {"business_status": "OPERATIONAL", "geometry": {"location": {"lat": 26.1711457, "lng": 89.9605866}, "viewport": {"northeast": {"lat": 26.1720697302915, "lng": 89.96292824999999}, "southwest": {"lat": 26.16937176970849, "lng": 89.95980605}}}, "icon": "https://maps.gstatic.com/mapfiles/place_api/icons/v1/png_71/school-71.png", "icon_background_color": "#7B9EB0", "icon_mask_base_uri": "https://maps.gstatic.com/mapfiles/place_api/icons/v2/school_pinlet", "name": "2371 No. Mantapara L. P. School", "opening_hours": {"open_now": true}, "photos": [{"height": 1882, "html_attributions": ["<a href=\"https://maps.google.com/maps/contrib/111333476271059536367\">2371 No. Mantapara L. P. School</a>"], "photo_reference": "Aap_uECckPl4_1CIraHHMwfnAoW1KLi5PJTppTLroxrj7-7kIiLLFHQzW5j2X-9Q_S2PCTtXaOvVyLsSBF0kSMLvBP8gpHmYNeg_EvsMuxiZji03w4IrBtnY9n-_YBMomNDdBOgiYosa5cJrrYYxr7ZBCUrdIbMnIMDD6y_qynPbgDN3xKmS", "width": 3346}], "place_id": "ChIJ-RuyFcud4jkRlGfU7Tgkv0Y", "plus_code": {"compound_code": "5XC6+F6 Gauripur, Assam, India", "global_code": "7MRF5XC6+F6"}, "rating": 4, "reference": "ChIJ-RuyFcud4jkRlGfU7Tgkv0Y", "scope": "GOOGLE", "types": ["school", "point_of_interest", "establishment"], "user_ratings_total": 5, "vicinity": "Mantapara, Pahar Basti Pt II, Gauripur"}], "status": "OK"}