{"html_attributions": [], "results": [{"business_status": "OPERATIONAL", "geometry": {"location": {"lat": 26.3898764, "lng": 89.9666974}, "viewport": {"northeast": {"lat": 26.3912639302915, "lng": 89.9679148802915}, "southwest": {"lat": 26.38856596970849, "lng": 89.9652169197085}}}, "icon": "https://maps.gstatic.com/mapfiles/place_api/icons/v1/png_71/school-71.png", "icon_background_color": "#7B9EB0", "icon_mask_base_uri": "https://maps.gstatic.com/mapfiles/place_api/icons/v2/school_pinlet", "name": "No. 442, Satyapur L. P. School", "photos": [{"height": 360, "html_attributions": ["<a href=\"https://maps.google.com/maps/contrib/111654319180403391420\">Manjhi Soren Dada</a>"], "photo_reference": "Aap_uECzfP9l5PbxDBcWAj2VwSSnJlHi5zVz6NJsZ7_UVbXhe_lIbrZscsacKTMZiGqaqb2xYUgNzc9haQFErT_6gc5thKwCBO45s94HWUUPqX793oz_tC3zLXf5xZJ-6FJ4HMEJjj2Ca8gt_sKr56nNW8oAhJTcucihiGVCB2Jte3bi5L6r", "width": 480}], "place_id": "ChIJBzK1sl6A4jkR-ssDoavl68Y", "plus_code": {"compound_code": "9XQ8+XM Gossaigaon, Assam, India", "global_code": "7MRF9XQ8+XM"}, "rating": 5, "reference": "ChIJBzK1sl6A4jkR-ssDoavl68Y", "scope": "GOOGLE", "types": ["school", "point_of_interest", "establishment"], "user_ratings_total": 1, "vicinity": "vill PO, Satyapur, PS, sub-division, Dist, BTAD, 783360, Gossaigaon"}, {"business_status": "OPERATIONAL", "geometry": {"location": {"lat": 26.3914786, "lng": 89.9659121}, "viewport": {"northeast": {"lat": 26.39280598029151, "lng": 89.9675928802915}, "southwest": {"lat": 26.3901080197085, "lng": 89.9648949197085}}}, "icon": "https://maps.gstatic.com/mapfiles/place_api/icons/v1/png_71/school-71.png", "icon_background_color": "#7B9EB0", "icon_mask_base_uri": "https://maps.gstatic.com/mapfiles/place_api/icons/v2/school_pinlet", "name": "Satyapur moonlight Club", "place_id": "ChIJn8U6V1OB4jkRNR4OvPGnUxI", "plus_code": {"compound_code": "9XR8+H9 Machangdoba F.V., Assam, India", "global_code": "7MRF9XR8+H9"}, "reference": "ChIJn8U6V1OB4jkRNR4OvPGnUxI", "scope": "GOOGLE", "types": ["school", "point_of_interest", "establishment"], "vicinity": "Assam 783360 \u0985\u09b8\u09b8\u09ae"}, {"business_status": "OPERATIONAL", "geometry": {"location": {"lat": 26.3915129, "lng": 89.9659088}, "viewport": {"northeast": {"lat": 26.3928400802915, "lng": 89.9675926302915}, "southwest": {"lat": 26.39014211970849, "lng": 89.9648946697085}}}, "icon": "https://maps.gstatic.com/mapfiles/place_api/icons/v1/png_71/school-71.png", "icon_background_color": "#7B9EB0", "icon_mask_base_uri": "https://maps.gstatic.com/mapfiles/place_api/icons/v2/school_pinlet", "name": "SATYAPUR M .L.C", "place_id": "ChIJM3-uyzGB4jkRx20HZ5y2WB8", "plus_code": {"compound_code": "9XR8+J9 Machangdoba F.V., Assam, India", "global_code": "7MRF9XR8+J9"}, "rating": 5, "reference": "ChIJM3-uyzGB4jkRx20HZ5y2WB8", "scope": "GOOGLE", "types": ["school", "point_of_interest", "establishment"], "user_ratings_total": 1, "vicinity": "\u09b8\u09a4\u09cd\u09af\u09aa\u09c1\u09f0 \u09ae \u09b2 \u099a\u09bf"}, {"business_status": "OPERATIONAL", "geometry": {"location": {"lat": 26.3915333, "lng": 89.96594060000001}, "viewport": {"northeast": {"lat": 26.3928614802915, "lng": 89.9676094302915}, "southwest": {"lat": 26.39016351970849, "lng": 89.9649114697085}}}, "icon": "https://maps.gstatic.com/mapfiles/place_api/icons/v1/png_71/school-71.png", "icon_background_color": "#7B9EB0", "icon_mask_base_uri": "https://maps.gstatic.com/mapfiles/place_api/icons/v2/school_pinlet", "name": "\u09b8\u09a4\u09cd\u09af\u09aa\u09c1\u09f0", "place_id": "ChIJx2lflC-B4jkRserkSBoHLtc", "reference": "ChIJx2lflC-B4jkRserkSBoHLtc", "scope": "GOOGLE", "types": ["school", "point_of_interest", "establishment"], "vicinity": "9XR8+J98, Satyapur F.V."}], "status": "OK"}