{"html_attributions": [], "results": [{"business_status": "OPERATIONAL", "geometry": {"location": {"lat": 25.8619965, "lng": 89.9853377}, "viewport": {"northeast": {"lat": 25.8632364802915, "lng": 89.9867086802915}, "southwest": {"lat": 25.8605385197085, "lng": 89.9840107197085}}}, "icon": "https://maps.gstatic.com/mapfiles/place_api/icons/v1/png_71/school-71.png", "icon_background_color": "#7B9EB0", "icon_mask_base_uri": "https://maps.gstatic.com/mapfiles/place_api/icons/v2/school_pinlet", "name": "Tumni KK Senior Madrassa, Tumni", "place_id": "ChIJl1lJbuan4jkR93jTP6VCL0k", "reference": "ChIJl1lJbuan4jkR93jTP6VCL0k", "scope": "GOOGLE", "types": ["school", "point_of_interest", "establishment"], "vicinity": "VX6P+Q4W, Rajabala Tersertari"}, {"business_status": "OPERATIONAL", "geometry": {"location": {"lat": 25.8588607, "lng": 89.99233}, "viewport": {"northeast": {"lat": 25.8600540302915, "lng": 89.99362858029151}, "southwest": {"lat": 25.85735606970849, "lng": 89.9909306197085}}}, "icon": "https://maps.gstatic.com/mapfiles/place_api/icons/v1/png_71/school-71.png", "icon_background_color": "#7B9EB0", "icon_mask_base_uri": "https://maps.gstatic.com/mapfiles/place_api/icons/v2/school_pinlet", "name": "Masallabari MEM", "photos": [{"height": 1080, "html_attributions": ["<a href=\"https://maps.google.com/maps/contrib/110703368213481315898\">Bajlur Rohman Ahmed</a>"], "photo_reference": "Aap_uEChJeQwcja2wq4xOWSXQrMnSKY_5Y9DysNDPbVAf11pbLYcl5MnHVGTmiSGlSc14jmALVxksz9vNQNWfda_Ac_a3qImS2-bY24jrvcQybCu5gw5jvSKHOmjaxeb6Sb0N2lG7XqfcLn4vTFhRtf6ONYCUwvRPR6DbR1s1AKxh0ZKBNmI", "width": 1920}], "place_id": "ChIJdSkAjIOn4jkRMnN0-IpLXkQ", "plus_code": {"compound_code": "VX5R+GW Rajabala Tersertari, Assam, India", "global_code": "7MQFVX5R+GW"}, "reference": "ChIJdSkAjIOn4jkRMnN0-IpLXkQ", "scope": "GOOGLE", "types": ["school", "point_of_interest", "establishment"], "vicinity": "Vill-Sundarpara Part III Dist, Airkata"}, {"business_status": "CLOSED_TEMPORARILY", "geometry": {"location": {"lat": 25.8561467, "lng": 89.9771265}, "viewport": {"northeast": {"lat": 25.8574580802915, "lng": 89.9785143302915}, "southwest": {"lat": 25.8547601197085, "lng": 89.9758163697085}}}, "icon": "https://maps.gstatic.com/mapfiles/place_api/icons/v1/png_71/school-71.png", "icon_background_color": "#7B9EB0", "icon_mask_base_uri": "https://maps.gstatic.com/mapfiles/place_api/icons/v2/school_pinlet", "name": "383 No Boidergaon LP School", "permanently_closed": true, "place_id": "ChIJDXkfz96n4jkRQOqHNVWuPf0", "rating": 3.3, "reference": "ChIJDXkfz96n4jkRQOqHNVWuPf0", "scope": "GOOGLE", "types": ["school", "point_of_interest", "establishment"], "user_ratings_total": 3, "vicinity": "VX4G+FV2, Monirchar Boidergaon"}, {"business_status": "OPERATIONAL", "geometry": {"location": {"lat": 25.8592845, "lng": 89.9934265}, "viewport": {"northeast": {"lat": 25.8607002302915, "lng": 89.9947922802915}, "southwest": {"lat": 25.8580022697085, "lng": 89.99209431970849}}}, "icon": "https://maps.gstatic.com/mapfiles/place_api/icons/v1/png_71/school-71.png", "icon_background_color": "#7B9EB0", "icon_mask_base_uri": "https://maps.gstatic.com/mapfiles/place_api/icons/v2/school_pinlet", "name": "J.K. High School", "place_id": "ChIJm13koVmn4jkRgzGkXY5dAr8", "reference": "ChIJm13koVmn4jkRgzGkXY5dAr8", "scope": "GOOGLE", "types": ["school", "point_of_interest", "establishment"], "vicinity": "VX5V+P97, Sundar Para, Tumni Simlakandi"}, {"business_status": "OPERATIONAL", "geometry": {"location": {"lat": 25.8588929, "lng": 89.99364519999999}, "viewport": {"northeast": {"lat": 25.86047368029151, "lng": 89.99505258029149}, "southwest": {"lat": 25.8577757197085, "lng": 89.99235461970848}}}, "icon": "https://maps.gstatic.com/mapfiles/place_api/icons/v1/png_71/school-71.png", "icon_background_color": "#7B9EB0", "icon_mask_base_uri": "https://maps.gstatic.com/mapfiles/place_api/icons/v2/school_pinlet", "name": "Sundarpara Field", "photos": [{"height": 1920, "html_attributions": ["<a href=\"https://maps.google.com/maps/contrib/104948496460792601797\">KNOW UNKNOWN</a>"], "photo_reference": "Aap_uEC_5KWX8oLDvNzzKm2NXw-hd7L4Cdc2dZNGYxCldfLbT9Cc3XZZeaAgno8NIw9kX8twaxdQCx_tW_j4ffBcr79bkv94TfU4_WBsOwdymJM3rSn-ikCLQ-kvY1S0IxhvKoPpEPQZ2si9Wf3xd57PBQJ64GQMBXwh-3FBTN3GVJecPI0c", "width": 4160}], "place_id": "ChIJG8YWkPun4jkR3SvzVqS9Wqc", "rating": 5, "reference": "ChIJG8YWkPun4jkR3SvzVqS9Wqc", "scope": "GOOGLE", "types": ["school", "point_of_interest", "establishment"], "user_ratings_total": 2, "vicinity": "VX5V+HF2, Sundar Para, Tumni Simlakandi"}, {"business_status": "CLOSED_TEMPORARILY", "geometry": {"location": {"lat": 25.8595699, "lng": 89.9941711}, "viewport": {"northeast": {"lat": 25.8607776802915, "lng": 89.99548453029149}, "southwest": {"lat": 25.8580797197085, "lng": 89.99278656970849}}}, "icon": "https://maps.gstatic.com/mapfiles/place_api/icons/v1/png_71/school-71.png", "icon_background_color": "#7B9EB0", "icon_mask_base_uri": "https://maps.gstatic.com/mapfiles/place_api/icons/v2/school_pinlet", "name": "767 No Masallabari LP School", "permanently_closed": true, "photos": [{"height": 1080, "html_attributions": ["<a href=\"https://maps.google.com/maps/contrib/110703368213481315898\">Bajlur Rohman Ahmed</a>"], "photo_reference": "Aap_uED27F1XKrnRLexjXwpbDeRfRYDIjxTf6LK4lkCIZ3uYEQetFuGRLKDEJKvH5hqLceyUQJPO2wwxhywlW-56p-_fx5-AlEBudT7vjjq5nn-eNdR5eiItD3pgTWFX9NFgjTugQNKrbYsysAYFMWbIe2S23Av-3djYouoa-esWv_gzVj1W", "width": 1920}], "place_id": "ChIJvX7hLv2n4jkR7yMwcN_sLbg", "plus_code": {"compound_code": "VX5V+RM Sundar Para, Tumni Simlakandi, Assam, India", "global_code": "7MQFVX5V+RM"}, "reference": "ChIJvX7hLv2n4jkR7yMwcN_sLbg", "scope": "GOOGLE", "types": ["school", "point_of_interest", "establishment"], "vicinity": "Pt IV, Sundar Para, Airkata"}, {"business_status": "OPERATIONAL", "geometry": {"location": {"lat": 25.8539847, "lng": 89.9778182}, "viewport": {"northeast": {"lat": 25.8555458302915, "lng": 89.97935073029151}, "southwest": {"lat": 25.8528478697085, "lng": 89.97665276970851}}}, "icon": "https://maps.gstatic.com/mapfiles/place_api/icons/v1/png_71/school-71.png", "icon_background_color": "#7B9EB0", "icon_mask_base_uri": "https://maps.gstatic.com/mapfiles/place_api/icons/v2/school_pinlet", "name": "Sh\u00e3h\u00e2j\u00e4m\u00e5l H\u00f4q\u00fc\u00ea", "place_id": "ChIJR5XEh_un4jkR3PvCeIl_k6E", "reference": "ChIJR5XEh_un4jkR3PvCeIl_k6E", "scope": "GOOGLE", "types": ["school", "point_of_interest", "establishment"], "vicinity": "VX3H+H4W, Monirchar"}, {"business_status": "OPERATIONAL", "geometry": {"location": {"lat": 25.8539847, "lng": 89.9778182}, "viewport": {"northeast": {"lat": 25.8555458302915, "lng": 89.97935073029151}, "southwest": {"lat": 25.8528478697085, "lng": 89.97665276970851}}}, "icon": "https://maps.gstatic.com/mapfiles/place_api/icons/v1/png_71/school-71.png", "icon_background_color": "#7B9EB0", "icon_mask_base_uri": "https://maps.gstatic.com/mapfiles/place_api/icons/v2/school_pinlet", "name": "Monir Char Das Para LP School", "place_id": "ChIJGXDj58an4jkRC10d2XBaZQY", "plus_code": {"compound_code": "VX3H+H4 Rajabala Tersertari, Assam, India", "global_code": "7MQFVX3H+H4"}, "reference": "ChIJGXDj58an4jkRC10d2XBaZQY", "scope": "GOOGLE", "types": ["school", "point_of_interest", "establishment"], "vicinity": "Daspara, Road, Rajabala Tersertari"}, {"business_status": "OPERATIONAL", "geometry": {"location": {"lat": 25.8518802, "lng": 89.9794176}, "viewport": {"northeast": {"lat": 25.8532520302915, "lng": 89.98074248029152}, "southwest": {"lat": 25.8505540697085, "lng": 89.97804451970852}}}, "icon": "https://maps.gstatic.com/mapfiles/place_api/icons/v1/png_71/school-71.png", "icon_background_color": "#7B9EB0", "icon_mask_base_uri": "https://maps.gstatic.com/mapfiles/place_api/icons/v2/school_pinlet", "name": "Patakata Nayapara Lp School", "photos": [{"height": 2160, "html_attributions": ["<a href=\"https://maps.google.com/maps/contrib/107223955936014212429\">Matin Bhuyan</a>"], "photo_reference": "Aap_uEA2KbkKJNjL9yNwfq6-pHofFjCDTj4GcUk_farwtxaqL2Qw1COiKQhhH-Q6bOdJKbbAmNxC4Lo6pvmVbS_PxRlkGMxJzEJT-mzW9WGhMAMmO8qowX_wBzNBfuAx2vP0OPCht0RYGDFTEhNvK4t-HKaTFn-g3lc3oA2sp4YYwrUBr94A", "width": 4560}], "place_id": "ChIJ_ZUZi9Kp4jkR7PgeekxkwCk", "plus_code": {"compound_code": "VX2H+QQ Rajabala Tersertari, Assam, India", "global_code": "7MQFVX2H+QQ"}, "reference": "ChIJ_ZUZi9Kp4jkR7PgeekxkwCk", "scope": "GOOGLE", "types": ["school", "point_of_interest", "establishment"], "vicinity": "Unnamed Road, Rajabala Tersertari"}], "status": "OK"}