{"html_attributions": [], "next_page_token": "Aap_uECPE9L_OAHgJssIgNDqJLDHlAy6fI_8NMrzIRBT0pJTP9b3Zg4J0oJBrtPPdHRG3yRpMWNrOcU5FWl0N38ZdhjEB2B7Y-nF5GZPq9ZU6DfCOzc23oSOQQPgimVHmWbT2y393IKFHW7jyQisZgqh6QVD3xvM7PPZWf8Kcw0DKM-yR8e50olIyzXO4_JPkcm9eHrl-Qd2Iv8bc7RiYV23ZrPd95zDTLP5_22itBCl-gPwuysiCs9YkzI2EZ2fDgygV0eeKB7D24By0jjOPA1rPJyZ5rTEMXAiacIM4tyeWoIdMQWSGcKvf6_dMyzsLihS1BBsZmiBVND2ogPLXEeLmCT7izSKa1tgz1cXwTdeGMBmnxALukzYLU0OGPnBgPdMrgM8pBznwWwDqYOu-n1rCU3znbUhX9lgFxhp9i_WibWkh55_H8aJSluvAUqFxhsLMNucB2hs9VD4qzNnnaFQPGYFNu3A6vU7pVS0mgn_Pqrdg5c5IXD0UQ1mb-Nq2grTRPO6njz3YJyPLPLY2UCaZURWhFXtat3zFZBRnlw1ddNfd_8jGAnw_X4hPi28_qEEY-S9_toODj_ked0dbcYcFa3zSEN_KrVvXyTZt1t3yD8ZymP79qS9ofccCO53N1OCwEDOVvmP", "results": [{"business_status": "OPERATIONAL", "geometry": {"location": {"lat": 26.0251142, "lng": 89.9817003}, "viewport": {"northeast": {"lat": 26.0263805302915, "lng": 89.98298188029152}, "southwest": {"lat": 26.0236825697085, "lng": 89.9802839197085}}}, "icon": "https://maps.gstatic.com/mapfiles/place_api/icons/v1/png_71/school-71.png", "icon_background_color": "#7B9EB0", "icon_mask_base_uri": "https://maps.gstatic.com/mapfiles/place_api/icons/v2/school_pinlet", "name": "DDU-GKY Dhubri Centre", "opening_hours": {"open_now": true}, "place_id": "ChIJZ56hGBag4jkRfTj194jLGTI", "plus_code": {"compound_code": "2XGJ+2M Dhubri, Assam, India", "global_code": "7MRF2XGJ+2M"}, "rating": 4.5, "reference": "ChIJZ56hGBag4jkRfTj194jLGTI", "scope": "GOOGLE", "types": ["school", "point_of_interest", "establishment"], "user_ratings_total": 2, "vicinity": "Above Samrat Hotel, GTB Road, Bidyapara, Dhubri"}, {"business_status": "OPERATIONAL", "geometry": {"location": {"lat": 26.0187548, "lng": 89.9860838}, "viewport": {"northeast": {"lat": 26.0201344302915, "lng": 89.9874404302915}, "southwest": {"lat": 26.01743646970849, "lng": 89.9847424697085}}}, "icon": "https://maps.gstatic.com/mapfiles/place_api/icons/v1/png_71/school-71.png", "icon_background_color": "#7B9EB0", "icon_mask_base_uri": "https://maps.gstatic.com/mapfiles/place_api/icons/v2/school_pinlet", "name": "Mahomodiya Pustakalay (Book Seller)", "place_id": "ChIJF50RMieh4jkRHRRNbPKBxn4", "plus_code": {"compound_code": "2X9P+GC Dhubri, Assam, India", "global_code": "7MRF2X9P+GC"}, "reference": "ChIJF50RMieh4jkRHRRNbPKBxn4", "scope": "GOOGLE", "types": ["school", "point_of_interest", "establishment"], "vicinity": "Netaji Subas Road, Boro Bazar, Dhubri"}, {"business_status": "OPERATIONAL", "geometry": {"location": {"lat": 26.0182286, "lng": 89.9848375}, "viewport": {"northeast": {"lat": 26.0195775802915, "lng": 89.9861864802915}, "southwest": {"lat": 26.01687961970849, "lng": 89.98348851970849}}}, "icon": "https://maps.gstatic.com/mapfiles/place_api/icons/v1/png_71/school-71.png", "icon_background_color": "#7B9EB0", "icon_mask_base_uri": "https://maps.gstatic.com/mapfiles/place_api/icons/v2/school_pinlet", "name": "Tiny steps, dhubri", "opening_hours": {"open_now": true}, "photos": [{"height": 1240, "html_attributions": ["<a href=\"https://maps.google.com/maps/contrib/112993656065804586634\">urmila harlalka</a>"], "photo_reference": "Aap_uEC9LdtmCR9PLqkNgu7USNTHzUniMhRC7WWneopO5iLSUN131LjTo-svspeLWZ-WOml5NUBZ7PPSHR9p-dWpKpQSPzNim01CFD-NbOp4ecdX-XEMIaLCyxEUGoPujZb56d4pdnt8IN04eN_oaQQElJrULFKlhqM21DYGP9zwMTxoOk3F", "width": 1747}], "place_id": "ChIJe_5Gij2h4jkRO68QKc_CoQc", "plus_code": {"compound_code": "2X9M+7W Dhubri, Assam, India", "global_code": "7MRF2X9M+7W"}, "reference": "ChIJe_5Gij2h4jkRO68QKc_CoQc", "scope": "GOOGLE", "types": ["school", "point_of_interest", "establishment"], "vicinity": "near SBI ATM, GTB Rd, opposite FIRE STATION, near SBI ATM, Bidyapara, Dhubri"}, {"business_status": "CLOSED_TEMPORARILY", "geometry": {"location": {"lat": 26.0192221, "lng": 89.98717529999999}, "viewport": {"northeast": {"lat": 26.0205731302915, "lng": 89.9885199802915}, "southwest": {"lat": 26.0178751697085, "lng": 89.9858220197085}}}, "icon": "https://maps.gstatic.com/mapfiles/place_api/icons/v1/png_71/school-71.png", "icon_background_color": "#7B9EB0", "icon_mask_base_uri": "https://maps.gstatic.com/mapfiles/place_api/icons/v2/school_pinlet", "name": "Bahadurtari LP School", "permanently_closed": true, "place_id": "ChIJq6qqahOg4jkRd67cV7Df9vQ", "plus_code": {"compound_code": "2X9P+MV Dhubri, Assam, India", "global_code": "7MRF2X9P+MV"}, "rating": 2, "reference": "ChIJq6qqahOg4jkRd67cV7Df9vQ", "scope": "GOOGLE", "types": ["primary_school", "school", "point_of_interest", "establishment"], "user_ratings_total": 1, "vicinity": "Bahadurtary, Dhubri"}, {"business_status": "OPERATIONAL", "geometry": {"location": {"lat": 26.0204654, "lng": 89.988264}, "viewport": {"northeast": {"lat": 26.0218388302915, "lng": 89.9895742802915}, "southwest": {"lat": 26.0191408697085, "lng": 89.98687631970849}}}, "icon": "https://maps.gstatic.com/mapfiles/place_api/icons/v1/png_71/school-71.png", "icon_background_color": "#7B9EB0", "icon_mask_base_uri": "https://maps.gstatic.com/mapfiles/place_api/icons/v2/school_pinlet", "name": "Hari Sanskrit Chatuspathi, Dhubri", "place_id": "ChIJRULK1-Wh4jkRgN2xuZShG58", "plus_code": {"compound_code": "2XCQ+58 Dhubri, Assam, India", "global_code": "7MRF2XCQ+58"}, "reference": "ChIJRULK1-Wh4jkRgN2xuZShG58", "scope": "GOOGLE", "types": ["school", "point_of_interest", "establishment"], "vicinity": "Hari Narayan Road, Dhubri"}, {"business_status": "OPERATIONAL", "geometry": {"location": {"lat": 26.0226768, "lng": 89.97909419999999}, "viewport": {"northeast": {"lat": 26.0240519802915, "lng": 89.98046263029151}, "southwest": {"lat": 26.0213540197085, "lng": 89.97776466970849}}}, "icon": "https://maps.gstatic.com/mapfiles/place_api/icons/v1/png_71/school-71.png", "icon_background_color": "#7B9EB0", "icon_mask_base_uri": "https://maps.gstatic.com/mapfiles/place_api/icons/v2/school_pinlet", "name": "Mehebub Zaman SK", "opening_hours": {"open_now": true}, "place_id": "ChIJe5lcutuh4jkRIM-lEc1slbQ", "plus_code": {"compound_code": "2XFH+3J Dhubri, Assam, India", "global_code": "7MRF2XFH+3J"}, "reference": "ChIJe5lcutuh4jkRIM-lEc1slbQ", "scope": "GOOGLE", "types": ["school", "point_of_interest", "establishment"], "vicinity": "Station Road, Bidyapara, Dhubri"}, {"business_status": "CLOSED_TEMPORARILY", "geometry": {"location": {"lat": 26.0201203, "lng": 89.9886829}, "viewport": {"northeast": {"lat": 26.0214250302915, "lng": 89.99015218029152}, "southwest": {"lat": 26.0187270697085, "lng": 89.9874542197085}}}, "icon": "https://maps.gstatic.com/mapfiles/place_api/icons/v1/png_71/school-71.png", "icon_background_color": "#7B9EB0", "icon_mask_base_uri": "https://maps.gstatic.com/mapfiles/place_api/icons/v2/school_pinlet", "name": "Sishu kallyan LP school , Dhubri", "permanently_closed": true, "photos": [{"height": 3120, "html_attributions": ["<a href=\"https://maps.google.com/maps/contrib/114875046697024012905\">Mostafizur Rahman</a>"], "photo_reference": "Aap_uEB725c0mJIaFctY2ZKhyt0_EClDKOOOnTQlp1GVh6W8hPVTJxOKNvtlM03US2Kv0lSVcdxeAox9jhCWjq0VqU0ARFN5qnrbWez8aCIRqMdvVXV_A5R3BZRfGKwDukrEeKDgxq7WBI-5ZixJHv52YwBga4yZ8-z_hfoBl2xl8OgL2WY4", "width": 4160}], "place_id": "ChIJa3vNxH6h4jkR9FnrDabSxYg", "plus_code": {"compound_code": "2XCQ+2F Dhubri, Assam, India", "global_code": "7MRF2XCQ+2F"}, "rating": 5, "reference": "ChIJa3vNxH6h4jkR9FnrDabSxYg", "scope": "GOOGLE", "types": ["school", "point_of_interest", "establishment"], "user_ratings_total": 2, "vicinity": "near Paanch More, GTB Road, Boro Bazar, Dhubri"}, {"business_status": "OPERATIONAL", "geometry": {"location": {"lat": 26.0170867, "lng": 89.9835896}, "viewport": {"northeast": {"lat": 26.0184944802915, "lng": 89.9851271802915}, "southwest": {"lat": 26.01579651970849, "lng": 89.9824292197085}}}, "icon": "https://maps.gstatic.com/mapfiles/place_api/icons/v1/png_71/school-71.png", "icon_background_color": "#7B9EB0", "icon_mask_base_uri": "https://maps.gstatic.com/mapfiles/place_api/icons/v2/school_pinlet", "name": "1906 No. Mohanlal Dungar Mal More Hindi LP School", "opening_hours": {"open_now": true}, "place_id": "ChIJe3A4tSih4jkRaJZoBZeIPcM", "plus_code": {"compound_code": "2X8M+RC Dhubri, Assam, India", "global_code": "7MRF2X8M+RC"}, "reference": "ChIJe3A4tSih4jkRaJZoBZeIPcM", "scope": "GOOGLE", "types": ["school", "point_of_interest", "establishment"], "vicinity": "Boro Bazar, Dhubri"}, {"business_status": "OPERATIONAL", "geometry": {"location": {"lat": 26.0170686, "lng": 89.9840811}, "viewport": {"northeast": {"lat": 26.0184086802915, "lng": 89.9854762302915}, "southwest": {"lat": 26.0157107197085, "lng": 89.98277826970849}}}, "icon": "https://maps.gstatic.com/mapfiles/place_api/icons/v1/png_71/school-71.png", "icon_background_color": "#7B9EB0", "icon_mask_base_uri": "https://maps.gstatic.com/mapfiles/place_api/icons/v2/school_pinlet", "name": "Jawahar Hindi High School", "photos": [{"height": 581, "html_attributions": ["<a href=\"https://maps.google.com/maps/contrib/104915310168626829364\">Deepak Prasad</a>"], "photo_reference": "Aap_uEAiuzkMN44cKaYpHJcSov6tLTbO7Mace32ZkWna8HSSg085W2pyLwo8zUK22JQfbVUGi2M6WahqMMcdz9jslLnG4JSRATLf_OXBeM_-GeyAECxwgn86PF0MrochIKIDywX7K4JkGX9vS2ptfyHLKJ9Q3Y-wCJuZFgdC-77YpNo45UOS", "width": 1032}], "place_id": "ChIJjSnmJWug4jkRzb6DRTVOWlA", "plus_code": {"compound_code": "2X8M+RJ Dhubri, Assam, India", "global_code": "7MRF2X8M+RJ"}, "rating": 4.2, "reference": "ChIJjSnmJWug4jkRzb6DRTVOWlA", "scope": "GOOGLE", "types": ["secondary_school", "school", "point_of_interest", "establishment"], "user_ratings_total": 11, "vicinity": "Boro Bazar, Dhubri"}, {"business_status": "OPERATIONAL", "geometry": {"location": {"lat": 26.0162707, "lng": 89.9846903}, "viewport": {"northeast": {"lat": 26.0176443802915, "lng": 89.9860373302915}, "southwest": {"lat": 26.0149464197085, "lng": 89.98333936970849}}}, "icon": "https://maps.gstatic.com/mapfiles/place_api/icons/v1/png_71/school-71.png", "icon_background_color": "#7B9EB0", "icon_mask_base_uri": "https://maps.gstatic.com/mapfiles/place_api/icons/v2/school_pinlet", "name": "Hindustan Liver Dhubari", "place_id": "ChIJeTHeeGyh4jkRZKmb5YAmM_4", "reference": "ChIJeTHeeGyh4jkRZKmb5YAmM_4", "scope": "GOOGLE", "types": ["school", "point_of_interest", "establishment"], "vicinity": "2X8M+GV4, Boro Bazar, Dhubri"}, {"business_status": "OPERATIONAL", "geometry": {"location": {"lat": 26.0185158, "lng": 89.9893008}, "viewport": {"northeast": {"lat": 26.0199122302915, "lng": 89.99063533029151}, "southwest": {"lat": 26.01721426970849, "lng": 89.9879373697085}}}, "icon": "https://maps.gstatic.com/mapfiles/place_api/icons/v1/png_71/school-71.png", "icon_background_color": "#7B9EB0", "icon_mask_base_uri": "https://maps.gstatic.com/mapfiles/place_api/icons/v2/school_pinlet", "name": "Yogacharya Khokan Babar Ashram", "opening_hours": {"open_now": true}, "photos": [{"height": 2165, "html_attributions": ["<a href=\"https://maps.google.com/maps/contrib/117778864664796670125\">Yogacharya Khokan Babar Ashram</a>"], "photo_reference": "Aap_uEDn4OikrzXgOHJfYnnVdvej8etpGT9EI47ASehHmUXsWknUwD8_ysXvnnPxNSunxhvauKHAUhc-zXbBhRNfNSOpbcuk6OPta5soDJUre4ut5XqJDxgjJI-Y412UguxXsVZg4s2kR1mBibBn3BxWPD5eTzCPwBIxE-sz2GCtGi37y2V_", "width": 3849}], "place_id": "ChIJk-A_GAih4jkRQ-Bf_AgXuyQ", "plus_code": {"compound_code": "2X9Q+CP Dhubri, Assam, India", "global_code": "7MRF2X9Q+CP"}, "rating": 4.9, "reference": "ChIJk-A_GAih4jkRQ-Bf_AgXuyQ", "scope": "GOOGLE", "types": ["school", "gym", "health", "point_of_interest", "establishment"], "user_ratings_total": 17, "vicinity": "Ward No. 2, near Aaykar Bhawan, Netaji Subas Road, Boro Bazar, Dhubri"}, {"business_status": "OPERATIONAL", "geometry": {"location": {"lat": 26.016441, "lng": 89.9872882}, "viewport": {"northeast": {"lat": 26.0177899802915, "lng": 89.9886371802915}, "southwest": {"lat": 26.0150920197085, "lng": 89.9859392197085}}}, "icon": "https://maps.gstatic.com/mapfiles/place_api/icons/v1/png_71/school-71.png", "icon_background_color": "#7B9EB0", "icon_mask_base_uri": "https://maps.gstatic.com/mapfiles/place_api/icons/v2/school_pinlet", "name": "Muskan Educare", "place_id": "ChIJs55XwGyg4jkRzkinLB7AqxU", "plus_code": {"compound_code": "2X8P+HW Dhubri, Assam, India", "global_code": "7MRF2X8P+HW"}, "rating": 5, "reference": "ChIJs55XwGyg4jkRzkinLB7AqxU", "scope": "GOOGLE", "types": ["school", "point_of_interest", "establishment"], "user_ratings_total": 1, "vicinity": "3, Charmain Road, Ward Number 9, Boro Bazar, Dhubri"}, {"business_status": "OPERATIONAL", "geometry": {"location": {"lat": 26.0163913, "lng": 89.98069919999999}, "viewport": {"northeast": {"lat": 26.0177263302915, "lng": 89.9820510802915}, "southwest": {"lat": 26.0150283697085, "lng": 89.97935311970848}}}, "icon": "https://maps.gstatic.com/mapfiles/place_api/icons/v1/png_71/school-71.png", "icon_background_color": "#7B9EB0", "icon_mask_base_uri": "https://maps.gstatic.com/mapfiles/place_api/icons/v2/school_pinlet", "name": "Binapani L.P. School", "opening_hours": {"open_now": true}, "place_id": "ChIJefyWF0Cg4jkRWYEDaX_ukmM", "plus_code": {"compound_code": "2X8J+H7 Dhubri, Assam, India", "global_code": "7MRF2X8J+H7"}, "rating": 4, "reference": "ChIJefyWF0Cg4jkRWYEDaX_ukmM", "scope": "GOOGLE", "types": ["primary_school", "school", "point_of_interest", "establishment"], "user_ratings_total": 2, "vicinity": "Ward No. 12, Old Petrol Tank Road, Dhubri"}, {"business_status": "OPERATIONAL", "geometry": {"location": {"lat": 26.0182617, "lng": 89.9903199}, "viewport": {"northeast": {"lat": 26.01960118029151, "lng": 89.99164863029151}, "southwest": {"lat": 26.0169032197085, "lng": 89.98895066970849}}}, "icon": "https://maps.gstatic.com/mapfiles/place_api/icons/v1/png_71/school-71.png", "icon_background_color": "#7B9EB0", "icon_mask_base_uri": "https://maps.gstatic.com/mapfiles/place_api/icons/v2/school_pinlet", "name": "Fitness Club", "place_id": "ChIJG4aPG8Sh4jkRts6lJqcmvm0", "plus_code": {"compound_code": "2X9R+84 Dhubri, Assam, India", "global_code": "7MRF2X9R+84"}, "reference": "ChIJG4aPG8Sh4jkRts6lJqcmvm0", "scope": "GOOGLE", "types": ["secondary_school", "school", "point_of_interest", "establishment"], "vicinity": "Tarun Ram Phukan Road, Boro Bazar, Dhubri"}, {"business_status": "CLOSED_TEMPORARILY", "geometry": {"location": {"lat": 26.015138, "lng": 89.9833101}, "viewport": {"northeast": {"lat": 26.0165852302915, "lng": 89.9846466802915}, "southwest": {"lat": 26.01388726970849, "lng": 89.98194871970848}}}, "icon": "https://maps.gstatic.com/mapfiles/place_api/icons/v1/png_71/school-71.png", "icon_background_color": "#7B9EB0", "icon_mask_base_uri": "https://maps.gstatic.com/mapfiles/place_api/icons/v2/school_pinlet", "name": "Paradise Convent School", "permanently_closed": true, "photos": [{"height": 2000, "html_attributions": ["<a href=\"https://maps.google.com/maps/contrib/115614704294218988527\">Mamtaz Khatun</a>"], "photo_reference": "Aap_uEAgWX1CNta2fQ1gtFs3DrDzRPeF1KI_JhUaZCTIz0ReTCGF3XVDCWAXI4tCvGkazuwQtlll_0AIXxcqwhRmY-k_MZbEaUDRO7xtmPJhwzj2govXUdOOguF6vXou7IKIaatPYaB1bv8FvvoabIn4ABPW-Vdcu8dviTIt7Bh2Sm8edhpf", "width": 4000}], "place_id": "ChIJ9WSCCcyh4jkRUGxNQ3l0krg", "plus_code": {"compound_code": "2X8M+38 Dhubri, Assam, India", "global_code": "7MRF2X8M+38"}, "rating": 3.4, "reference": "ChIJ9WSCCcyh4jkRUGxNQ3l0krg", "scope": "GOOGLE", "types": ["school", "point_of_interest", "establishment"], "user_ratings_total": 10, "vicinity": "Idgah maidan ward no 11, Dhubri"}, {"business_status": "OPERATIONAL", "geometry": {"location": {"lat": 26.0171409, "lng": 89.9895528}, "viewport": {"northeast": {"lat": 26.0182537802915, "lng": 89.99089648029151}, "southwest": {"lat": 26.0155558197085, "lng": 89.9881985197085}}}, "icon": "https://maps.gstatic.com/mapfiles/place_api/icons/v1/png_71/school-71.png", "icon_background_color": "#7B9EB0", "icon_mask_base_uri": "https://maps.gstatic.com/mapfiles/place_api/icons/v2/school_pinlet", "name": "Dhubri M.E. School", "photos": [{"height": 2448, "html_attributions": ["<a href=\"https://maps.google.com/maps/contrib/113175631509460420577\">Rofiqul Islam</a>"], "photo_reference": "Aap_uECadPS2cuwfLwOV1fBYjPCIajpacBB6at7mO21DOvdH8TQNAKjk0rawYbUK455kBkgsRIYhjefzNheLp3fi03_pZPP6DiFsf0oF4FWSh44KdB-SfIB93s-wqUtUl1SHYjcEdhV5adOexG-WugzhsRWpIqgeRLOH5V2BwYzD6u7Rv11f", "width": 3264}], "place_id": "ChIJGYg6SG2g4jkRg9a48rcX2Pc", "plus_code": {"compound_code": "2X8Q+VR Dhubri, Assam, India", "global_code": "7MRF2X8Q+VR"}, "rating": 3.5, "reference": "ChIJGYg6SG2g4jkRg9a48rcX2Pc", "scope": "GOOGLE", "types": ["school", "point_of_interest", "establishment"], "user_ratings_total": 4, "vicinity": "Charmain Road, Boro Bazar, Dhubri"}, {"business_status": "OPERATIONAL", "geometry": {"location": {"lat": 26.0191849, "lng": 89.9767506}, "viewport": {"northeast": {"lat": 26.0206128302915, "lng": 89.9779111302915}, "southwest": {"lat": 26.0179148697085, "lng": 89.9752131697085}}}, "icon": "https://maps.gstatic.com/mapfiles/place_api/icons/v1/png_71/school-71.png", "icon_background_color": "#7B9EB0", "icon_mask_base_uri": "https://maps.gstatic.com/mapfiles/place_api/icons/v2/school_pinlet", "name": "1709 Shantinagar LP School", "opening_hours": {"open_now": true}, "photos": [{"height": 1080, "html_attributions": ["<a href=\"https://maps.google.com/maps/contrib/103040076468677319984\">Sumanta Das</a>"], "photo_reference": "Aap_uEC2QSemP_HCoa4gZS6Y8ZQGuGmnOP9MGrNkeCRYyjW2Hg6MlZlcZ56ukG8DrpJxTiluQsImSZvOqrNxX_EJsh2EAby5hrp5LFZiVdoMmc_SwPs5kRVj5EiBu9aUoeUTydN8yOtiTBpUkpyJiFb3YPaScypsaSVJ8V97RKaOGsLBm3Ox", "width": 1920}], "place_id": "ChIJl4aiSj-g4jkR-LtEbN3BeWc", "plus_code": {"compound_code": "2X9G+MP Dhubri, Assam, India", "global_code": "7MRF2X9G+MP"}, "rating": 5, "reference": "ChIJl4aiSj-g4jkR-LtEbN3BeWc", "scope": "GOOGLE", "types": ["primary_school", "school", "point_of_interest", "establishment"], "user_ratings_total": 1, "vicinity": "Shantinagar Road, Santi Nagar, Dhubri"}, {"business_status": "OPERATIONAL", "geometry": {"location": {"lat": 26.018939, "lng": 89.97676129999999}, "viewport": {"northeast": {"lat": 26.0202805302915, "lng": 89.9781376302915}, "southwest": {"lat": 26.01758256970849, "lng": 89.97543966970849}}}, "icon": "https://maps.gstatic.com/mapfiles/place_api/icons/v1/png_71/school-71.png", "icon_background_color": "#7B9EB0", "icon_mask_base_uri": "https://maps.gstatic.com/mapfiles/place_api/icons/v2/school_pinlet", "name": "Kabi Rabindranath ME School", "opening_hours": {"open_now": true}, "place_id": "ChIJmSBrSz-g4jkRJtEn73GQm5g", "plus_code": {"compound_code": "2X9G+HP Dhubri, Assam, India", "global_code": "7MRF2X9G+HP"}, "rating": 5, "reference": "ChIJmSBrSz-g4jkRJtEn73GQm5g", "scope": "GOOGLE", "types": ["school", "point_of_interest", "establishment"], "user_ratings_total": 1, "vicinity": "783324, Indira Gandhi Road, Santi Nagar, Dhubri"}, {"business_status": "OPERATIONAL", "geometry": {"location": {"lat": 26.0147883, "lng": 89.98367689999999}, "viewport": {"northeast": {"lat": 26.01613548029151, "lng": 89.9850073302915}, "southwest": {"lat": 26.0134375197085, "lng": 89.98230936970849}}}, "icon": "https://maps.gstatic.com/mapfiles/place_api/icons/v1/png_71/school-71.png", "icon_background_color": "#7B9EB0", "icon_mask_base_uri": "https://maps.gstatic.com/mapfiles/place_api/icons/v2/school_pinlet", "name": "The Art Gallary, Dhubri", "opening_hours": {"open_now": true}, "photos": [{"height": 640, "html_attributions": ["<a href=\"https://maps.google.com/maps/contrib/111093800876024772553\">Artist Arup Das</a>"], "photo_reference": "Aap_uEBgw_hRf9BxyXZuZlqaPPDFeBiFXMJXkAeSUSfxh-Pii8eXcScHiDbnOtFoqmi-F_BFSOOtpcN24IN3nRTrPyHQ1FDttjKkzeK6NfiW6eACd8rAov1PKT8Ak7L4PuI79ta-BAtg2K6lB3_XcQDVQWSI27ldUQ4VTvpWdeGHXk8aFIFM", "width": 1137}], "place_id": "ChIJ95Bli0Cg4jkRWDQvY1uPr7g", "plus_code": {"compound_code": "2X7M+WF Dhubri, Assam, India", "global_code": "7MRF2X7M+WF"}, "reference": "ChIJ95Bli0Cg4jkRWDQvY1uPr7g", "scope": "GOOGLE", "types": ["school", "point_of_interest", "establishment"], "vicinity": "W/No. 12, Bhavani Nagar, Dhubri"}, {"business_status": "CLOSED_TEMPORARILY", "geometry": {"location": {"lat": 26.0173215, "lng": 89.9910534}, "viewport": {"northeast": {"lat": 26.0186578302915, "lng": 89.99232408029151}, "southwest": {"lat": 26.0159598697085, "lng": 89.98962611970849}}}, "icon": "https://maps.gstatic.com/mapfiles/place_api/icons/v1/png_71/school-71.png", "icon_background_color": "#7B9EB0", "icon_mask_base_uri": "https://maps.gstatic.com/mapfiles/place_api/icons/v2/school_pinlet", "name": "S.P. English Medium School", "permanently_closed": true, "photos": [{"height": 415, "html_attributions": ["<a href=\"https://maps.google.com/maps/contrib/110591527874025910647\">Joy Dey</a>"], "photo_reference": "Aap_uECFTBUjVLMVQUlSmPu235zmPbmbp8e7M5beso1H7wtwpbE51iVgBVKOhxo3eGsQyMiKjcVO4bV7Dco5CjpsJImPiqWKZReXo3s_jY5AHPSaJABYhS24ImkEIzfOr4ZGgf1Z3L2EcstWHUHIrDBNCL6rFSX9H32hYw_iGzFpw_VTI20W", "width": 739}], "place_id": "ChIJMdgSr3Kg4jkRQt7dUeeNsFA", "plus_code": {"compound_code": "2X8R+WC Dhubri, Assam, India", "global_code": "7MRF2X8R+WC"}, "rating": 4.3, "reference": "ChIJMdgSr3Kg4jkRQt7dUeeNsFA", "scope": "GOOGLE", "types": ["school", "point_of_interest", "establishment"], "user_ratings_total": 41, "vicinity": "Tarun Ram Phukan Road, Dhubri"}], "status": "OK"}