{"html_attributions": [], "results": [{"business_status": "OPERATIONAL", "geometry": {"location": {"lat": 26.0174659, "lng": 89.9913026}, "viewport": {"northeast": {"lat": 26.0188144802915, "lng": 89.99265178029151}, "southwest": {"lat": 26.01611651970849, "lng": 89.9899538197085}}}, "icon": "https://maps.gstatic.com/mapfiles/place_api/icons/v1/png_71/school-71.png", "icon_background_color": "#7B9EB0", "icon_mask_base_uri": "https://maps.gstatic.com/mapfiles/place_api/icons/v2/school_pinlet", "name": "Inspector of School Office, Dhubri", "opening_hours": {"open_now": true}, "photos": [{"height": 4608, "html_attributions": ["<a href=\"https://maps.google.com/maps/contrib/111020477166257502839\">Irash Jyoti Saikia</a>"], "photo_reference": "Aap_uEDhVbCfeKT-jxWspQ64JeTOPkAdwTpWA4aST0H4AjrwkSmzjRn_uh9jjyt168gCFyM2sWdsF4B7QE_teaus7ctQwFO6r5iNQ3-uFlQWp2znWVTRtpKcxz_Ab9VGaNjOwTWb6TZgrtwmgvZ4yVgnZnDSWy5YHQHw8G6QGfYjFkldLnLd", "width": 2126}], "place_id": "ChIJG4yT4P2h4jkRkeszvwSjgMk", "rating": 4.2, "reference": "ChIJG4yT4P2h4jkRkeszvwSjgMk", "scope": "GOOGLE", "types": ["school", "point_of_interest", "establishment"], "user_ratings_total": 5, "vicinity": "2X8R+XGM, Boro Bazar, Dhubri"}, {"business_status": "OPERATIONAL", "geometry": {"location": {"lat": 26.0218414, "lng": 89.9749914}, "viewport": {"northeast": {"lat": 26.0229650302915, "lng": 89.9766001802915}, "southwest": {"lat": 26.0202670697085, "lng": 89.97390221970849}}}, "icon": "https://maps.gstatic.com/mapfiles/place_api/icons/v1/png_71/school-71.png", "icon_background_color": "#7B9EB0", "icon_mask_base_uri": "https://maps.gstatic.com/mapfiles/place_api/icons/v2/school_pinlet", "name": "741 No Ghoshpara Bidyamandir JB School", "opening_hours": {"open_now": true}, "place_id": "ChIJI6gZEjmg4jkRHOQdI4MWG7E", "plus_code": {"compound_code": "2XCF+PX Dhubri, Assam, India", "global_code": "7MRF2XCF+PX"}, "rating": 4.5, "reference": "ChIJI6gZEjmg4jkRHOQdI4MWG7E", "scope": "GOOGLE", "types": ["school", "point_of_interest", "establishment"], "user_ratings_total": 2, "vicinity": "Opp Dhubri Railway Station, Indira Gandhi Road, Ward No 14, Ghoshpara, Dhubri"}, {"business_status": "OPERATIONAL", "geometry": {"location": {"lat": 26.0206142, "lng": 89.99332}, "viewport": {"northeast": {"lat": 26.0219453802915, "lng": 89.99466198029151}, "southwest": {"lat": 26.01924741970849, "lng": 89.9919640197085}}}, "icon": "https://maps.gstatic.com/mapfiles/place_api/icons/v1/png_71/school-71.png", "icon_background_color": "#7B9EB0", "icon_mask_base_uri": "https://maps.gstatic.com/mapfiles/place_api/icons/v2/school_pinlet", "name": "Bharat Chandra Ray Memorial School", "photos": [{"height": 768, "html_attributions": ["<a href=\"https://maps.google.com/maps/contrib/118292071416008725233\">Maniruddin Mansuri</a>"], "photo_reference": "Aap_uEBmKtC5XMJN_RcvJtnr0Km_K5HZOvN6DkQrVxgVa3oW64HwupjWDzlb0fcH0yZUBhTPRgYNL_CNeM2cbLv5HfhjF7w8XVeX0p5Jlli3QhBByKenVUC9GXpw-07AwsemkwYqOdjiRBsc60dlia4WWQj7Rbc2kFb2Z1HNglbE_gu_m4vZ", "width": 1024}], "place_id": "ChIJ65-6-Ayg4jkRs5aZ_1q7hII", "rating": 3.5, "reference": "ChIJ65-6-Ayg4jkRs5aZ_1q7hII", "scope": "GOOGLE", "types": ["school", "point_of_interest", "establishment"], "user_ratings_total": 2, "vicinity": "2XCV+68W, Ward No. 1, Boro Bazar, Dhubri"}, {"business_status": "OPERATIONAL", "geometry": {"location": {"lat": 26.0299337, "lng": 89.9804065}, "viewport": {"northeast": {"lat": 26.0312826802915, "lng": 89.98175548029151}, "southwest": {"lat": 26.0285847197085, "lng": 89.9790575197085}}}, "icon": "https://maps.gstatic.com/mapfiles/place_api/icons/v1/png_71/school-71.png", "icon_background_color": "#7B9EB0", "icon_mask_base_uri": "https://maps.gstatic.com/mapfiles/place_api/icons/v2/school_pinlet", "name": "South Falimari LPS", "photos": [{"height": 1920, "html_attributions": ["<a href=\"https://maps.google.com/maps/contrib/108759897479816213739\">b2k prem</a>"], "photo_reference": "Aap_uECsJbU9zfhyySdtNyzJHfDlmgLZUj_Kbo025W37jZO4NSiIhcM-fPFn2TK27TxbiendKQUUdJfROIH2sf4-tbLlF1vXO8_NLX3dOQZ5VhTLqQ7VDckW0fbwU4OE1RxIPrV_yP4g3riEzamVY2AQ13xsdxfWEbqxq2jFJOEcaHNM_Tm2", "width": 1080}], "place_id": "ChIJa-lB6Vyh4jkRbcsmAemIn_8", "plus_code": {"compound_code": "2XHJ+X5 Dhubrichar, Assam, India", "global_code": "7MRF2XHJ+X5"}, "reference": "ChIJa-lB6Vyh4jkRbcsmAemIn_8", "scope": "GOOGLE", "types": ["school", "point_of_interest", "establishment"], "vicinity": "Unnamed Road, Dhubrichar"}, {"business_status": "CLOSED_TEMPORARILY", "geometry": {"location": {"lat": 26.0183386, "lng": 89.9926801}, "viewport": {"northeast": {"lat": 26.01970488029151, "lng": 89.9939742302915}, "southwest": {"lat": 26.0170069197085, "lng": 89.9912762697085}}}, "icon": "https://maps.gstatic.com/mapfiles/place_api/icons/v1/png_71/school-71.png", "icon_background_color": "#7B9EB0", "icon_mask_base_uri": "https://maps.gstatic.com/mapfiles/place_api/icons/v2/school_pinlet", "name": "Dhubri Govt Boys Higher Secondary School", "permanently_closed": true, "photos": [{"height": 1200, "html_attributions": ["<a href=\"https://maps.google.com/maps/contrib/110207327319136163175\">Moniruzzaman Hazarika</a>"], "photo_reference": "Aap_uECWsvST4uvCirBcOnYPBUiQx8Q-Bs_ck_eN-NGJdZYidVH6sdRVOa5oy5TKWq9JJzM9LfNBiz0FAemRWBW4uQY18L3Uf-dVWpcHbQzQXilO3llBsnr--JKckMoe958DECMNFyHrNTGGyE8E_--plBMLsAIGa2NLjzfzkQUFOflMNKsM", "width": 1600}], "place_id": "ChIJj1YmLw2g4jkRVGc2NdbMemY", "plus_code": {"compound_code": "2X9V+83 Dhubri, Assam, India", "global_code": "7MRF2X9V+83"}, "rating": 3.6, "reference": "ChIJj1YmLw2g4jkRVGc2NdbMemY", "scope": "GOOGLE", "types": ["school", "point_of_interest", "establishment"], "user_ratings_total": 5, "vicinity": "Bhupen Hazarika Road, Ward No. 1, Dhubri"}, {"business_status": "OPERATIONAL", "geometry": {"location": {"lat": 26.0206982, "lng": 89.9743463}, "viewport": {"northeast": {"lat": 26.0219513302915, "lng": 89.9758081802915}, "southwest": {"lat": 26.0192533697085, "lng": 89.97311021970847}}}, "icon": "https://maps.gstatic.com/mapfiles/place_api/icons/v1/png_71/school-71.png", "icon_background_color": "#7B9EB0", "icon_mask_base_uri": "https://maps.gstatic.com/mapfiles/place_api/icons/v2/school_pinlet", "name": "Falimari ME School", "place_id": "ChIJkWjKXvyh4jkRbGI6muJ3Ut4", "reference": "ChIJkWjKXvyh4jkRbGI6muJ3Ut4", "scope": "GOOGLE", "types": ["school", "point_of_interest", "establishment"], "vicinity": "2XCF+7PH, Dhubri"}, {"business_status": "OPERATIONAL", "geometry": {"location": {"lat": 26.0206982, "lng": 89.9743463}, "viewport": {"northeast": {"lat": 26.0219513302915, "lng": 89.9758081802915}, "southwest": {"lat": 26.0192533697085, "lng": 89.97311021970847}}}, "icon": "https://maps.gstatic.com/mapfiles/place_api/icons/v1/png_71/school-71.png", "icon_background_color": "#7B9EB0", "icon_mask_base_uri": "https://maps.gstatic.com/mapfiles/place_api/icons/v2/school_pinlet", "name": "\u09f0\u09be\u0995\u09c7\u09b6 \u09f0\u09be\u09af\u09bc", "place_id": "ChIJww7uYqyh4jkRzGPFqML-RCM", "reference": "ChIJww7uYqyh4jkRzGPFqML-RCM", "scope": "GOOGLE", "types": ["school", "point_of_interest", "establishment"], "vicinity": "2XCF+7PH, Dhubri"}, {"business_status": "OPERATIONAL", "geometry": {"location": {"lat": 26.0206982, "lng": 89.9743463}, "viewport": {"northeast": {"lat": 26.0219513302915, "lng": 89.9758081802915}, "southwest": {"lat": 26.0192533697085, "lng": 89.97311021970847}}}, "icon": "https://maps.gstatic.com/mapfiles/place_api/icons/v1/png_71/school-71.png", "icon_background_color": "#7B9EB0", "icon_mask_base_uri": "https://maps.gstatic.com/mapfiles/place_api/icons/v2/school_pinlet", "name": "Uttar geramari gaon panchyat", "place_id": "ChIJT99pMEWh4jkRcPnslg-FUoU", "reference": "ChIJT99pMEWh4jkRcPnslg-FUoU", "scope": "GOOGLE", "types": ["school", "point_of_interest", "establishment"], "vicinity": "2XCF+7PH, Dhubri"}, {"business_status": "OPERATIONAL", "geometry": {"location": {"lat": 26.0206982, "lng": 89.9743463}, "viewport": {"northeast": {"lat": 26.0219513302915, "lng": 89.9758081802915}, "southwest": {"lat": 26.0192533697085, "lng": 89.97311021970847}}}, "icon": "https://maps.gstatic.com/mapfiles/place_api/icons/v1/png_71/school-71.png", "icon_background_color": "#7B9EB0", "icon_mask_base_uri": "https://maps.gstatic.com/mapfiles/place_api/icons/v2/school_pinlet", "name": "Ghogarpar Arabic College & Senior Madressa Ferdaus", "photos": [{"height": 1280, "html_attributions": ["<a href=\"https://maps.google.com/maps/contrib/111003958206840654119\">Status king Shahil</a>"], "photo_reference": "Aap_uEC4Wb3b8OQitOH0ZgwD2cPEEKlSt5sU0sCXEylinhBlGvBey3WY3VZMcDJYaeHn-eQinlogGm1zN_Qjfooy3-hiaoCU2sSlUmn7YG9s0oNXcD3tn1nGLkuCkYQCm0BWr5owW_-aK9ffJIcaWjwIj4xfQsYmEjFCExtiGTjsbHln3hEy", "width": 867}], "place_id": "ChIJS_t76k-h4jkRid_mgooYw1g", "reference": "ChIJS_t76k-h4jkRid_mgooYw1g", "scope": "GOOGLE", "types": ["school", "point_of_interest", "establishment"], "vicinity": "2XCF+7PH, Dhubri"}, {"business_status": "OPERATIONAL", "geometry": {"location": {"lat": 26.0206982, "lng": 89.9743463}, "viewport": {"northeast": {"lat": 26.0219513302915, "lng": 89.9758081802915}, "southwest": {"lat": 26.0192533697085, "lng": 89.97311021970847}}}, "icon": "https://maps.gstatic.com/mapfiles/place_api/icons/v1/png_71/school-71.png", "icon_background_color": "#7B9EB0", "icon_mask_base_uri": "https://maps.gstatic.com/mapfiles/place_api/icons/v2/school_pinlet", "name": "Apolo School Road", "place_id": "ChIJk1JrHkOh4jkR9myOfZkNGUw", "plus_code": {"compound_code": "2XCF+7P Dhubri, Assam, India", "global_code": "7MRF2XCF+7P"}, "reference": "ChIJk1JrHkOh4jkR9myOfZkNGUw", "scope": "GOOGLE", "types": ["school", "point_of_interest", "establishment"], "vicinity": "Dhubri"}, {"business_status": "OPERATIONAL", "geometry": {"location": {"lat": 26.0206982, "lng": 89.9743463}, "viewport": {"northeast": {"lat": 26.0219513302915, "lng": 89.9758081802915}, "southwest": {"lat": 26.0192533697085, "lng": 89.97311021970847}}}, "icon": "https://maps.gstatic.com/mapfiles/place_api/icons/v1/png_71/school-71.png", "icon_background_color": "#7B9EB0", "icon_mask_base_uri": "https://maps.gstatic.com/mapfiles/place_api/icons/v2/school_pinlet", "name": "Nozrul", "place_id": "ChIJ1Wn7LJ6h4jkRYstqjH7A4GA", "reference": "ChIJ1Wn7LJ6h4jkRYstqjH7A4GA", "scope": "GOOGLE", "types": ["school", "point_of_interest", "establishment"], "vicinity": "2XCF+7PH, Dhubri"}, {"business_status": "OPERATIONAL", "geometry": {"location": {"lat": 26.0206982, "lng": 89.9743463}, "viewport": {"northeast": {"lat": 26.0219513302915, "lng": 89.9758081802915}, "southwest": {"lat": 26.0192533697085, "lng": 89.97311021970847}}}, "icon": "https://maps.gstatic.com/mapfiles/place_api/icons/v1/png_71/school-71.png", "icon_background_color": "#7B9EB0", "icon_mask_base_uri": "https://maps.gstatic.com/mapfiles/place_api/icons/v2/school_pinlet", "name": "Jiarul hoque", "place_id": "ChIJHUa0GrWh4jkRh0WzscTGEJ4", "plus_code": {"compound_code": "2XCF+7P Dhubri, Assam, India", "global_code": "7MRF2XCF+7P"}, "reference": "ChIJHUa0GrWh4jkRh0WzscTGEJ4", "scope": "GOOGLE", "types": ["school", "point_of_interest", "establishment"], "vicinity": "Shall character part 2, Dhubri"}, {"business_status": "OPERATIONAL", "geometry": {"location": {"lat": 26.0206982, "lng": 89.9743463}, "viewport": {"northeast": {"lat": 26.0219513302915, "lng": 89.9758081802915}, "southwest": {"lat": 26.0192533697085, "lng": 89.97311021970847}}}, "icon": "https://maps.gstatic.com/mapfiles/place_api/icons/v1/png_71/school-71.png", "icon_background_color": "#7B9EB0", "icon_mask_base_uri": "https://maps.gstatic.com/mapfiles/place_api/icons/v2/school_pinlet", "name": "Kamar Para LP school", "place_id": "ChIJD2PD91Gh4jkRKhjNxxTFrhI", "reference": "ChIJD2PD91Gh4jkRKhjNxxTFrhI", "scope": "GOOGLE", "types": ["school", "point_of_interest", "establishment"], "vicinity": "2XCF+7PH, Dhubri"}, {"business_status": "OPERATIONAL", "geometry": {"location": {"lat": 26.0206982, "lng": 89.9743463}, "viewport": {"northeast": {"lat": 26.0219513302915, "lng": 89.9758081802915}, "southwest": {"lat": 26.0192533697085, "lng": 89.97311021970847}}}, "icon": "https://maps.gstatic.com/mapfiles/place_api/icons/v1/png_71/school-71.png", "icon_background_color": "#7B9EB0", "icon_mask_base_uri": "https://maps.gstatic.com/mapfiles/place_api/icons/v2/school_pinlet", "name": "Lokhipor", "opening_hours": {"open_now": true}, "place_id": "ChIJt2Wt6lyh4jkRJLJ_-8T-i8I", "reference": "ChIJt2Wt6lyh4jkRJLJ_-8T-i8I", "scope": "GOOGLE", "types": ["school", "point_of_interest", "establishment"], "vicinity": "2XCF+7PH, Silghagri, Santi Nagar, Dhubri"}, {"business_status": "OPERATIONAL", "geometry": {"location": {"lat": 26.0206982, "lng": 89.9743463}, "viewport": {"northeast": {"lat": 26.0219513302915, "lng": 89.9758081802915}, "southwest": {"lat": 26.0192533697085, "lng": 89.97311021970847}}}, "icon": "https://maps.gstatic.com/mapfiles/place_api/icons/v1/png_71/school-71.png", "icon_background_color": "#7B9EB0", "icon_mask_base_uri": "https://maps.gstatic.com/mapfiles/place_api/icons/v2/school_pinlet", "name": "Mehdi computer shop", "place_id": "ChIJLbY6VXah4jkR4ZT6RTgWxfs", "reference": "ChIJLbY6VXah4jkR4ZT6RTgWxfs", "scope": "GOOGLE", "types": ["school", "point_of_interest", "establishment"], "vicinity": "2XCF+7PH, Dhubri"}, {"business_status": "OPERATIONAL", "geometry": {"location": {"lat": 26.0206982, "lng": 89.9743463}, "viewport": {"northeast": {"lat": 26.0219513302915, "lng": 89.9758081802915}, "southwest": {"lat": 26.0192533697085, "lng": 89.97311021970847}}}, "icon": "https://maps.gstatic.com/mapfiles/place_api/icons/v1/png_71/school-71.png", "icon_background_color": "#7B9EB0", "icon_mask_base_uri": "https://maps.gstatic.com/mapfiles/place_api/icons/v2/school_pinlet", "name": "Sankar Dev Shishu Vidya Nikatan", "place_id": "ChIJk2I9P4Oh4jkR-SM8wHMEMqU", "rating": 5, "reference": "ChIJk2I9P4Oh4jkR-SM8wHMEMqU", "scope": "GOOGLE", "types": ["school", "point_of_interest", "establishment"], "user_ratings_total": 1, "vicinity": "2XCF+7PH, Dhubri"}, {"business_status": "OPERATIONAL", "geometry": {"location": {"lat": 26.0206982, "lng": 89.9743463}, "viewport": {"northeast": {"lat": 26.0219513302915, "lng": 89.9758081802915}, "southwest": {"lat": 26.0192533697085, "lng": 89.97311021970847}}}, "icon": "https://maps.gstatic.com/mapfiles/place_api/icons/v1/png_71/school-71.png", "icon_background_color": "#7B9EB0", "icon_mask_base_uri": "https://maps.gstatic.com/mapfiles/place_api/icons/v2/school_pinlet", "name": "Ganesh", "place_id": "ChIJQxEIa2eh4jkRgE6vjucoYnU", "reference": "ChIJQxEIa2eh4jkRgE6vjucoYnU", "scope": "GOOGLE", "types": ["school", "point_of_interest", "establishment"], "vicinity": "2XCF+7PH, Dhubri"}, {"business_status": "OPERATIONAL", "geometry": {"location": {"lat": 26.0206982, "lng": 89.9743463}, "viewport": {"northeast": {"lat": 26.0219513302915, "lng": 89.9758081802915}, "southwest": {"lat": 26.0192533697085, "lng": 89.97311021970847}}}, "icon": "https://maps.gstatic.com/mapfiles/place_api/icons/v1/png_71/school-71.png", "icon_background_color": "#7B9EB0", "icon_mask_base_uri": "https://maps.gstatic.com/mapfiles/place_api/icons/v2/school_pinlet", "name": "Maa Shoes Store", "place_id": "ChIJP69MU6Ch4jkREWqbkcMs1uI", "plus_code": {"compound_code": "2XCF+7P Dhubri, Assam, India", "global_code": "7MRF2XCF+7P"}, "reference": "ChIJP69MU6Ch4jkREWqbkcMs1uI", "scope": "GOOGLE", "types": ["school", "point_of_interest", "establishment"], "vicinity": "Dhubri"}, {"business_status": "OPERATIONAL", "geometry": {"location": {"lat": 26.0206982, "lng": 89.9743463}, "viewport": {"northeast": {"lat": 26.0219513302915, "lng": 89.9758081802915}, "southwest": {"lat": 26.0192533697085, "lng": 89.97311021970847}}}, "icon": "https://maps.gstatic.com/mapfiles/place_api/icons/v1/png_71/school-71.png", "icon_background_color": "#7B9EB0", "icon_mask_base_uri": "https://maps.gstatic.com/mapfiles/place_api/icons/v2/school_pinlet", "name": "Papai Bar", "opening_hours": {"open_now": false}, "place_id": "ChIJq6qqqjmg4jkRu8PDxFTyzq0", "reference": "ChIJq6qqqjmg4jkRu8PDxFTyzq0", "scope": "GOOGLE", "types": ["school", "point_of_interest", "establishment"], "vicinity": "2XCF+7PH, Silghagri, Santi Nagar, Dhubri"}, {"business_status": "OPERATIONAL", "geometry": {"location": {"lat": 26.0206982, "lng": 89.9743463}, "viewport": {"northeast": {"lat": 26.0219513302915, "lng": 89.9758081802915}, "southwest": {"lat": 26.0192533697085, "lng": 89.97311021970847}}}, "icon": "https://maps.gstatic.com/mapfiles/place_api/icons/v1/png_71/school-71.png", "icon_background_color": "#7B9EB0", "icon_mask_base_uri": "https://maps.gstatic.com/mapfiles/place_api/icons/v2/school_pinlet", "name": "Machipara Pt3", "opening_hours": {"open_now": true}, "photos": [{"height": 2576, "html_attributions": ["<a href=\"https://maps.google.com/maps/contrib/112692358932805207967\">Soleman Khan</a>"], "photo_reference": "Aap_uEC9U0ugadp8dgtNpeB6iicooavaS5TbuyVHV4Eqmw0TDDISURTqxiN_zslXfzrlwOKW6pKmDy3apgdmkcKOmy98SnKO7uoU7RtIwkMgjZz-FZ_eWyl88--MSzHGXr3so3tPHw_ebi5I9k-ii19HGxRJg32unwJBfKqXJI9HjRX3F04Y", "width": 1932}], "place_id": "ChIJq6qqqjmg4jkRxAu0pMP92cw", "plus_code": {"compound_code": "2XCF+7P Dhubri, Assam, India", "global_code": "7MRF2XCF+7P"}, "reference": "ChIJq6qqqjmg4jkRxAu0pMP92cw", "scope": "GOOGLE", "types": ["school", "point_of_interest", "establishment"], "vicinity": "Indira Gandhi Road, Silghagri, Santi Nagar, Dhubri"}], "status": "OK"}