{"html_attributions": [], "results": [{"business_status": "OPERATIONAL", "geometry": {"location": {"lat": 26.039189, "lng": 89.984944}, "viewport": {"northeast": {"lat": 26.0406749302915, "lng": 89.98692363029151}, "southwest": {"lat": 26.0379769697085, "lng": 89.9842256697085}}}, "icon": "https://maps.gstatic.com/mapfiles/place_api/icons/v1/png_71/school-71.png", "icon_background_color": "#7B9EB0", "icon_mask_base_uri": "https://maps.gstatic.com/mapfiles/place_api/icons/v2/school_pinlet", "name": "Madrassa Miftahul Uloom Kuntir Char", "opening_hours": {"open_now": true}, "place_id": "ChIJm0_Hv9Sh4jkRE7vyuEzv8ps", "plus_code": {"compound_code": "2XQM+MX Kuntirchar Pt.II, Assam, India", "global_code": "7MRF2XQM+MX"}, "reference": "ChIJm0_Hv9Sh4jkRE7vyuEzv8ps", "scope": "GOOGLE", "types": ["school", "point_of_interest", "establishment"], "vicinity": "Madrassa Miftahul uloom, Kuntirchar Pt.II"}, {"business_status": "OPERATIONAL", "geometry": {"location": {"lat": 26.0444566, "lng": 89.98837259999999}, "viewport": {"northeast": {"lat": 26.0458816802915, "lng": 89.98972158029149}, "southwest": {"lat": 26.0431837197085, "lng": 89.98702361970848}}}, "icon": "https://maps.gstatic.com/mapfiles/place_api/icons/v1/png_71/school-71.png", "icon_background_color": "#7B9EB0", "icon_mask_base_uri": "https://maps.gstatic.com/mapfiles/place_api/icons/v2/school_pinlet", "name": "221 No Pubpara LP School", "opening_hours": {"open_now": true}, "place_id": "ChIJRVaksDif4jkRqAlvx1Sl6nI", "reference": "ChIJRVaksDif4jkRqAlvx1Sl6nI", "scope": "GOOGLE", "types": ["school", "point_of_interest", "establishment"], "vicinity": "2XVQ+Q8Q, Kuntirchar Pt.I"}, {"business_status": "OPERATIONAL", "geometry": {"location": {"lat": 26.0372707, "lng": 89.9837495}, "viewport": {"northeast": {"lat": 26.04055899999999, "lng": 89.9874332}, "southwest": {"lat": 26.0361746, "lng": 89.98252160000001}}}, "icon": "https://maps.gstatic.com/mapfiles/place_api/icons/v1/png_71/school-71.png", "icon_background_color": "#7B9EB0", "icon_mask_base_uri": "https://maps.gstatic.com/mapfiles/place_api/icons/v2/school_pinlet", "name": "DUBAI CHAR M.E MADRASSA SCHOOL", "place_id": "ChIJR2Es9eqh4jkRaCXjiOeO42Y", "plus_code": {"compound_code": "2XPM+WF Kuntirchar Pt.II, Assam, India", "global_code": "7MRF2XPM+WF"}, "rating": 1, "reference": "ChIJR2Es9eqh4jkRaCXjiOeO42Y", "scope": "GOOGLE", "types": ["school", "point_of_interest", "establishment"], "user_ratings_total": 1, "vicinity": "Kuntirchar Pt.II"}, {"business_status": "OPERATIONAL", "geometry": {"location": {"lat": 26.0461762, "lng": 89.97954829999999}, "viewport": {"northeast": {"lat": 26.0475101802915, "lng": 89.98086648029151}, "southwest": {"lat": 26.0448122197085, "lng": 89.97816851970849}}}, "icon": "https://maps.gstatic.com/mapfiles/place_api/icons/v1/png_71/school-71.png", "icon_background_color": "#7B9EB0", "icon_mask_base_uri": "https://maps.gstatic.com/mapfiles/place_api/icons/v2/school_pinlet", "name": "Shahinur Hoque", "place_id": "ChIJ_Rotgnyf4jkRsFNKlLazxa4", "rating": 1, "reference": "ChIJ_Rotgnyf4jkRsFNKlLazxa4", "scope": "GOOGLE", "types": ["school", "point_of_interest", "establishment"], "user_ratings_total": 1, "vicinity": "2XWH+FRF, Folimari Pt. I"}, {"business_status": "OPERATIONAL", "geometry": {"location": {"lat": 26.0417401, "lng": 89.97614279999999}, "viewport": {"northeast": {"lat": 26.0432867802915, "lng": 89.9771511302915}, "southwest": {"lat": 26.0405888197085, "lng": 89.9744531697085}}}, "icon": "https://maps.gstatic.com/mapfiles/place_api/icons/v1/png_71/school-71.png", "icon_background_color": "#7B9EB0", "icon_mask_base_uri": "https://maps.gstatic.com/mapfiles/place_api/icons/v2/school_pinlet", "name": "falimari crc office", "opening_hours": {"open_now": true}, "photos": [{"height": 1970, "html_attributions": ["<a href=\"https://maps.google.com/maps/contrib/114284107787291137556\">status video DJ Roy</a>"], "photo_reference": "Aap_uEC4cusXVaXVC8j_Lv5bUYxL7tRBehrhq_UKLMLzIxjQPBGTrp-eWobh29-M82oId4FJ9GiTn2WvBDuYrtDjMnAHqTdOOW9XyiMrfmVKZ0lq0nILV-3BqJP61YL7imWyvnVkdJX_nJ7cmLbh2vydrzh2qQ_YnPXQH7k69OWe_2AlIvbT", "width": 4160}], "place_id": "ChIJW55ItbCf4jkRiktWkeyLRTc", "plus_code": {"compound_code": "2XRG+MF Dhubrichar, Assam, India", "global_code": "7MRF2XRG+MF"}, "rating": 5, "reference": "ChIJW55ItbCf4jkRiktWkeyLRTc", "scope": "GOOGLE", "types": ["school", "point_of_interest", "establishment"], "user_ratings_total": 1, "vicinity": "Falimari Natun Bazar, Dhubrichar"}, {"business_status": "OPERATIONAL", "geometry": {"location": {"lat": 26.036631, "lng": 89.9776864}, "viewport": {"northeast": {"lat": 26.0379808802915, "lng": 89.97904053029151}, "southwest": {"lat": 26.0352829197085, "lng": 89.9763425697085}}}, "icon": "https://maps.gstatic.com/mapfiles/place_api/icons/v1/png_71/school-71.png", "icon_background_color": "#7B9EB0", "icon_mask_base_uri": "https://maps.gstatic.com/mapfiles/place_api/icons/v2/school_pinlet", "name": "Falimari Jatiya Vidyalaya", "opening_hours": {"open_now": true}, "photos": [{"height": 3120, "html_attributions": ["<a href=\"https://maps.google.com/maps/contrib/111795677474882991723\">Maznu Ahmed</a>"], "photo_reference": "Aap_uEDfLCf-rj56LtmPFwgh8daKXx2vjgB-vPb2jG-s_SeRkz_tr_5C-JYDM9afC_0LPx9n1QY6ps-Fm7-lj0GghOu9MDEX1hIgMLFh0RZzvmpveeDChTwuEq9RrlQYau_1S_mPU_vrAdFpqRRNLOGmM8V6uyE-FGSWuW-ISRdeSfU-VZYV", "width": 4160}], "place_id": "ChIJO5HP2Kmh4jkR7PL9fFm14X4", "plus_code": {"compound_code": "2XPH+M3 Dhubrichar, Assam, India", "global_code": "7MRF2XPH+M3"}, "rating": 5, "reference": "ChIJO5HP2Kmh4jkR7PL9fFm14X4", "scope": "GOOGLE", "types": ["school", "point_of_interest", "establishment"], "user_ratings_total": 1, "vicinity": "Dhubrichar"}, {"business_status": "OPERATIONAL", "geometry": {"location": {"lat": 26.0520279, "lng": 89.9794075}, "viewport": {"northeast": {"lat": 26.0533776302915, "lng": 89.98075108029151}, "southwest": {"lat": 26.0506796697085, "lng": 89.9780531197085}}}, "icon": "https://maps.gstatic.com/mapfiles/place_api/icons/v1/png_71/school-71.png", "icon_background_color": "#7B9EB0", "icon_mask_base_uri": "https://maps.gstatic.com/mapfiles/place_api/icons/v2/school_pinlet", "name": "432 No Danirchar L.P. School", "opening_hours": {"open_now": true}, "photos": [{"height": 2448, "html_attributions": ["<a href=\"https://maps.google.com/maps/contrib/111795677474882991723\">Maznu Ahmed</a>"], "photo_reference": "Aap_uEBXEnE1Xb4F3FtpYz3cD-Jt4KKgrj1iPuhwzH-c-gRiDXvSQct64CcoY3cr_c3L2SA3Pn81k4fWsqB2fMQmKK4JeFtedb3MMlLYjzF9iKyfH6i3MEBjdSdGU7VqaDsXpv_jayy8BZ0NzxYY9d8ZmdcQaxH8WwXBu0jtfxZU36Csv1LX", "width": 3264}], "place_id": "ChIJl23Gc42f4jkREOgfzNoU2WA", "rating": 3, "reference": "ChIJl23Gc42f4jkREOgfzNoU2WA", "scope": "GOOGLE", "types": ["school", "point_of_interest", "establishment"], "user_ratings_total": 1, "vicinity": "3X2H+RQ7, Folimari Pt. I"}, {"business_status": "OPERATIONAL", "geometry": {"location": {"lat": 26.0520858, "lng": 89.97955309999999}, "viewport": {"northeast": {"lat": 26.0534379802915, "lng": 89.9808987802915}, "southwest": {"lat": 26.05074001970849, "lng": 89.97820081970849}}}, "icon": "https://maps.gstatic.com/mapfiles/place_api/icons/v1/png_71/school-71.png", "icon_background_color": "#7B9EB0", "icon_mask_base_uri": "https://maps.gstatic.com/mapfiles/place_api/icons/v2/school_pinlet", "name": "Folimari Miftahul Ullom Madrassa", "photos": [{"height": 2448, "html_attributions": ["<a href=\"https://maps.google.com/maps/contrib/111795677474882991723\">Maznu Ahmed</a>"], "photo_reference": "Aap_uEA23fIpohTL85koGOcNqer4tLV9jeZfBBubnoahufZel1Ms9MNGfX0aoKkJcAl1mqNDTPow7L1jQOzoORkV5TMsh5b6vQB8dUhyQAm8pQ5T8LdmjRt_xLXr9PHAjden91av0WssnOTS_qFC8iUGuugGkIzfNACxPqQV3p_JQ05iLNMg", "width": 3264}], "place_id": "ChIJpegcco2f4jkRNqKQ1c5ZvC8", "rating": 3, "reference": "ChIJpegcco2f4jkRNqKQ1c5ZvC8", "scope": "GOOGLE", "types": ["school", "point_of_interest", "establishment"], "user_ratings_total": 1, "vicinity": "3X2H+RRM, Folimari Pt. I"}, {"business_status": "OPERATIONAL", "geometry": {"location": {"lat": 26.0520467, "lng": 89.9790275}, "viewport": {"northeast": {"lat": 26.0533238302915, "lng": 89.98036483029149}, "southwest": {"lat": 26.0506258697085, "lng": 89.97766686970849}}}, "icon": "https://maps.gstatic.com/mapfiles/place_api/icons/v1/png_71/school-71.png", "icon_background_color": "#7B9EB0", "icon_mask_base_uri": "https://maps.gstatic.com/mapfiles/place_api/icons/v2/school_pinlet", "name": "Falimari M E School", "photos": [{"height": 1080, "html_attributions": ["<a href=\"https://maps.google.com/maps/contrib/104198720486433268362\">YT Express</a>"], "photo_reference": "Aap_uECnzhLsIIQGAfEPUajYl0kdOQlBpwW4sIwHCk_EplMZ-ADcDruJ3pyfGpGbMgK8d8dmTWHx9aGCBi4s08801-o9tVPj8Kel_qhbwh4PipcqjD-GRVCQr4Ro-OOoOeA2qJS85fkkfX8hgZA3f_nYJyk3z9W0FT3zIpMrllFx1Fhq7VZ3", "width": 1620}], "place_id": "ChIJqU6_-56f4jkRtNCPCtlFjVI", "plus_code": {"compound_code": "3X2H+RJ Folimari Pt. I, Assam, India", "global_code": "7MRF3X2H+RJ"}, "rating": 5, "reference": "ChIJqU6_-56f4jkRtNCPCtlFjVI", "scope": "GOOGLE", "types": ["school", "point_of_interest", "establishment"], "user_ratings_total": 1, "vicinity": "Folimari Road, Folimari Pt. I"}, {"business_status": "OPERATIONAL", "geometry": {"location": {"lat": 26.0534282, "lng": 89.9794636}, "viewport": {"northeast": {"lat": 26.0547760302915, "lng": 89.9807565302915}, "southwest": {"lat": 26.0520780697085, "lng": 89.9780585697085}}}, "icon": "https://maps.gstatic.com/mapfiles/place_api/icons/v1/png_71/school-71.png", "icon_background_color": "#7B9EB0", "icon_mask_base_uri": "https://maps.gstatic.com/mapfiles/place_api/icons/v2/school_pinlet", "name": "Falimari Sankar Azan Adarsha Vidyalaya", "opening_hours": {"open_now": true}, "photos": [{"height": 3000, "html_attributions": ["<a href=\"https://maps.google.com/maps/contrib/105969226591104808173\">Arif Mondal</a>"], "photo_reference": "Aap_uEB_GP7vvm8USwutGhN63Q-U10PP9PXZedCGrJNIp99tCdOvDy8ECu4GzxfH4cRgcGfBbRdLf5tCHZYNuQcgKF-jhC3BlIbjNPhOQxE3sxYjeJBaOWsd7swwkk-4CM46jnS2AH5wGiA3Vw7K3Buc3Dfw8HgIchIewh3ecE375iaqI8aY", "width": 3000}], "place_id": "ChIJR_yog5Kf4jkRX_tvSQciazY", "plus_code": {"compound_code": "3X3H+9Q Folimari Pt. I, Assam, India", "global_code": "7MRF3X3H+9Q"}, "rating": 4.9, "reference": "ChIJR_yog5Kf4jkRX_tvSQciazY", "scope": "GOOGLE", "types": ["school", "point_of_interest", "establishment"], "user_ratings_total": 8, "vicinity": "Vill- Falimari Pt-II P.O, Falimari"}, {"business_status": "OPERATIONAL", "geometry": {"location": {"lat": 26.0542671, "lng": 89.9823737}, "viewport": {"northeast": {"lat": 26.0555559802915, "lng": 89.98375768029149}, "southwest": {"lat": 26.05285801970849, "lng": 89.98105971970848}}}, "icon": "https://maps.gstatic.com/mapfiles/place_api/icons/v1/png_71/school-71.png", "icon_background_color": "#7B9EB0", "icon_mask_base_uri": "https://maps.gstatic.com/mapfiles/place_api/icons/v2/school_pinlet", "name": "Akonir Adarsha Vidyalaya", "opening_hours": {"open_now": true}, "photos": [{"height": 1280, "html_attributions": ["<a href=\"https://maps.google.com/maps/contrib/106343422859931453519\">Akonir Adarsha Vidyalaya</a>"], "photo_reference": "Aap_uEAonSLFtPbQodXCgLTyGsjGoQ-UkOhhUE99wGUri6SKejt9iTHmbOk1pHGGkDFCfkfOTxGZU8QisQK39fbavXiyxsE59c8BvROrUNbAtc-zA2bY7luojp7yGppLrEy-uE6Tz-azgjLuxxQh8iGwdvVUOEC-wQOpx9mVOfXmrE5PHzk", "width": 960}], "place_id": "ChIJv4kyQu2f4jkRauN4pBScIu4", "plus_code": {"compound_code": "3X3J+PW Folimari Pt.II, Assam, India", "global_code": "7MRF3X3J+PW"}, "rating": 3.5, "reference": "ChIJv4kyQu2f4jkRauN4pBScIu4", "scope": "GOOGLE", "types": ["school", "point_of_interest", "establishment"], "user_ratings_total": 2, "vicinity": "Pt-II, P.O, Falimari"}, {"business_status": "OPERATIONAL", "geometry": {"location": {"lat": 26.0299337, "lng": 89.9804065}, "viewport": {"northeast": {"lat": 26.0312826802915, "lng": 89.98175548029151}, "southwest": {"lat": 26.0285847197085, "lng": 89.9790575197085}}}, "icon": "https://maps.gstatic.com/mapfiles/place_api/icons/v1/png_71/school-71.png", "icon_background_color": "#7B9EB0", "icon_mask_base_uri": "https://maps.gstatic.com/mapfiles/place_api/icons/v2/school_pinlet", "name": "South Falimari LPS", "photos": [{"height": 1920, "html_attributions": ["<a href=\"https://maps.google.com/maps/contrib/108759897479816213739\">b2k prem</a>"], "photo_reference": "Aap_uECzDY46zYmAt3gW5XaZ0D_vcPRYLPiGHfQNLEBWDAJdf56JdicmgA0ZJ2UcjBKAK10ZsWwG0OPLnShfywf9hZtV5CnWt-WKIdOzQR8O-00b6ZJmfTSiAat8_6KFDbAEG0sEIVNE9stnfc3N6UCoy2W3XsJjCw-FONncywEZahpKqW9d", "width": 1080}], "place_id": "ChIJa-lB6Vyh4jkRbcsmAemIn_8", "plus_code": {"compound_code": "2XHJ+X5 Dhubrichar, Assam, India", "global_code": "7MRF2XHJ+X5"}, "reference": "ChIJa-lB6Vyh4jkRbcsmAemIn_8", "scope": "GOOGLE", "types": ["school", "point_of_interest", "establishment"], "vicinity": "Unnamed Road, Dhubrichar"}], "status": "OK"}