{"html_attributions": [], "results": [{"business_status": "OPERATIONAL", "geometry": {"location": {"lat": 25.8387841, "lng": 90.0038845}, "viewport": {"northeast": {"lat": 25.8401517302915, "lng": 90.00529138029151}, "southwest": {"lat": 25.8374537697085, "lng": 90.0025934197085}}}, "icon": "https://maps.gstatic.com/mapfiles/place_api/icons/v1/png_71/school-71.png", "icon_background_color": "#7B9EB0", "icon_mask_base_uri": "https://maps.gstatic.com/mapfiles/place_api/icons/v2/school_pinlet", "name": "Ghomaijora L. P. School", "photos": [{"height": 1944, "html_attributions": ["<a href=\"https://maps.google.com/maps/contrib/111963372606556996279\">C T K Marak</a>"], "photo_reference": "Aap_uEDe4xVj8DcvW-M8LF3obnHhAJf4_ZmMvQ_VsensKLh_BZ6POzERCgKBwUeiNX4a_RvhuHJxLZzk-E2wQRUugFndEtzgGhrn1hjZkRugnFeUCZ2DKmrfvZIHNS4HnRbw3R8DYWUyBSWMQxCjuToG4_N2jbWWPS4IZpWpNKKk9kUex0vH", "width": 2592}], "place_id": "ChIJJQ2TOPcHWDcRg0Kdgs6oV48", "reference": "ChIJJQ2TOPcHWDcRg0Kdgs6oV48", "scope": "GOOGLE", "types": ["primary_school", "school", "point_of_interest", "establishment"], "vicinity": "R2Q3+GH6, Gasbari"}, {"business_status": "OPERATIONAL", "geometry": {"location": {"lat": 25.8513772, "lng": 90.0036391}, "viewport": {"northeast": {"lat": 25.8526391302915, "lng": 90.00495058029149}, "southwest": {"lat": 25.84994116970849, "lng": 90.00225261970849}}}, "icon": "https://maps.gstatic.com/mapfiles/place_api/icons/v1/png_71/school-71.png", "icon_background_color": "#7B9EB0", "icon_mask_base_uri": "https://maps.gstatic.com/mapfiles/place_api/icons/v2/school_pinlet", "name": "Balukkandi M E School", "place_id": "ChIJfbVwVjYHWDcR_8y_nr3xEnQ", "rating": 5, "reference": "ChIJfbVwVjYHWDcR_8y_nr3xEnQ", "scope": "GOOGLE", "types": ["school", "point_of_interest", "establishment"], "user_ratings_total": 1, "vicinity": "V223+HF2, Rajabala Bhlukmari"}, {"business_status": "OPERATIONAL", "geometry": {"location": {"lat": 25.8512598, "lng": 89.9975223}, "viewport": {"northeast": {"lat": 25.8526475302915, "lng": 89.9987420802915}, "southwest": {"lat": 25.8499495697085, "lng": 89.9960441197085}}}, "icon": "https://maps.gstatic.com/mapfiles/place_api/icons/v1/png_71/school-71.png", "icon_background_color": "#7B9EB0", "icon_mask_base_uri": "https://maps.gstatic.com/mapfiles/place_api/icons/v2/school_pinlet", "name": "Sarkarer Gaon M E School", "place_id": "ChIJg_ctb9yp4jkRYOOPCoyWpOc", "reference": "ChIJg_ctb9yp4jkRYOOPCoyWpOc", "scope": "GOOGLE", "types": ["school", "point_of_interest", "establishment"], "vicinity": "VX2X+G22, Kawahagi"}, {"business_status": "OPERATIONAL", "geometry": {"location": {"lat": 25.8531513, "lng": 89.9978532}, "viewport": {"northeast": {"lat": 25.8545094302915, "lng": 89.99914443029151}, "southwest": {"lat": 25.8518114697085, "lng": 89.99644646970849}}}, "icon": "https://maps.gstatic.com/mapfiles/place_api/icons/v1/png_71/school-71.png", "icon_background_color": "#7B9EB0", "icon_mask_base_uri": "https://maps.gstatic.com/mapfiles/place_api/icons/v2/school_pinlet", "name": "South Salmara Junior College", "opening_hours": {"open_now": true}, "photos": [{"height": 4128, "html_attributions": ["<a href=\"https://maps.google.com/maps/contrib/102050293525214616747\">Monirul Islam</a>"], "photo_reference": "Aap_uEBR0vIRfIFyvfEqGq2ai2bKI2fxVUEQOnSB9WQOOrRLjy1IESCOlSsHDnclt49RFlFNqc6Ob75NbT50NykXi5VWKi32HOLb1fNkio-sTl5T7OUso-Zk0I5xFwcJMPTRMrSLsVLXLM-RbehRasgCqxZ_Ydu4ctHtVivgsIXNxlE7zVrt", "width": 2322}], "place_id": "ChIJDUZFzP-n4jkR3AgkhmeVNHk", "rating": 3.8, "reference": "ChIJDUZFzP-n4jkR3AgkhmeVNHk", "scope": "GOOGLE", "types": ["school", "point_of_interest", "establishment"], "user_ratings_total": 11, "vicinity": "VX3X+749, Tumni"}], "status": "OK"}