{"html_attributions": [], "results": [{"business_status": "OPERATIONAL", "geometry": {"location": {"lat": 25.9814968, "lng": 90.0032478}, "viewport": {"northeast": {"lat": 25.98249375, "lng": 90.00463885}, "southwest": {"lat": 25.97850594999999, "lng": 89.99907464999998}}}, "icon": "https://maps.gstatic.com/mapfiles/place_api/icons/v1/png_71/school-71.png", "icon_background_color": "#7B9EB0", "icon_mask_base_uri": "https://maps.gstatic.com/mapfiles/place_api/icons/v2/school_pinlet", "name": "Birshing Aminerchar M.E. Madrassa", "photos": [{"height": 3468, "html_attributions": ["<a href=\"https://maps.google.com/maps/contrib/105903519254633965039\">Hitler Rabha</a>"], "photo_reference": "Aap_uEA4AR8FhMwM43UG_rzrZcRNGeWtijMOHbgufhdvwVvzxaJuuc0qEPtPfhRrbyi92hSZ769G7DoEqeTjWgqBOnwknpSFvfeUra5vcUHngpyXKkuMscswvPxzjfuz9ECuT-nDB-f2gEEDuQ6zdhvTISqSS8fcBhXOlXWtf75siYQNboSh", "width": 4624}], "place_id": "ChIJk0NgLVoLWDcR0ufGwL3wKn8", "rating": 3, "reference": "ChIJk0NgLVoLWDcR0ufGwL3wKn8", "scope": "GOOGLE", "types": ["school", "point_of_interest", "establishment"], "user_ratings_total": 1, "vicinity": "X2J3+H7X, Birsing Pt.I"}, {"business_status": "OPERATIONAL", "geometry": {"location": {"lat": 25.980888, "lng": 90.00396099999999}, "viewport": {"northeast": {"lat": 25.98158055, "lng": 90.00570864999999}, "southwest": {"lat": 25.97881034999999, "lng": 89.99871805}}}, "icon": "https://maps.gstatic.com/mapfiles/place_api/icons/v1/png_71/school-71.png", "icon_background_color": "#7B9EB0", "icon_mask_base_uri": "https://maps.gstatic.com/mapfiles/place_api/icons/v2/school_pinlet", "name": "A K BEPARI MEMORIAL HIGH SCHOOL", "photos": [{"height": 4144, "html_attributions": ["<a href=\"https://maps.google.com/maps/contrib/108621543683606930616\">Nur Hossin</a>"], "photo_reference": "Aap_uEAbRil7n9kjEvE3TLd4VgB5DVe3J0R6ONz5wsAA5FWrHVxx8x-GsnTHbghL4MROi6opFeT1IBJ3HaOa7ZZDIqcbYkwlQ053Q7sSQyCK_wJ_qaO-a2hybpGgZa9vmRPZraFxOWiY1vlh6QGpjjZCZweC_YFuMug62wqvFsHZ9YvJFKyy", "width": 1968}], "place_id": "ChIJsYUMdP8LWDcR7GQjnuuxwjk", "rating": 3, "reference": "ChIJsYUMdP8LWDcR7GQjnuuxwjk", "scope": "GOOGLE", "types": ["school", "point_of_interest", "establishment"], "user_ratings_total": 3, "vicinity": "X2J3+9H4, Birsing Pt.I"}, {"business_status": "OPERATIONAL", "geometry": {"location": {"lat": 25.9809278, "lng": 90.0032612}, "viewport": {"northeast": {"lat": 25.98164025, "lng": 90.00465895}, "southwest": {"lat": 25.97879044999999, "lng": 89.99906794999998}}}, "icon": "https://maps.gstatic.com/mapfiles/place_api/icons/v1/png_71/school-71.png", "icon_background_color": "#7B9EB0", "icon_mask_base_uri": "https://maps.gstatic.com/mapfiles/place_api/icons/v2/school_pinlet", "name": "Birshing Jatio Biddalya", "place_id": "ChIJC_pRy90LWDcRjgvGJB3IYSc", "plus_code": {"compound_code": "X2J3+98 Birsing Pt.I, Assam, India", "global_code": "7MQGX2J3+98"}, "rating": 2, "reference": "ChIJC_pRy90LWDcRjgvGJB3IYSc", "scope": "GOOGLE", "types": ["school", "point_of_interest", "establishment"], "user_ratings_total": 1, "vicinity": "birsing pt.ll po+ps fakirganj"}, {"business_status": "OPERATIONAL", "geometry": {"location": {"lat": 25.9807894, "lng": 90.004421}, "viewport": {"northeast": {"lat": 25.9814951302915, "lng": 90.00639865000001}, "southwest": {"lat": 25.97879716970849, "lng": 89.99848804999999}}}, "icon": "https://maps.gstatic.com/mapfiles/place_api/icons/v1/png_71/school-71.png", "icon_background_color": "#7B9EB0", "icon_mask_base_uri": "https://maps.gstatic.com/mapfiles/place_api/icons/v2/school_pinlet", "name": "KOSTURABA GANDHI BALIKA VIDYALAYA (\u0995\u09b8\u09cd\u09a4\u09c1\u09f0\u09ac\u09be \u0997\u09be\u09a8\u09cd\u09a7\u09c0 \u09ac\u09be\u09b2\u09bf\u0995\u09be \u09ac\u09bf\u09a6\u09cd\u09af\u09be\u09b2\u09af\u09bc)", "place_id": "ChIJ_eSgZZoLWDcROMjuk1K0jhM", "rating": 5, "reference": "ChIJ_eSgZZoLWDcROMjuk1K0jhM", "scope": "GOOGLE", "types": ["school", "point_of_interest", "establishment"], "user_ratings_total": 1, "vicinity": "X2J3+8Q7, Birsing Pt.I"}, {"business_status": "OPERATIONAL", "geometry": {"location": {"lat": 25.98670790000001, "lng": 90.0151568}, "viewport": {"northeast": {"lat": 25.98805688029151, "lng": 90.01650578029151}, "southwest": {"lat": 25.9853589197085, "lng": 90.01380781970849}}}, "icon": "https://maps.gstatic.com/mapfiles/place_api/icons/v1/png_71/school-71.png", "icon_background_color": "#7B9EB0", "icon_mask_base_uri": "https://maps.gstatic.com/mapfiles/place_api/icons/v2/school_pinlet", "name": "S.B-R.BBhawan", "photos": [{"height": 4000, "html_attributions": ["<a href=\"https://maps.google.com/maps/contrib/109621871590698266469\">Sekander Badsha</a>"], "photo_reference": "Aap_uEANQr3Dfo6YZm0YQgC-xfJSCXPB4XpwmEa_EWK8wYACyFtyK8yO0tow0w6Ummw04dCxGjHHjzThWiQ-v_gJh6JVDD89Bc9zDq954VuaTnzKMzWl3ASwas43TOpfg3bcDnGTTGMI7RqpvPYBitJmMp8gqf2RBr7e8JdgrZRx1uAkY0c1", "width": 3000}], "place_id": "ChIJ-YQzGHgLWDcRtl1NFK2UJ1g", "reference": "ChIJ-YQzGHgLWDcRtl1NFK2UJ1g", "scope": "GOOGLE", "types": ["school", "point_of_interest", "establishment"], "vicinity": "X2P8+M3M, Birsing Pt.III"}], "status": "OK"}