{"html_attributions": [], "results": [{"business_status": "OPERATIONAL", "geometry": {"location": {"lat": 26.1277527, "lng": 90.0148846}, "viewport": {"northeast": {"lat": 26.1289867802915, "lng": 90.01625103029151}, "southwest": {"lat": 26.1262888197085, "lng": 90.0135530697085}}}, "icon": "https://maps.gstatic.com/mapfiles/place_api/icons/v1/png_71/school-71.png", "icon_background_color": "#7B9EB0", "icon_mask_base_uri": "https://maps.gstatic.com/mapfiles/place_api/icons/v2/school_pinlet", "name": "1314 No Dampur LP School", "place_id": "ChIJT0tg4xR1WDcRs5sUmnBtC5g", "reference": "ChIJT0tg4xR1WDcRs5sUmnBtC5g", "scope": "GOOGLE", "types": ["school", "point_of_interest", "establishment"], "vicinity": "42H7+4X2, Dampur- II"}, {"business_status": "OPERATIONAL", "geometry": {"location": {"lat": 26.124979, "lng": 90.0347718}, "viewport": {"northeast": {"lat": 26.12630603029151, "lng": 90.0360241302915}, "southwest": {"lat": 26.1236080697085, "lng": 90.03332616970849}}}, "icon": "https://maps.gstatic.com/mapfiles/place_api/icons/v1/png_71/school-71.png", "icon_background_color": "#7B9EB0", "icon_mask_base_uri": "https://maps.gstatic.com/mapfiles/place_api/icons/v2/school_pinlet", "name": "2100 No. Rahim Box L.P School", "photos": [{"height": 8000, "html_attributions": ["<a href=\"https://maps.google.com/maps/contrib/111646938571039181973\">Abu Ahmed</a>"], "photo_reference": "Aap_uEBH8VtW61qc7njXjbWXw4MFenhajdmdVBVgAbMx7wHP3UfutPifSYDLmnutkb0JPJ5gIBLpp6NlsQMOTgBqBIk4qIzDsoS1HSCmIbUkRb6vjW94A32bSnCJnWvmHiYNaI4EIQ5bOsas16dwJQ1TkyywoPMLUOCrPC47Ot3gzjOcs8FI", "width": 6000}], "place_id": "ChIJqT5F2R91WDcR5qZc9iBqeYA", "plus_code": {"compound_code": "42FM+XW Alomganj Pt.II, Assam, India", "global_code": "7MRG42FM+XW"}, "rating": 5, "reference": "ChIJqT5F2R91WDcR5qZc9iBqeYA", "scope": "GOOGLE", "types": ["school", "point_of_interest", "establishment"], "user_ratings_total": 1, "vicinity": "Alomganj Pt.II"}, {"business_status": "OPERATIONAL", "geometry": {"location": {"lat": 26.1133177, "lng": 90.01726599999999}, "viewport": {"northeast": {"lat": 26.1145940302915, "lng": 90.01861173029151}, "southwest": {"lat": 26.1118960697085, "lng": 90.0159137697085}}}, "icon": "https://maps.gstatic.com/mapfiles/place_api/icons/v1/png_71/school-71.png", "icon_background_color": "#7B9EB0", "icon_mask_base_uri": "https://maps.gstatic.com/mapfiles/place_api/icons/v2/school_pinlet", "name": "Geramari ME School", "photos": [{"height": 1080, "html_attributions": ["<a href=\"https://maps.google.com/maps/contrib/112585526476590918921\">dettreeger geming</a>"], "photo_reference": "Aap_uED5pcrCCYPAHjXUdUfeb-6-JFs5tqUJSFTvEuRUB_CeJDHO50NtfFUlU2zH-JJEhLGvTmjZFKO8lHXroYo14uRm4mtQ2hwbrQ7SbcyED8_0kdxrMVkVhkNiXc6P_jbN41U80Pf3-5umJeQWlxafHbzUOUxDwXyT3AufzPIpUW-baGUc", "width": 1920}], "place_id": "ChIJdWqVxup1WDcRntzRwpfsWR0", "plus_code": {"compound_code": "4278+8W Geramari Pt.V, Assam, India", "global_code": "7MRG4278+8W"}, "rating": 4, "reference": "ChIJdWqVxup1WDcRntzRwpfsWR0", "scope": "GOOGLE", "types": ["school", "point_of_interest", "establishment"], "user_ratings_total": 10, "vicinity": "Geramari Pt.V"}, {"business_status": "OPERATIONAL", "geometry": {"location": {"lat": 26.1327193, "lng": 90.02656329999999}, "viewport": {"northeast": {"lat": 26.1343611302915, "lng": 90.0279963302915}, "southwest": {"lat": 26.1316631697085, "lng": 90.0252983697085}}}, "icon": "https://maps.gstatic.com/mapfiles/place_api/icons/v1/png_71/school-71.png", "icon_background_color": "#7B9EB0", "icon_mask_base_uri": "https://maps.gstatic.com/mapfiles/place_api/icons/v2/school_pinlet", "name": "Rangamati High School", "place_id": "ChIJLXDWxtl1WDcRNwuDY-3JH1k", "plus_code": {"compound_code": "42MG+3J Alomganj, Assam, India", "global_code": "7MRG42MG+3J"}, "rating": 3, "reference": "ChIJLXDWxtl1WDcRNwuDY-3JH1k", "scope": "GOOGLE", "types": ["school", "point_of_interest", "establishment"], "user_ratings_total": 2, "vicinity": "NH 31, Alomganj"}, {"business_status": "OPERATIONAL", "geometry": {"location": {"lat": 26.1328367, "lng": 90.0271728}, "viewport": {"northeast": {"lat": 26.1343573302915, "lng": 90.0285710802915}, "southwest": {"lat": 26.1316593697085, "lng": 90.02587311970848}}}, "icon": "https://maps.gstatic.com/mapfiles/place_api/icons/v1/png_71/school-71.png", "icon_background_color": "#7B9EB0", "icon_mask_base_uri": "https://maps.gstatic.com/mapfiles/place_api/icons/v2/school_pinlet", "name": "FAKURUDDIN ALI AHMED Memorial Alomganj HIGH SCHOOL", "opening_hours": {"open_now": true}, "place_id": "ChIJ47KNzNl1WDcRmMCITtp-CpU", "rating": 4.5, "reference": "ChIJ47KNzNl1WDcRmMCITtp-CpU", "scope": "GOOGLE", "types": ["secondary_school", "school", "point_of_interest", "establishment"], "user_ratings_total": 2, "vicinity": "42MG+4VM, Ramsarobar"}, {"business_status": "OPERATIONAL", "geometry": {"location": {"lat": 26.1330118, "lng": 90.0265086}, "viewport": {"northeast": {"lat": 26.1345224302915, "lng": 90.02790398029151}, "southwest": {"lat": 26.1318244697085, "lng": 90.02520601970849}}}, "icon": "https://maps.gstatic.com/mapfiles/place_api/icons/v1/png_71/school-71.png", "icon_background_color": "#7B9EB0", "icon_mask_base_uri": "https://maps.gstatic.com/mapfiles/place_api/icons/v2/school_pinlet", "name": "F A Memorial High School Alomganj", "photos": [{"height": 3000, "html_attributions": ["<a href=\"https://maps.google.com/maps/contrib/108280553650421378644\">Rafiqul Islam Khan</a>"], "photo_reference": "Aap_uEALVJbhI6SlJP0NUVADmauoP1nMHI6JwMQSrTg5BNFAca7AkRG3AL7er4G-jt9kL3SmZNU3aJ922PcZVTBIWtttreY-AZm3rsvCiHiAkHvVxiM6bGgEzvvWk9TECjuljW8OKfqLWSHfMFF_6ANbFJmGjKqeCDVjDw20mXGL9H8iGVL0", "width": 4000}], "place_id": "ChIJs6-uTNh1WDcR-iB7goBMeSs", "rating": 3.4, "reference": "ChIJs6-uTNh1WDcR-iB7goBMeSs", "scope": "GOOGLE", "types": ["school", "point_of_interest", "establishment"], "user_ratings_total": 11, "vicinity": "42MG+6J2, Ramsarobar"}, {"business_status": "OPERATIONAL", "geometry": {"location": {"lat": 26.1329529, "lng": 90.027442}, "viewport": {"northeast": {"lat": 26.1343884302915, "lng": 90.02882028029151}, "southwest": {"lat": 26.1316904697085, "lng": 90.02612231970849}}}, "icon": "https://maps.gstatic.com/mapfiles/place_api/icons/v1/png_71/school-71.png", "icon_background_color": "#7B9EB0", "icon_mask_base_uri": "https://maps.gstatic.com/mapfiles/place_api/icons/v2/school_pinlet", "name": "1469 No Alomganj Tarialbal . L. P. school", "place_id": "ChIJf2yOad51WDcRUbkn4JnAlJs", "reference": "ChIJf2yOad51WDcRUbkn4JnAlJs", "scope": "GOOGLE", "types": ["school", "point_of_interest", "establishment"], "vicinity": "42MG+5XP, Alomganj"}, {"business_status": "OPERATIONAL", "geometry": {"location": {"lat": 26.1337779, "lng": 90.0218617}, "viewport": {"northeast": {"lat": 26.1355009802915, "lng": 90.02329798029152}, "southwest": {"lat": 26.1328030197085, "lng": 90.0206000197085}}}, "icon": "https://maps.gstatic.com/mapfiles/place_api/icons/v1/png_71/school-71.png", "icon_background_color": "#7B9EB0", "icon_mask_base_uri": "https://maps.gstatic.com/mapfiles/place_api/icons/v2/school_pinlet", "name": "N.u. Talukdar", "photos": [{"height": 611, "html_attributions": ["<a href=\"https://maps.google.com/maps/contrib/117022340687668210002\">N.u. Talukdar</a>"], "photo_reference": "Aap_uEBy-UXYCFp8evOghboIWC9UK-NJ8RHG0H4X9I9TsGRqkmbK0IqRcLhZtbu12L6yXvmQzxvRdw3kwpZa3e2BibQj0udqU-DOsi-Xh7rX1Fo2Ci8JHvhOoAWmoxEknMzrg6JSQ52XCx_Yfh8ddTVtcHPvhrGEeW5rRnj5gMGrB78SQBo0", "width": 480}], "place_id": "ChIJGcpuOxB1WDcRQU0bZnKi2dM", "reference": "ChIJGcpuOxB1WDcRQU0bZnKi2dM", "scope": "GOOGLE", "types": ["school", "point_of_interest", "establishment"], "vicinity": "42MC+GP9, Thuria Pahar"}, {"business_status": "OPERATIONAL", "geometry": {"location": {"lat": 26.1337758, "lng": 90.0270273}, "viewport": {"northeast": {"lat": 26.1348719302915, "lng": 90.0283036802915}, "southwest": {"lat": 26.1321739697085, "lng": 90.0256057197085}}}, "icon": "https://maps.gstatic.com/mapfiles/place_api/icons/v1/png_71/school-71.png", "icon_background_color": "#7B9EB0", "icon_mask_base_uri": "https://maps.gstatic.com/mapfiles/place_api/icons/v2/school_pinlet", "name": "Roshinur hoque", "place_id": "ChIJlWA84gN1WDcRno8LyW8UzJo", "reference": "ChIJlWA84gN1WDcRno8LyW8UzJo", "scope": "GOOGLE", "types": ["school", "point_of_interest", "establishment"], "vicinity": "42MG+GR6, Alomganj Pt.III"}], "status": "OK"}