{"html_attributions": [], "results": [{"business_status": "OPERATIONAL", "geometry": {"location": {"lat": 26.41168, "lng": 90.027677}, "viewport": {"northeast": {"lat": 26.41304543029151, "lng": 90.0290310302915}, "southwest": {"lat": 26.4103474697085, "lng": 90.0263330697085}}}, "icon": "https://maps.gstatic.com/mapfiles/place_api/icons/v1/png_71/school-71.png", "icon_background_color": "#7B9EB0", "icon_mask_base_uri": "https://maps.gstatic.com/mapfiles/place_api/icons/v2/school_pinlet", "name": "Hongshobil Bazar", "opening_hours": {"open_now": true}, "photos": [{"height": 1280, "html_attributions": ["<a href=\"https://maps.google.com/maps/contrib/110062199333305694030\">Sohid Ali</a>"], "photo_reference": "Aap_uECNDVSPdgxghGaOkGhVtkQotDySg0FvVvKoqskP79X4uDD-DjGX9B4CsHG6RoZ8m_YRuUPehd5xEYYLezp4Ou3aedYtoP-3qiJT-ezmJnzK8qTnQRaZiTlOtNZua7NzaY5ONa3eAcWI5tQparXe9Gyls2fCmDYSAvGwWCzwqI41PrFI", "width": 960}], "place_id": "ChIJiYr5c9p_WDcRKWsKUjS46ho", "plus_code": {"compound_code": "C26H+M3 Thuribari, Assam, India", "global_code": "7MRGC26H+M3"}, "rating": 4, "reference": "ChIJiYr5c9p_WDcRKWsKUjS46ho", "scope": "GOOGLE", "types": ["school", "point_of_interest", "establishment"], "user_ratings_total": 1, "vicinity": "783360, Unnamed Bye Lane, Mayapuri, Bongaigaon"}, {"business_status": "OPERATIONAL", "geometry": {"location": {"lat": 26.41062119999999, "lng": 90.0263812}, "viewport": {"northeast": {"lat": 26.4119470802915, "lng": 90.02816648029152}, "southwest": {"lat": 26.40924911970849, "lng": 90.0254685197085}}}, "icon": "https://maps.gstatic.com/mapfiles/place_api/icons/v1/png_71/school-71.png", "icon_background_color": "#7B9EB0", "icon_mask_base_uri": "https://maps.gstatic.com/mapfiles/place_api/icons/v2/school_pinlet", "name": "Hongshobil M E School", "photos": [{"height": 1918, "html_attributions": ["<a href=\"https://maps.google.com/maps/contrib/106866041153444603438\">abdul shohid</a>"], "photo_reference": "Aap_uECRlc-1j5PKA2BkJxw8qJ-LT3Y7dMOO-IGL_F8pdQuQ1-60M1Ysds_FswhQL5mX8aI50VsPOfSi74yu0TwiB3gQNyvGzcsOQGNEe69tgQLQpR5G2HQjrBjf7hO0lRGpSC8cx47NU4ap6IAM7czMz4UwG_bzGaRwA6hRZmT0N19MeaVK", "width": 2048}], "place_id": "ChIJAd7Qc0Z_WDcRuGf4vZLZPmI", "plus_code": {"compound_code": "C26G+6H Madati, Assam, India", "global_code": "7MRGC26G+6H"}, "rating": 2, "reference": "ChIJAd7Qc0Z_WDcRuGf4vZLZPmI", "scope": "GOOGLE", "types": ["school", "point_of_interest", "establishment"], "user_ratings_total": 1, "vicinity": "Hongshabil Mean Road"}, {"business_status": "OPERATIONAL", "geometry": {"location": {"lat": 26.4336773, "lng": 90.0216142}, "viewport": {"northeast": {"lat": 26.4349531302915, "lng": 90.0226016802915}, "southwest": {"lat": 26.4322551697085, "lng": 90.0199037197085}}}, "icon": "https://maps.gstatic.com/mapfiles/place_api/icons/v1/png_71/school-71.png", "icon_background_color": "#7B9EB0", "icon_mask_base_uri": "https://maps.gstatic.com/mapfiles/place_api/icons/v2/school_pinlet", "name": "Guabari M.E School", "place_id": "ChIJmZrCsW2AWDcRppXw0UckLbs", "rating": 4, "reference": "ChIJmZrCsW2AWDcRppXw0UckLbs", "scope": "GOOGLE", "types": ["school", "point_of_interest", "establishment"], "user_ratings_total": 1, "vicinity": "C2MC+FJH, Guwabari"}, {"business_status": "OPERATIONAL", "geometry": {"location": {"lat": 26.4100831, "lng": 90.0263329}, "viewport": {"northeast": {"lat": 26.4114350802915, "lng": 90.02813018029151}, "southwest": {"lat": 26.4087371197085, "lng": 90.02543221970849}}}, "icon": "https://maps.gstatic.com/mapfiles/place_api/icons/v1/png_71/school-71.png", "icon_background_color": "#7B9EB0", "icon_mask_base_uri": "https://maps.gstatic.com/mapfiles/place_api/icons/v2/school_pinlet", "name": "Hongshobil LP School", "place_id": "ChIJq5n4idJ_WDcRxeX6KA8Spig", "reference": "ChIJq5n4idJ_WDcRxeX6KA8Spig", "scope": "GOOGLE", "types": ["school", "point_of_interest", "establishment"], "vicinity": "C26G+2GP, Hongshobil, Gossaigaon"}], "status": "OK"}