{"html_attributions": [], "results": [{"business_status": "OPERATIONAL", "geometry": {"location": {"lat": 25.5384954, "lng": 90.04198769999999}, "viewport": {"northeast": {"lat": 25.5398443802915, "lng": 90.04333668029149}, "southwest": {"lat": 25.5371464197085, "lng": 90.04063871970848}}}, "icon": "https://maps.gstatic.com/mapfiles/place_api/icons/v1/png_71/school-71.png", "icon_background_color": "#7B9EB0", "icon_mask_base_uri": "https://maps.gstatic.com/mapfiles/place_api/icons/v2/school_pinlet", "name": "Jongdikgre LP School", "place_id": "ChIJt4uodcL9VzcRapCj_IuH2IY", "reference": "ChIJt4uodcL9VzcRapCj_IuH2IY", "scope": "GOOGLE", "types": ["school", "point_of_interest", "establishment"], "vicinity": "G2QR+9QX, Rangsakona"}, {"business_status": "OPERATIONAL", "geometry": {"location": {"lat": 25.5375032, "lng": 90.0324526}, "viewport": {"northeast": {"lat": 25.5383300302915, "lng": 90.03358108029151}, "southwest": {"lat": 25.5356320697085, "lng": 90.0308831197085}}}, "icon": "https://maps.gstatic.com/mapfiles/place_api/icons/v1/png_71/school-71.png", "icon_background_color": "#7B9EB0", "icon_mask_base_uri": "https://maps.gstatic.com/mapfiles/place_api/icons/v2/school_pinlet", "name": "Rangsakona Higher Secondary School", "place_id": "ChIJpSa1qbj9VzcRAS2eGDGiqww", "plus_code": {"compound_code": "G2QJ+2X Rangsakona, Meghalaya, India", "global_code": "7MQGG2QJ+2X"}, "reference": "ChIJpSa1qbj9VzcRAS2eGDGiqww", "scope": "GOOGLE", "types": ["school", "point_of_interest", "establishment"], "vicinity": "Rangsakona Road, Rangsakona"}, {"business_status": "OPERATIONAL", "geometry": {"location": {"lat": 25.5375032, "lng": 90.0324526}, "viewport": {"northeast": {"lat": 25.5383300302915, "lng": 90.03358108029151}, "southwest": {"lat": 25.5356320697085, "lng": 90.0308831197085}}}, "icon": "https://maps.gstatic.com/mapfiles/place_api/icons/v1/png_71/school-71.png", "icon_background_color": "#7B9EB0", "icon_mask_base_uri": "https://maps.gstatic.com/mapfiles/place_api/icons/v2/school_pinlet", "name": "Rangsakona Deficit Secondary School", "photos": [{"height": 4128, "html_attributions": ["<a href=\"https://maps.google.com/maps/contrib/101948657383378089053\">Sengban Marak</a>"], "photo_reference": "Aap_uEA1C_y2lJq6VSBSirHgL7J20INnJbwHPdQbMHYd_Vs8yDo7XXbMHWmPVW2AjTpb-QrPIrdzTNFZe9Oj9udN1pDULrikqKpcQLhQJs1XWwpmhbhLN1sPVb5MvIEWaz88MnWQE0Wij2GFDpM2fDggcAD1ZetdZnS9UHY8XEZnwxRTaJKp", "width": 3096}], "place_id": "ChIJy7IkWbH9VzcRDoOwamefTag", "plus_code": {"compound_code": "G2QJ+2X Rangsakona, Meghalaya, India", "global_code": "7MQGG2QJ+2X"}, "rating": 4, "reference": "ChIJy7IkWbH9VzcRDoOwamefTag", "scope": "GOOGLE", "types": ["school", "point_of_interest", "establishment"], "user_ratings_total": 1, "vicinity": "Rangsakona Road, Rangsakona"}], "status": "OK"}