{"html_attributions": [], "results": [{"business_status": "OPERATIONAL", "geometry": {"location": {"lat": 25.7983094, "lng": 90.0546691}, "viewport": {"northeast": {"lat": 25.7995546802915, "lng": 90.05636203029151}, "southwest": {"lat": 25.7968567197085, "lng": 90.0536640697085}}}, "icon": "https://maps.gstatic.com/mapfiles/place_api/icons/v1/png_71/school-71.png", "icon_background_color": "#7B9EB0", "icon_mask_base_uri": "https://maps.gstatic.com/mapfiles/place_api/icons/v2/school_pinlet", "name": "Euro Kids School", "place_id": "ChIJ2RxAEtUHWDcRpns35dsf0cQ", "reference": "ChIJ2RxAEtUHWDcRpns35dsf0cQ", "scope": "GOOGLE", "types": ["school", "point_of_interest", "establishment"], "vicinity": "Q3X3+8VF, Mengkakgiri"}, {"business_status": "OPERATIONAL", "geometry": {"location": {"lat": 25.7983882, "lng": 90.0551174}, "viewport": {"northeast": {"lat": 25.7996900802915, "lng": 90.05662193029151}, "southwest": {"lat": 25.7969921197085, "lng": 90.0539239697085}}}, "icon": "https://maps.gstatic.com/mapfiles/place_api/icons/v1/png_71/school-71.png", "icon_background_color": "#7B9EB0", "icon_mask_base_uri": "https://maps.gstatic.com/mapfiles/place_api/icons/v2/school_pinlet", "name": "Rongadatgre Euro Kids School", "place_id": "ChIJpWB_XPMGWDcRvh00YVt_kQs", "reference": "ChIJpWB_XPMGWDcRvh00YVt_kQs", "scope": "GOOGLE", "types": ["school", "point_of_interest", "establishment"], "vicinity": "Q3X4+925, Mengkakgiri"}, {"business_status": "OPERATIONAL", "geometry": {"location": {"lat": 25.7985721, "lng": 90.05629119999999}, "viewport": {"northeast": {"lat": 25.8000336302915, "lng": 90.0575518802915}, "southwest": {"lat": 25.7973356697085, "lng": 90.05485391970849}}}, "icon": "https://maps.gstatic.com/mapfiles/place_api/icons/v1/png_71/school-71.png", "icon_background_color": "#7B9EB0", "icon_mask_base_uri": "https://maps.gstatic.com/mapfiles/place_api/icons/v2/school_pinlet", "name": "Thakimagri Govt.Aid High School", "photos": [{"height": 2448, "html_attributions": ["<a href=\"https://maps.google.com/maps/contrib/107337355959554236675\">Degrikra Sangma</a>"], "photo_reference": "Aap_uEDCdq5GCDbyTxLxMUU1bwQUsd5k72Bz7uG41xYZKfJixr5c9Cpp4_HI-6WTdmxkPcziLJTHSDTShu-o93eAfTQFyXwlavnnY-dJ6n2H55JaZ-ldoMgCeCsmK0EMcC1sZ4Ie_iiOqliduT36edQ6-joajPl3GoTqgMtO_iSiltkPK87R", "width": 3264}], "place_id": "ChIJIb9VqYwGWDcRPCWvecsNbt4", "rating": 4, "reference": "ChIJIb9VqYwGWDcRPCWvecsNbt4", "scope": "GOOGLE", "types": ["school", "point_of_interest", "establishment"], "user_ratings_total": 1, "vicinity": "Q3X4+CGF, Thakimagri"}, {"business_status": "OPERATIONAL", "geometry": {"location": {"lat": 25.7985159, "lng": 90.05638239999999}, "viewport": {"northeast": {"lat": 25.8000155302915, "lng": 90.0576132302915}, "southwest": {"lat": 25.7973175697085, "lng": 90.05491526970849}}}, "icon": "https://maps.gstatic.com/mapfiles/place_api/icons/v1/png_71/school-71.png", "icon_background_color": "#7B9EB0", "icon_mask_base_uri": "https://maps.gstatic.com/mapfiles/place_api/icons/v2/school_pinlet", "name": "Thakimagre U.P and S.E.C School", "place_id": "ChIJaRTProwGWDcRinUq7iEmGFY", "reference": "ChIJaRTProwGWDcRinUq7iEmGFY", "scope": "GOOGLE", "types": ["school", "point_of_interest", "establishment"], "vicinity": "Q3X4+CH2, Mengkakgiri"}], "status": "OK"}