{"html_attributions": [], "results": [{"business_status": "OPERATIONAL", "geometry": {"location": {"lat": 26.064278, "lng": 90.0383566}, "viewport": {"northeast": {"lat": 26.0654440802915, "lng": 90.03970568029152}, "southwest": {"lat": 26.0627461197085, "lng": 90.0370077197085}}}, "icon": "https://maps.gstatic.com/mapfiles/place_api/icons/v1/png_71/school-71.png", "icon_background_color": "#7B9EB0", "icon_mask_base_uri": "https://maps.gstatic.com/mapfiles/place_api/icons/v2/school_pinlet", "name": "HBepari M.E School", "place_id": "ChIJJSV_6N90WDcRothS7y5Vvmo", "reference": "ChIJJSV_6N90WDcRothS7y5Vvmo", "scope": "GOOGLE", "types": ["school", "point_of_interest", "establishment"], "vicinity": "327Q+P89, Chalakura Payastichar"}, {"business_status": "OPERATIONAL", "geometry": {"location": {"lat": 26.0644849, "lng": 90.0383432}, "viewport": {"northeast": {"lat": 26.0657430802915, "lng": 90.03942758029152}, "southwest": {"lat": 26.06304511970849, "lng": 90.0367296197085}}}, "icon": "https://maps.gstatic.com/mapfiles/place_api/icons/v1/png_71/school-71.png", "icon_background_color": "#7B9EB0", "icon_mask_base_uri": "https://maps.gstatic.com/mapfiles/place_api/icons/v2/school_pinlet", "name": "Majerchar Chalakura M.E School,Dhubri", "place_id": "ChIJ6dEB5990WDcRZGUvcaza_ZM", "reference": "ChIJ6dEB5990WDcRZGUvcaza_ZM", "scope": "GOOGLE", "types": ["school", "point_of_interest", "establishment"], "vicinity": "327Q+Q8W, Chalakura Payastichar"}, {"business_status": "OPERATIONAL", "geometry": {"location": {"lat": 26.0650514, "lng": 90.0502247}, "viewport": {"northeast": {"lat": 26.0663446802915, "lng": 90.05176698029152}, "southwest": {"lat": 26.0636467197085, "lng": 90.0490690197085}}}, "icon": "https://maps.gstatic.com/mapfiles/place_api/icons/v1/png_71/school-71.png", "icon_background_color": "#7B9EB0", "icon_mask_base_uri": "https://maps.gstatic.com/mapfiles/place_api/icons/v2/school_pinlet", "name": "Madrasa darul uloom majerchar", "place_id": "ChIJq8urFIR1WDcRXgvkyI45Jbw", "reference": "ChIJq8urFIR1WDcRXgvkyI45Jbw", "scope": "GOOGLE", "types": ["school", "point_of_interest", "establishment"], "vicinity": "3382+23H, Bhelanga Mari"}, {"business_status": "OPERATIONAL", "geometry": {"location": {"lat": 26.0668169, "lng": 90.05053889999999}, "viewport": {"northeast": {"lat": 26.0681402302915, "lng": 90.0521400802915}, "southwest": {"lat": 26.0654422697085, "lng": 90.04944211970849}}}, "icon": "https://maps.gstatic.com/mapfiles/place_api/icons/v1/png_71/school-71.png", "icon_background_color": "#7B9EB0", "icon_mask_base_uri": "https://maps.gstatic.com/mapfiles/place_api/icons/v2/school_pinlet", "name": "Majerchar Katlamari High School,Dhubri", "place_id": "ChIJYWfDk-l0WDcRsnGGaPmhrfw", "rating": 5, "reference": "ChIJYWfDk-l0WDcRsnGGaPmhrfw", "scope": "GOOGLE", "types": ["school", "point_of_interest", "establishment"], "user_ratings_total": 1, "vicinity": "3382+P6F, Bhelanga Mari"}, {"business_status": "OPERATIONAL", "geometry": {"location": {"lat": 26.0667717, "lng": 90.0507142}, "viewport": {"northeast": {"lat": 26.06810413029149, "lng": 90.0522260302915}, "southwest": {"lat": 26.06540616970849, "lng": 90.04952806970849}}}, "icon": "https://maps.gstatic.com/mapfiles/place_api/icons/v1/png_71/school-71.png", "icon_background_color": "#7B9EB0", "icon_mask_base_uri": "https://maps.gstatic.com/mapfiles/place_api/icons/v2/school_pinlet", "name": "Majerchar Chalakura High School,Dhubri", "place_id": "ChIJHyFzkul0WDcROstUDiQiNcA", "rating": 4, "reference": "ChIJHyFzkul0WDcROstUDiQiNcA", "scope": "GOOGLE", "types": ["school", "point_of_interest", "establishment"], "user_ratings_total": 2, "vicinity": "3382+P74, Bhelanga Mari"}, {"business_status": "OPERATIONAL", "geometry": {"location": {"lat": 26.06945469999999, "lng": 90.05015739999999}, "viewport": {"northeast": {"lat": 26.0703080802915, "lng": 90.05146128029149}, "southwest": {"lat": 26.06761011970849, "lng": 90.04876331970848}}}, "icon": "https://maps.gstatic.com/mapfiles/place_api/icons/v1/png_71/school-71.png", "icon_background_color": "#7B9EB0", "icon_mask_base_uri": "https://maps.gstatic.com/mapfiles/place_api/icons/v2/school_pinlet", "name": "Sabed Ali maddrasa Islahul Ulum Bhelangamari", "place_id": "ChIJb5W16TV1WDcRK40W7UghTQU", "reference": "ChIJb5W16TV1WDcRK40W7UghTQU", "scope": "GOOGLE", "types": ["school", "point_of_interest", "establishment"], "vicinity": "3392+Q3M, Bhelanga Mari"}, {"business_status": "OPERATIONAL", "geometry": {"location": {"lat": 26.0563323, "lng": 90.05554959999999}, "viewport": {"northeast": {"lat": 26.0576812802915, "lng": 90.0568985802915}, "southwest": {"lat": 26.05498331970849, "lng": 90.05420061970848}}}, "icon": "https://maps.gstatic.com/mapfiles/place_api/icons/v1/png_71/school-71.png", "icon_background_color": "#7B9EB0", "icon_mask_base_uri": "https://maps.gstatic.com/mapfiles/place_api/icons/v2/school_pinlet", "name": "Dhorbari Part II L.P School", "place_id": "ChIJrwfypMJ1WDcRmOpaGx6ehUs", "reference": "ChIJrwfypMJ1WDcRmOpaGx6ehUs", "scope": "GOOGLE", "types": ["school", "point_of_interest", "establishment"], "vicinity": "3344+G6M, Katlamari Pt.IV"}], "status": "OK"}