{"html_attributions": [], "results": [{"business_status": "OPERATIONAL", "geometry": {"location": {"lat": 26.3844714, "lng": 90.0462342}, "viewport": {"northeast": {"lat": 26.3858362802915, "lng": 90.04740918029151}, "southwest": {"lat": 26.3831383197085, "lng": 90.04471121970849}}}, "icon": "https://maps.gstatic.com/mapfiles/place_api/icons/v1/png_71/school-71.png", "icon_background_color": "#7B9EB0", "icon_mask_base_uri": "https://maps.gstatic.com/mapfiles/place_api/icons/v2/school_pinlet", "name": "Kachuabil ME school", "opening_hours": {"open_now": true}, "photos": [{"height": 1080, "html_attributions": ["<a href=\"https://maps.google.com/maps/contrib/109482328681000607150\">Nanigopal Das</a>"], "photo_reference": "Aap_uECk4ZiE4sc0sSIkHCTw7V8H7wFMHtVU3WgFjsjPSBOcp3C27Vt7-qHcFFdYE5KYEHcL7vQcVlRpjx-yg_AZEAnXp9wv7waAkXKbjONMzks8O3IQslJGBBYS9h4X5VEeK0KvBeIovjbJdONtpsULsoqdkexw9QJZzOOkXbf50sUvfREi", "width": 1920}], "place_id": "ChIJhQ2m-09-WDcRnqqn7l-ppLA", "rating": 3, "reference": "ChIJhQ2m-09-WDcRnqqn7l-ppLA", "scope": "GOOGLE", "types": ["school", "point_of_interest", "establishment"], "user_ratings_total": 3, "vicinity": "92MW+QFQ, Bhumka"}, {"business_status": "OPERATIONAL", "geometry": {"location": {"lat": 26.3869489, "lng": 90.0540831}, "viewport": {"northeast": {"lat": 26.38829928029151, "lng": 90.05548428029151}, "southwest": {"lat": 26.3856013197085, "lng": 90.0527863197085}}}, "icon": "https://maps.gstatic.com/mapfiles/place_api/icons/v1/png_71/school-71.png", "icon_background_color": "#7B9EB0", "icon_mask_base_uri": "https://maps.gstatic.com/mapfiles/place_api/icons/v2/school_pinlet", "name": "Tengnarvita Pre-Senior Madrassa", "place_id": "ChIJTX6paoJ_WDcR7tYjnU7JShk", "reference": "ChIJTX6paoJ_WDcR7tYjnU7JShk", "scope": "GOOGLE", "types": ["school", "point_of_interest", "establishment"], "vicinity": "93P3+QJG, Mokrambil"}, {"business_status": "OPERATIONAL", "geometry": {"location": {"lat": 26.381022, "lng": 90.0303198}, "viewport": {"northeast": {"lat": 26.3829269802915, "lng": 90.03108158029151}, "southwest": {"lat": 26.38022901970849, "lng": 90.0283836197085}}}, "icon": "https://maps.gstatic.com/mapfiles/place_api/icons/v1/png_71/school-71.png", "icon_background_color": "#7B9EB0", "icon_mask_base_uri": "https://maps.gstatic.com/mapfiles/place_api/icons/v2/school_pinlet", "name": "U.N. academy Kachugaon", "place_id": "ChIJh_ENqid_WDcRLiocnnfYiRI", "reference": "ChIJh_ENqid_WDcRLiocnnfYiRI", "scope": "GOOGLE", "types": ["school", "point_of_interest", "establishment"], "vicinity": "92JJ+C44, Kachugaon"}, {"business_status": "OPERATIONAL", "geometry": {"location": {"lat": 26.3942985, "lng": 90.0454888}, "viewport": {"northeast": {"lat": 26.3956552302915, "lng": 90.04797939999999}, "southwest": {"lat": 26.3929572697085, "lng": 90.0446586}}}, "icon": "https://maps.gstatic.com/mapfiles/place_api/icons/v1/png_71/school-71.png", "icon_background_color": "#7B9EB0", "icon_mask_base_uri": "https://maps.gstatic.com/mapfiles/place_api/icons/v2/school_pinlet", "name": "Tajpur LP School", "opening_hours": {"open_now": true}, "place_id": "ChIJHW-Yi09_WDcRyZrBMXZ6Bw0", "rating": 4.5, "reference": "ChIJHW-Yi09_WDcRyZrBMXZ6Bw0", "scope": "GOOGLE", "types": ["school", "point_of_interest", "establishment"], "user_ratings_total": 2, "vicinity": "92VW+P59, Tajpur"}], "status": "OK"}