{"html_attributions": [], "results": [{"business_status": "OPERATIONAL", "geometry": {"location": {"lat": 25.8852671, "lng": 90.0675618}, "viewport": {"northeast": {"lat": 25.8866041802915, "lng": 90.0688899302915}, "southwest": {"lat": 25.88390621970849, "lng": 90.0661919697085}}}, "icon": "https://maps.gstatic.com/mapfiles/place_api/icons/v1/png_71/school-71.png", "icon_background_color": "#7B9EB0", "icon_mask_base_uri": "https://maps.gstatic.com/mapfiles/place_api/icons/v2/school_pinlet", "name": "Charbatapara Kabazia Maddrassa", "photos": [{"height": 3088, "html_attributions": ["<a href=\"https://maps.google.com/maps/contrib/106632703564404368735\">Samsul Hoque</a>"], "photo_reference": "Aap_uECP9U-dKAW-6hyZM_8BJ1V3d95KA0Qvf-gRwUmzJWA5V43bcUuQJLONiRhWwjpcjtzyNZ5H_1vsKSHqWxyN9FC_Z-XOWiDCb1lEHBNqbpjiC8YMTw7_b6L3dMeu_ltdg2SFnCrFPGnKnVFbZmjIWEUsMgwyUmisUweMeved2Yz4xlFC", "width": 3088}], "place_id": "ChIJH8R9dV0JWDcRiB7mtjw4RoQ", "rating": 5, "reference": "ChIJH8R9dV0JWDcRiB7mtjw4RoQ", "scope": "GOOGLE", "types": ["school", "point_of_interest", "establishment"], "user_ratings_total": 4, "vicinity": "V3P9+423, Haribhanga"}, {"business_status": "OPERATIONAL", "geometry": {"location": {"lat": 25.8854204, "lng": 90.0676956}, "viewport": {"northeast": {"lat": 25.8868039802915, "lng": 90.0690818802915}, "southwest": {"lat": 25.8841060197085, "lng": 90.0663839197085}}}, "icon": "https://maps.gstatic.com/mapfiles/place_api/icons/v1/png_71/school-71.png", "icon_background_color": "#7B9EB0", "icon_mask_base_uri": "https://maps.gstatic.com/mapfiles/place_api/icons/v2/school_pinlet", "name": "Pioneer English School,Charbatapara", "photos": [{"height": 3000, "html_attributions": ["<a href=\"https://maps.google.com/maps/contrib/109713639862288967354\">Mehedi sarkarr</a>"], "photo_reference": "Aap_uEDkjQOnM01tPYmYfKIf7lPDvGZ6SapFkKz6owjHdHUeTBf_-4PzvqGYDDs2TNEWkge4uXYJOfU02rQm7N7YhT59TQP4LEo5MOku7g6hdPxAWwBmIIUgLG3vxEWiwhqeLVVd5_bddoiZkl9eNkFaF_6lEavpCYpCORGGk0VboVRFK6d7", "width": 4000}], "place_id": "ChIJ0QDSAycJWDcRCgpRIHuixyQ", "rating": 5, "reference": "ChIJ0QDSAycJWDcRCgpRIHuixyQ", "scope": "GOOGLE", "types": ["school", "point_of_interest", "establishment"], "user_ratings_total": 2, "vicinity": "V3P9+538, Haribhanga"}, {"business_status": "OPERATIONAL", "geometry": {"location": {"lat": 25.8894864, "lng": 90.0653785}, "viewport": {"northeast": {"lat": 25.8909422302915, "lng": 90.0666655302915}, "southwest": {"lat": 25.8882442697085, "lng": 90.0639675697085}}}, "icon": "https://maps.gstatic.com/mapfiles/place_api/icons/v1/png_71/school-71.png", "icon_background_color": "#7B9EB0", "icon_mask_base_uri": "https://maps.gstatic.com/mapfiles/place_api/icons/v2/school_pinlet", "name": "Green Valley U.P School", "photos": [{"height": 3000, "html_attributions": ["<a href=\"https://maps.google.com/maps/contrib/109713639862288967354\">Mehedi sarkarr</a>"], "photo_reference": "Aap_uEDure2BiOmMigfMx7r5y-RLS_8nG26EBfK4Skcd2tg_5S2KMJR2eGANqfMZWbvXfrcswxdL9m0c1pfX9S7dAMpzOcuna2DhzaD7NqLyNTiIcQ2dAvDdbSMgm6wk7kPjaDpfz23_h6GVT1wyCEmUpeiQ1ghU28GTOgQg3v47L57ikcwR", "width": 4000}], "place_id": "ChIJLXabiu8JWDcRGdTlrpjmbpM", "reference": "ChIJLXabiu8JWDcRGdTlrpjmbpM", "scope": "GOOGLE", "types": ["school", "point_of_interest", "establishment"], "vicinity": "V3Q8+Q5R, Charbatapara"}, {"business_status": "OPERATIONAL", "geometry": {"location": {"lat": 25.8899144, "lng": 90.0651488}, "viewport": {"northeast": {"lat": 25.8913445302915, "lng": 90.0664287302915}, "southwest": {"lat": 25.8886465697085, "lng": 90.0637307697085}}}, "icon": "https://maps.gstatic.com/mapfiles/place_api/icons/v1/png_71/school-71.png", "icon_background_color": "#7B9EB0", "icon_mask_base_uri": "https://maps.gstatic.com/mapfiles/place_api/icons/v2/school_pinlet", "name": "Charbatapara L.P. School", "photos": [{"height": 4160, "html_attributions": ["<a href=\"https://maps.google.com/maps/contrib/116226227290658075408\">A. Islam</a>"], "photo_reference": "Aap_uECLgjEpLRNzvVoKSALgO6eR6VHX5ioJO2b296WBfGHE_z-3rkxtHsOVO__E5FWaa48Zpp0ywFfc3Jmad5-DDABZ5PCCHsF7t2QZuKm4Z_Wb-KSRGszk2aFo5DhAoeFHoWx2jcNh34XMUH-fVLI9uGC3NI85OmCQ-Qu2BuulRzeRMqji", "width": 1970}], "place_id": "ChIJsQ5ahzEJWDcRbf3zERPbtHY", "rating": 5, "reference": "ChIJsQ5ahzEJWDcRbf3zERPbtHY", "scope": "GOOGLE", "types": ["school", "point_of_interest", "establishment"], "user_ratings_total": 2, "vicinity": "V3Q8+X36, Haribhanga"}, {"business_status": "OPERATIONAL", "geometry": {"location": {"lat": 25.8793588, "lng": 90.0725389}, "viewport": {"northeast": {"lat": 25.8808524302915, "lng": 90.07391468029151}, "southwest": {"lat": 25.8781544697085, "lng": 90.0712167197085}}}, "icon": "https://maps.gstatic.com/mapfiles/place_api/icons/v1/png_71/school-71.png", "icon_background_color": "#7B9EB0", "icon_mask_base_uri": "https://maps.gstatic.com/mapfiles/place_api/icons/v2/school_pinlet", "name": "RIVER VALLEY SCHOOL", "place_id": "ChIJ_3agAgEJWDcRDELmPHxiVt8", "plus_code": {"compound_code": "V3HF+P2 Shyamnagar, Meghalaya, India", "global_code": "7MQGV3HF+P2"}, "reference": "ChIJ_3agAgEJWDcRDELmPHxiVt8", "scope": "GOOGLE", "types": ["primary_school", "school", "point_of_interest", "establishment"], "vicinity": "Unnamed Road"}, {"business_status": "OPERATIONAL", "geometry": {"location": {"lat": 25.886805, "lng": 90.071609}, "viewport": {"northeast": {"lat": 25.88787745, "lng": 90.0727419302915}, "southwest": {"lat": 25.88358765, "lng": 90.0700439697085}}}, "icon": "https://maps.gstatic.com/mapfiles/place_api/icons/v1/png_71/school-71.png", "icon_background_color": "#7B9EB0", "icon_mask_base_uri": "https://maps.gstatic.com/mapfiles/place_api/icons/v2/school_pinlet", "name": "Haribhanga LP School", "opening_hours": {"open_now": false}, "photos": [{"height": 3120, "html_attributions": ["<a href=\"https://maps.google.com/maps/contrib/109310385663820886435\">Mithun Khan</a>"], "photo_reference": "Aap_uEA3gq9gthGHvblbqdPNl_2krvzMsMKN7aBHlJZDXD_Kk5rummbDo9wd4DWgU6ZrEliTROUAnkz_mEkSxDA66tiAvl_0NoJqtTCvSIYj_e9eYRldcmXZVMHHJM2XpBS4TJTBkp-HfAkjVdcv_eopGtVSzD_lzHnEbWfkkILjyk9m06ZP", "width": 4160}], "place_id": "ChIJxx_OZMYJWDcRSzirqraZZ_U", "rating": 5, "reference": "ChIJxx_OZMYJWDcRSzirqraZZ_U", "scope": "GOOGLE", "types": ["school", "point_of_interest", "establishment"], "user_ratings_total": 1, "vicinity": "V3PC+PJH, Haribhanga"}, {"business_status": "OPERATIONAL", "geometry": {"location": {"lat": 25.8710471, "lng": 90.06060269999999}, "viewport": {"northeast": {"lat": 25.8722506802915, "lng": 90.0619320302915}, "southwest": {"lat": 25.8695527197085, "lng": 90.0592340697085}}}, "icon": "https://maps.gstatic.com/mapfiles/place_api/icons/v1/png_71/school-71.png", "icon_background_color": "#7B9EB0", "icon_mask_base_uri": "https://maps.gstatic.com/mapfiles/place_api/icons/v2/school_pinlet", "name": "DEWANKATA L.P SCHOOL", "place_id": "ChIJUXqhtL4IWDcRqcWh7r-_Tj8", "rating": 4, "reference": "ChIJUXqhtL4IWDcRqcWh7r-_Tj8", "scope": "GOOGLE", "types": ["school", "point_of_interest", "establishment"], "user_ratings_total": 1, "vicinity": "V3C6+C69"}, {"business_status": "OPERATIONAL", "geometry": {"location": {"lat": 25.87789739999999, "lng": 90.0772942}, "viewport": {"northeast": {"lat": 25.8792483802915, "lng": 90.0782502802915}, "southwest": {"lat": 25.87655041970849, "lng": 90.07555231970849}}}, "icon": "https://maps.gstatic.com/mapfiles/place_api/icons/v1/png_71/school-71.png", "icon_background_color": "#7B9EB0", "icon_mask_base_uri": "https://maps.gstatic.com/mapfiles/place_api/icons/v2/school_pinlet", "name": "Haguragaon Upgraded Up School", "opening_hours": {"open_now": true}, "place_id": "ChIJZV4Da9oPWDcR5IyBe07LhPs", "rating": 5, "reference": "ChIJZV4Da9oPWDcR5IyBe07LhPs", "scope": "GOOGLE", "types": ["school", "point_of_interest", "establishment"], "user_ratings_total": 1, "vicinity": "V3HG+5W3, Chibinang"}], "status": "OK"}