{"html_attributions": [], "results": [{"business_status": "OPERATIONAL", "geometry": {"location": {"lat": 25.9656306, "lng": 90.0679615}, "viewport": {"northeast": {"lat": 25.9669795802915, "lng": 90.0693104802915}, "southwest": {"lat": 25.96428161970849, "lng": 90.0666125197085}}}, "icon": "https://maps.gstatic.com/mapfiles/place_api/icons/v1/png_71/school-71.png", "icon_background_color": "#7B9EB0", "icon_mask_base_uri": "https://maps.gstatic.com/mapfiles/place_api/icons/v2/school_pinlet", "name": "Fakirganj Anchalik Royal Institute.", "place_id": "ChIJy2e0hiwLWDcRMyPoIiua4DI", "plus_code": {"compound_code": "X389+75 Chotokalia Pt.II, Assam, India", "global_code": "7MQGX389+75"}, "reference": "ChIJy2e0hiwLWDcRMyPoIiua4DI", "scope": "GOOGLE", "types": ["school", "point_of_interest", "establishment"], "vicinity": "Shonali Marke, Fakirganj"}, {"business_status": "OPERATIONAL", "geometry": {"location": {"lat": 25.9580197, "lng": 90.05895129999999}, "viewport": {"northeast": {"lat": 25.95915275, "lng": 90.0607039302915}, "southwest": {"lat": 25.95462055, "lng": 90.05800596970849}}}, "icon": "https://maps.gstatic.com/mapfiles/place_api/icons/v1/png_71/school-71.png", "icon_background_color": "#7B9EB0", "icon_mask_base_uri": "https://maps.gstatic.com/mapfiles/place_api/icons/v2/school_pinlet", "name": "Folimari", "place_id": "ChIJlUyxqiMLWDcRwnsdNGjlHY4", "reference": "ChIJlUyxqiMLWDcRwnsdNGjlHY4", "scope": "GOOGLE", "types": ["school", "point_of_interest", "establishment"], "vicinity": "X355+6H4, Baladmara"}, {"business_status": "OPERATIONAL", "geometry": {"location": {"lat": 25.95436209999999, "lng": 90.0655944}, "viewport": {"northeast": {"lat": 25.9553456302915, "lng": 90.0708069}, "southwest": {"lat": 25.95264766970849, "lng": 90.06385689999999}}}, "icon": "https://maps.gstatic.com/mapfiles/place_api/icons/v1/png_71/school-71.png", "icon_background_color": "#7B9EB0", "icon_mask_base_uri": "https://maps.gstatic.com/mapfiles/place_api/icons/v2/school_pinlet", "name": "Baladmara M.E Madrassa", "place_id": "ChIJKeJGFR0LWDcRxQcm00ilx2c", "reference": "ChIJKeJGFR0LWDcRxQcm00ilx2c", "scope": "GOOGLE", "types": ["school", "point_of_interest", "establishment"], "vicinity": "X338+P6X, Baladmara"}, {"business_status": "OPERATIONAL", "geometry": {"location": {"lat": 25.956658, "lng": 90.07057189999999}, "viewport": {"northeast": {"lat": 25.9579617302915, "lng": 90.0719190302915}, "southwest": {"lat": 25.9552637697085, "lng": 90.06922106970849}}}, "icon": "https://maps.gstatic.com/mapfiles/place_api/icons/v1/png_71/school-71.png", "icon_background_color": "#7B9EB0", "icon_mask_base_uri": "https://maps.gstatic.com/mapfiles/place_api/icons/v2/school_pinlet", "name": "Sankar Azan Jatiya Vidyalaya, Fakirganj", "photos": [{"height": 2448, "html_attributions": ["<a href=\"https://maps.google.com/maps/contrib/116499575148566317183\">Ashraful Islam</a>"], "photo_reference": "Aap_uEDhg5q0jCHgcqx4Qzx5gevgWdXMcUHcK6oDyLom20-nUIF_by1P8qV9seINiTkrftfNblG54Cv1Jt4SjWpEWdWT1wuo9bWddquKALKwq6hp44Gp1KfIfPf9qxVqp1vKatAtObFQvqzcbPPbXVJJdtf-JScb3HKOiEFExS8dm7ZlSjE_", "width": 3264}], "place_id": "ChIJdSmSrtQLWDcRVozU4BifXWQ", "plus_code": {"compound_code": "X34C+M6 Sunderpara Pt.IV, Assam, India", "global_code": "7MQGX34C+M6"}, "rating": 4, "reference": "ChIJdSmSrtQLWDcRVozU4BifXWQ", "scope": "GOOGLE", "types": ["school", "point_of_interest", "establishment"], "user_ratings_total": 9, "vicinity": "Sunderpara Pt.IV"}, {"business_status": "OPERATIONAL", "geometry": {"location": {"lat": 25.956639, "lng": 90.07067119999999}, "viewport": {"northeast": {"lat": 25.95795093029151, "lng": 90.0720204302915}, "southwest": {"lat": 25.9552529697085, "lng": 90.06932246970848}}}, "icon": "https://maps.gstatic.com/mapfiles/place_api/icons/v1/png_71/school-71.png", "icon_background_color": "#7B9EB0", "icon_mask_base_uri": "https://maps.gstatic.com/mapfiles/place_api/icons/v2/school_pinlet", "name": "Sankardeva Jatiya Vidyalaya", "place_id": "ChIJ_R-5kfkLWDcRqVS2pZNWqBo", "plus_code": {"compound_code": "X34C+M7 Sunderpara Pt.IV, Assam, India", "global_code": "7MQGX34C+M7"}, "rating": 5, "reference": "ChIJ_R-5kfkLWDcRqVS2pZNWqBo", "scope": "GOOGLE", "types": ["school", "point_of_interest", "establishment"], "user_ratings_total": 2, "vicinity": "Sunderpara Pt.IV"}, {"business_status": "OPERATIONAL", "geometry": {"location": {"lat": 25.9574098, "lng": 90.0721732}, "viewport": {"northeast": {"lat": 25.9587581302915, "lng": 90.07328708029151}, "southwest": {"lat": 25.9560601697085, "lng": 90.07058911970849}}}, "icon": "https://maps.gstatic.com/mapfiles/place_api/icons/v1/png_71/school-71.png", "icon_background_color": "#7B9EB0", "icon_mask_base_uri": "https://maps.gstatic.com/mapfiles/place_api/icons/v2/school_pinlet", "name": "Hamidabad School", "opening_hours": {"open_now": true}, "photos": [{"height": 2448, "html_attributions": ["<a href=\"https://maps.google.com/maps/contrib/110141337084382840275\">F.G.S- Sofiqul islam</a>"], "photo_reference": "Aap_uEBJbfQf057wiGxu3rrUzTbZkcQtZb96aN5NrXBEcDWlPyiRQXOP5tW97JlGXtwdwRnA0HDlbc4qBxcZSrzfsIT7FA7elZvmV2ypLtU2TD_honXdw8eZwdHGa9JX3owZT1juLLtNrn5sIU-An1txrcT74K3W_kAaCka8t1HC_UrsV-v_", "width": 3264}], "place_id": "ChIJfbuYy_kLWDcRrBmyq47Bdsc", "rating": 4.3, "reference": "ChIJfbuYy_kLWDcRrBmyq47Bdsc", "scope": "GOOGLE", "types": ["school", "point_of_interest", "establishment"], "user_ratings_total": 6, "vicinity": "X34C+XV7, Sunderpara Pt.IV"}, {"business_status": "OPERATIONAL", "geometry": {"location": {"lat": 25.960541, "lng": 90.0738875}, "viewport": {"northeast": {"lat": 25.9621779302915, "lng": 90.0746979302915}, "southwest": {"lat": 25.9594799697085, "lng": 90.07199996970849}}}, "icon": "https://maps.gstatic.com/mapfiles/place_api/icons/v1/png_71/school-71.png", "icon_background_color": "#7B9EB0", "icon_mask_base_uri": "https://maps.gstatic.com/mapfiles/place_api/icons/v2/school_pinlet", "name": "Bhalukmari ME School , cChoyokalua", "opening_hours": {"open_now": true}, "photos": [{"height": 1080, "html_attributions": ["<a href=\"https://maps.google.com/maps/contrib/112063479932713501986\">sawrabh jyoti gogoi</a>"], "photo_reference": "Aap_uEBD2bzuJUdh-GqmVVCwqbztTaRkCGspTllNiPWpm7KBQTF7zjQOmhfyc105SjIPCcRm2rLmXYJovohFfzqQ7YzpFvKIOtqbcMsi94hTlattGPOSIAWsC8m-6cUYE7t2M_QANjp6fzTkNkMy9jvrFL4ZHzMia8Ioz96TNM6dS91Eqw-J", "width": 1920}], "place_id": "ChIJM3aFS-MLWDcRdG4s3IWq3ts", "plus_code": {"compound_code": "X36F+6H Sunderpara Pt.IV, Assam, India", "global_code": "7MQGX36F+6H"}, "reference": "ChIJM3aFS-MLWDcRdG4s3IWq3ts", "scope": "GOOGLE", "types": ["primary_school", "school", "point_of_interest", "establishment"], "vicinity": "State Highway 46, Sunderpara Pt.IV"}, {"business_status": "OPERATIONAL", "geometry": {"location": {"lat": 25.9614803, "lng": 90.0745637}, "viewport": {"northeast": {"lat": 25.9630371802915, "lng": 90.0757089302915}, "southwest": {"lat": 25.9603392197085, "lng": 90.07301096970849}}}, "icon": "https://maps.gstatic.com/mapfiles/place_api/icons/v1/png_71/school-71.png", "icon_background_color": "#7B9EB0", "icon_mask_base_uri": "https://maps.gstatic.com/mapfiles/place_api/icons/v2/school_pinlet", "name": "moslabari lp school", "place_id": "ChIJr94i1fcLWDcRDiIO6EUruRo", "rating": 5, "reference": "ChIJr94i1fcLWDcRDiIO6EUruRo", "scope": "GOOGLE", "types": ["school", "point_of_interest", "establishment"], "user_ratings_total": 1, "vicinity": "X36F+HRW, Sunderpara Pt.IV"}, {"business_status": "OPERATIONAL", "geometry": {"location": {"lat": 25.9535177, "lng": 90.07174069999999}, "viewport": {"northeast": {"lat": 25.9548637802915, "lng": 90.0730610802915}, "southwest": {"lat": 25.9521658197085, "lng": 90.07036311970849}}}, "icon": "https://maps.gstatic.com/mapfiles/place_api/icons/v1/png_71/school-71.png", "icon_background_color": "#7B9EB0", "icon_mask_base_uri": "https://maps.gstatic.com/mapfiles/place_api/icons/v2/school_pinlet", "name": "Print house", "place_id": "ChIJqSu-rZ4LWDcRI13uk2Z9Zak", "plus_code": {"compound_code": "X33C+CM Sunderpara Pt.IV, Assam, India", "global_code": "7MQGX33C+CM"}, "reference": "ChIJqSu-rZ4LWDcRI13uk2Z9Zak", "scope": "GOOGLE", "types": ["school", "point_of_interest", "establishment"], "vicinity": "State Highway 46, Sunderpara Pt.IV"}, {"business_status": "OPERATIONAL", "geometry": {"location": {"lat": 25.9541161, "lng": 90.0727428}, "viewport": {"northeast": {"lat": 25.9554069802915, "lng": 90.07352788029151}, "southwest": {"lat": 25.9527090197085, "lng": 90.0708299197085}}}, "icon": "https://maps.gstatic.com/mapfiles/place_api/icons/v1/png_71/school-71.png", "icon_background_color": "#7B9EB0", "icon_mask_base_uri": "https://maps.gstatic.com/mapfiles/place_api/icons/v2/school_pinlet", "name": "403 No Milan Pur LP School", "opening_hours": {"open_now": true}, "place_id": "ChIJ6fKSBSgLWDcRu6QUZrQxSQ0", "plus_code": {"compound_code": "X33F+J3 Sunderpara Pt.IV, Assam, India", "global_code": "7MQGX33F+J3"}, "rating": 5, "reference": "ChIJ6fKSBSgLWDcRu6QUZrQxSQ0", "scope": "GOOGLE", "types": ["school", "point_of_interest", "establishment"], "user_ratings_total": 1, "vicinity": "State Highway 46, Sunderpara Pt.IV"}, {"business_status": "OPERATIONAL", "geometry": {"location": {"lat": 25.9516992, "lng": 90.0688241}, "viewport": {"northeast": {"lat": 25.9529522302915, "lng": 90.0702035802915}, "southwest": {"lat": 25.9502542697085, "lng": 90.06750561970848}}}, "icon": "https://maps.gstatic.com/mapfiles/place_api/icons/v1/png_71/school-71.png", "icon_background_color": "#7B9EB0", "icon_mask_base_uri": "https://maps.gstatic.com/mapfiles/place_api/icons/v2/school_pinlet", "name": "Annesha Shiksha Niketan", "opening_hours": {"open_now": true}, "photos": [{"height": 1536, "html_attributions": ["<a href=\"https://maps.google.com/maps/contrib/107209114999752671217\">Riazul Hoque</a>"], "photo_reference": "Aap_uEBAl04J9Vn8evDfJBrrEj3dbr7HA4-1USb1LQiOmkDSkLGEFcwGpmmj6YIX2_HguB8vm4zzbOAiEJ1_cIMj_FpXEWjAbTaak5f0bs-lTkR3P7Cso_fZPnbY9NIzX-M3hXjuIwXCIRYMsNWX6v39KrvhdvEbDhoYsG0Rl5Q4pDF8wxak", "width": 2048}], "place_id": "ChIJDZPLbPwLWDcRFHM2KkVh6ik", "rating": 5, "reference": "ChIJDZPLbPwLWDcRFHM2KkVh6ik", "scope": "GOOGLE", "types": ["school", "point_of_interest", "establishment"], "user_ratings_total": 10, "vicinity": "X329+MGG, Sunderpara Pt.IV"}, {"business_status": "OPERATIONAL", "geometry": {"location": {"lat": 25.9516263, "lng": 90.0687943}, "viewport": {"northeast": {"lat": 25.9529094802915, "lng": 90.0701641802915}, "southwest": {"lat": 25.9502115197085, "lng": 90.06746621970849}}}, "icon": "https://maps.gstatic.com/mapfiles/place_api/icons/v1/png_71/school-71.png", "icon_background_color": "#7B9EB0", "icon_mask_base_uri": "https://maps.gstatic.com/mapfiles/place_api/icons/v2/school_pinlet", "name": "Anesha Shikhsha Niketon", "place_id": "ChIJ7R9DPJ4LWDcRfE0Eg31PMWw", "plus_code": {"compound_code": "X329+MG Chotokalia Pt.II, Assam, India", "global_code": "7MQGX329+MG"}, "reference": "ChIJ7R9DPJ4LWDcRfE0Eg31PMWw", "scope": "GOOGLE", "types": ["school", "point_of_interest", "establishment"], "vicinity": "pt. 2, Fakirganj, Fakirganj, choto kalia, Chotokalia Pt.II"}, {"business_status": "OPERATIONAL", "geometry": {"location": {"lat": 25.9519166, "lng": 90.0723697}, "viewport": {"northeast": {"lat": 25.9534908802915, "lng": 90.07362913029151}, "southwest": {"lat": 25.9507929197085, "lng": 90.0709311697085}}}, "icon": "https://maps.gstatic.com/mapfiles/place_api/icons/v1/png_71/school-71.png", "icon_background_color": "#7B9EB0", "icon_mask_base_uri": "https://maps.gstatic.com/mapfiles/place_api/icons/v2/school_pinlet", "name": "Aureus Academy , Fakirganj (English Medium School)", "opening_hours": {"open_now": true}, "photos": [{"height": 2268, "html_attributions": ["<a href=\"https://maps.google.com/maps/contrib/106881281844930987897\">Aureus Academy , Fakirganj (English Medium School)</a>"], "photo_reference": "Aap_uEAW6INKCE5t5JpsIj7xBcg7ncHbo1_TlVvy3QyKBDIUMSvo3OI8e4smz0b-VNg0hUPNwInmuH3fFVyRYC4CP4tE9uSfniVlZQOF3nZxK-igR0PM5tS1kopsVT6m_SZ7EDVOizzLj-wRY-uoKCjGlqurZggo61kZUK5XUIe5XtWYD9_t", "width": 4032}], "place_id": "ChIJHcXrFvYLWDcRfFuey7lbIVU", "plus_code": {"compound_code": "X32C+QW Sunderpara Pt.IV, Assam, India", "global_code": "7MQGX32C+QW"}, "rating": 3, "reference": "ChIJHcXrFvYLWDcRfFuey7lbIVU", "scope": "GOOGLE", "types": ["school", "point_of_interest", "establishment"], "user_ratings_total": 1, "vicinity": "Sunderpara Pt.IV"}], "status": "OK"}