{"html_attributions": [], "results": [{"business_status": "OPERATIONAL", "geometry": {"location": {"lat": 26.3603285, "lng": 90.102718}, "viewport": {"northeast": {"lat": 26.3613772302915, "lng": 90.10425255}, "southwest": {"lat": 26.35867926970849, "lng": 90.09811434999999}}}, "icon": "https://maps.gstatic.com/mapfiles/place_api/icons/v1/png_71/school-71.png", "icon_background_color": "#7B9EB0", "icon_mask_base_uri": "https://maps.gstatic.com/mapfiles/place_api/icons/v2/school_pinlet", "name": "MGJB Pratapkhata", "place_id": "ChIJ5ZPZQTt9WDcR3VG-Kyvqu8c", "plus_code": {"compound_code": "9463+43 Hashdoha, Assam, India", "global_code": "7MRG9463+43"}, "rating": 5, "reference": "ChIJ5ZPZQTt9WDcR3VG-Kyvqu8c", "scope": "GOOGLE", "types": ["school", "point_of_interest", "establishment"], "user_ratings_total": 2, "vicinity": "MGJB Road, Pratapkhata"}, {"business_status": "OPERATIONAL", "geometry": {"location": {"lat": 26.3603285, "lng": 90.102718}, "viewport": {"northeast": {"lat": 26.3613772302915, "lng": 90.10425255}, "southwest": {"lat": 26.35867926970849, "lng": 90.09811434999999}}}, "icon": "https://maps.gstatic.com/mapfiles/place_api/icons/v1/png_71/school-71.png", "icon_background_color": "#7B9EB0", "icon_mask_base_uri": "https://maps.gstatic.com/mapfiles/place_api/icons/v2/school_pinlet", "name": "Rimijhimi Ghop L.P. School (\u09f0\u09bf\u09ae\u09bf\u099d\u09bf\u09ae\u09bf \u0998\u09cb\u09aa \u098f\u09b2. \u09aa\u09bf. \u09b8\u09cd\u0995\u09c1\u09b2 )", "place_id": "ChIJg_Yg_2l9WDcR9oVV5UDKvl0", "plus_code": {"compound_code": "9463+43 Hashdoha, Assam, India", "global_code": "7MRG9463+43"}, "rating": 4, "reference": "ChIJg_Yg_2l9WDcR9oVV5UDKvl0", "scope": "GOOGLE", "types": ["school", "point_of_interest", "establishment"], "user_ratings_total": 1, "vicinity": "Rimijhimighop, Protapkhata"}, {"business_status": "OPERATIONAL", "geometry": {"location": {"lat": 26.3585175, "lng": 90.1085319}, "viewport": {"northeast": {"lat": 26.3597159802915, "lng": 90.1098376302915}, "southwest": {"lat": 26.35701801970849, "lng": 90.10713966970849}}}, "icon": "https://maps.gstatic.com/mapfiles/place_api/icons/v1/png_71/school-71.png", "icon_background_color": "#7B9EB0", "icon_mask_base_uri": "https://maps.gstatic.com/mapfiles/place_api/icons/v2/school_pinlet", "name": "2no Khejurbari Lp School", "photos": [{"height": 3456, "html_attributions": ["<a href=\"https://maps.google.com/maps/contrib/110312993413914576531\">saddam hussain sarkar</a>"], "photo_reference": "Aap_uECpd4dpmXcU_tJfKPe1sDWIHHPNWlpFXjidLcdUii66v8k692dKcSci8fkHa_0URXkouJsvGO8tOR7UEegMq4iJLcZ5pT2KJeCMokH6kc6XpTYPFICLyxGdE_iIkz2CweEzG2y0RU363XRqWaeP6j2F4qugaQsXwkASVN3LJSiEgwxt", "width": 4608}], "place_id": "ChIJPe_6lVl8WDcR_fM6QEbUvNw", "reference": "ChIJPe_6lVl8WDcR_fM6QEbUvNw", "scope": "GOOGLE", "types": ["school", "point_of_interest", "establishment"], "vicinity": "9455+CC3, Hashdoha"}, {"business_status": "OPERATIONAL", "geometry": {"location": {"lat": 26.3575559, "lng": 90.09982749999999}, "viewport": {"northeast": {"lat": 26.3589244802915, "lng": 90.1013074302915}, "southwest": {"lat": 26.3562265197085, "lng": 90.09860946970849}}}, "icon": "https://maps.gstatic.com/mapfiles/place_api/icons/v1/png_71/school-71.png", "icon_background_color": "#7B9EB0", "icon_mask_base_uri": "https://maps.gstatic.com/mapfiles/place_api/icons/v2/school_pinlet", "name": "Kartimari Badlagaon M.E School", "place_id": "ChIJ4ShZjON9WDcRe6k2xLS1cVg", "plus_code": {"compound_code": "935X+2W Kartimari-I, Assam, India", "global_code": "7MRG935X+2W"}, "reference": "ChIJ4ShZjON9WDcRe6k2xLS1cVg", "scope": "GOOGLE", "types": ["school", "point_of_interest", "establishment"], "vicinity": "Pt -1, Kartimari-I"}, {"business_status": "OPERATIONAL", "geometry": {"location": {"lat": 26.3575063, "lng": 90.09940399999999}, "viewport": {"northeast": {"lat": 26.3589064302915, "lng": 90.1010944302915}, "southwest": {"lat": 26.35620846970849, "lng": 90.09839646970849}}}, "icon": "https://maps.gstatic.com/mapfiles/place_api/icons/v1/png_71/school-71.png", "icon_background_color": "#7B9EB0", "icon_mask_base_uri": "https://maps.gstatic.com/mapfiles/place_api/icons/v2/school_pinlet", "name": "\u09ac\u09a6\u09b2\u09be \u0995\u09f0\u09cd\u09a4\u09c0\u09ae\u09be\u09f0\u09c0 \u098f\u09ae\u0987 \u09b8\u09cd\u0995\u09c1\u09b2", "place_id": "ChIJI9hv19B9WDcR9ziyjgNYtNo", "plus_code": {"compound_code": "935X+2Q Patimari, Assam, India", "global_code": "7MRG935X+2Q"}, "reference": "ChIJI9hv19B9WDcR9ziyjgNYtNo", "scope": "GOOGLE", "types": ["school", "point_of_interest", "establishment"], "vicinity": "Unnamed Road"}, {"business_status": "OPERATIONAL", "geometry": {"location": {"lat": 26.367342, "lng": 90.0941539}, "viewport": {"northeast": {"lat": 26.3687094302915, "lng": 90.0955786802915}, "southwest": {"lat": 26.36601146970849, "lng": 90.09288071970849}}}, "icon": "https://maps.gstatic.com/mapfiles/place_api/icons/v1/png_71/school-71.png", "icon_background_color": "#7B9EB0", "icon_mask_base_uri": "https://maps.gstatic.com/mapfiles/place_api/icons/v2/school_pinlet", "name": "Puthimari L.P. School", "photos": [{"height": 3072, "html_attributions": ["<a href=\"https://maps.google.com/maps/contrib/107892974944557475564\">Prem Barman</a>"], "photo_reference": "Aap_uEDhRg9DxqxecgsBU-dAaHDdQ96c0o3ZEK8GsagGM7j5L_GJDtT47opJefU3Y22zzEzcjsLMT0_US3bafeOGLHmWiJgSBNHmDgr19Ajgkcxi3Y6sXMrPCjgDvrOJT_5e8L1Jq9EVnjTrWk15TQ2V2Jxc4VvMVGqQTR4TPi2C9EmMIZcZ", "width": 4096}], "place_id": "ChIJcRxERZp9WDcRmyrxGq92GmM", "plus_code": {"compound_code": "938V+WM Khuriabari, Assam, India", "global_code": "7MRG938V+WM"}, "rating": 5, "reference": "ChIJcRxERZp9WDcRmyrxGq92GmM", "scope": "GOOGLE", "types": ["primary_school", "school", "point_of_interest", "establishment"], "user_ratings_total": 3, "vicinity": "Puthimari village P.O. Kartimari Dist Kokrajhar PIN 783337"}, {"business_status": "OPERATIONAL", "geometry": {"location": {"lat": 26.3673486, "lng": 90.0940081}, "viewport": {"northeast": {"lat": 26.3687323302915, "lng": 90.0954998302915}, "southwest": {"lat": 26.3660343697085, "lng": 90.0928018697085}}}, "icon": "https://maps.gstatic.com/mapfiles/place_api/icons/v1/png_71/school-71.png", "icon_background_color": "#7B9EB0", "icon_mask_base_uri": "https://maps.gstatic.com/mapfiles/place_api/icons/v2/school_pinlet", "name": "\u09aa\u09c1\u09a0\u09bf\u09ae\u09be\u09f0\u09c0 \u098f\u09b2\u09aa\u09bf \u09b8\u09cd\u0995\u09c1\u09b2", "photos": [{"height": 1970, "html_attributions": ["<a href=\"https://maps.google.com/maps/contrib/104385974505021546294\">Amal chandra Barman</a>"], "photo_reference": "Aap_uEAq65nPOM2yN5ZL8QuWre8dn_dRjAbQQMyq869h-3YTDUu7JTKl-prOEMmEZPUqIKoL3cTlKzJNUsAqDG47xf7sDd0kRCWSK6FQuH6-vYtF_ixljNbhVqj0MrH0yMYuyBGdls-2QZKypdGCv30jCs3E--KvsrZLQz-lB99_K5LBzFcX", "width": 4160}], "place_id": "ChIJvYs-eed9WDcRPVbhqzSwmGA", "plus_code": {"compound_code": "938V+WJ Khuriabari, Assam, India", "global_code": "7MRG938V+WJ"}, "rating": 1, "reference": "ChIJvYs-eed9WDcRPVbhqzSwmGA", "scope": "GOOGLE", "types": ["school", "point_of_interest", "establishment"], "user_ratings_total": 1, "vicinity": "Puthimari village P.O. Kartimari Dist Kokrajhar"}, {"business_status": "OPERATIONAL", "geometry": {"location": {"lat": 26.3676793, "lng": 90.09397349999999}, "viewport": {"northeast": {"lat": 26.3690404802915, "lng": 90.0954447302915}, "southwest": {"lat": 26.3663425197085, "lng": 90.0927467697085}}}, "icon": "https://maps.gstatic.com/mapfiles/place_api/icons/v1/png_71/school-71.png", "icon_background_color": "#7B9EB0", "icon_mask_base_uri": "https://maps.gstatic.com/mapfiles/place_api/icons/v2/school_pinlet", "name": "Puthimari Kali Mandir", "photos": [{"height": 3264, "html_attributions": ["<a href=\"https://maps.google.com/maps/contrib/108214367909081915404\">Mithun Barman</a>"], "photo_reference": "Aap_uEDm8j7atv6hwuhRuaboOVTdwsSMwuTdotxfi8hi6ezVAGk62MtsTxCiWi5hnQ0oNx1eGo_GTtx-CB4Mlh4nDIgzNWquasS3VpGwX5eWvptaZE8aBSWjhqdj73Bw5LdeV1sZRKa9CWGjgN5ki5opA-dx_mQLxy85CLgTWTlbIVWbHSrf", "width": 1840}], "place_id": "ChIJe1TSVSh9WDcRuxaa2-LrPeM", "reference": "ChIJe1TSVSh9WDcRuxaa2-LrPeM", "scope": "GOOGLE", "types": ["school", "point_of_interest", "establishment"], "vicinity": "939V+3HH, Puthimari"}, {"business_status": "OPERATIONAL", "geometry": {"location": {"lat": 26.3575176, "lng": 90.0913772}, "viewport": {"northeast": {"lat": 26.3589361802915, "lng": 90.0926583302915}, "southwest": {"lat": 26.35623821970849, "lng": 90.08996036970849}}}, "icon": "https://maps.gstatic.com/mapfiles/place_api/icons/v1/png_71/school-71.png", "icon_background_color": "#7B9EB0", "icon_mask_base_uri": "https://maps.gstatic.com/mapfiles/place_api/icons/v2/school_pinlet", "name": "Kartimari Vivekananda M.E. School", "place_id": "ChIJk0lvVjh8WDcRpLOtEk7kM_E", "rating": 2.5, "reference": "ChIJk0lvVjh8WDcRpLOtEk7kM_E", "scope": "GOOGLE", "types": ["school", "point_of_interest", "establishment"], "user_ratings_total": 2, "vicinity": "935R+2H2, Jamunatari"}], "status": "OK"}