{"html_attributions": [], "results": [{"business_status": "OPERATIONAL", "geometry": {"location": {"lat": 26.3823749, "lng": 90.0983492}, "viewport": {"northeast": {"lat": 26.38345704999999, "lng": 90.09945213029151}, "southwest": {"lat": 26.37912845000001, "lng": 90.0967541697085}}}, "icon": "https://maps.gstatic.com/mapfiles/place_api/icons/v1/png_71/school-71.png", "icon_background_color": "#7B9EB0", "icon_mask_base_uri": "https://maps.gstatic.com/mapfiles/place_api/icons/v2/school_pinlet", "name": "No 1 kusum bil L . P school", "photos": [{"height": 1944, "html_attributions": ["<a href=\"https://maps.google.com/maps/contrib/115298015826278061178\">Tun Barman</a>"], "photo_reference": "Aap_uED3qk5qlExedr7_7-yI2dDlPgfdN-3Hh7c4q4rZtXOIbWZ-8h7Q1l33Yrq20aYdxgEGb3X5dciQuG5rPzvDVb-KZD0Sbg5i17R6mNagZzDEzmyrj5o7dwFGJs-O_13HcrXwblAnsITEumuO0qdOHqNQdtpYS-fuhGwTdn8Sgn8vyWwZ", "width": 2592}], "place_id": "ChIJXTgV2Px9WDcRqu1WsIVJr9Y", "reference": "ChIJXTgV2Px9WDcRqu1WsIVJr9Y", "scope": "GOOGLE", "types": ["school", "point_of_interest", "establishment"], "vicinity": "93JX+W8X, Kusumbil-I"}, {"business_status": "OPERATIONAL", "geometry": {"location": {"lat": 26.3762045, "lng": 90.10287609999999}, "viewport": {"northeast": {"lat": 26.3776493302915, "lng": 90.1041164802915}, "southwest": {"lat": 26.3749513697085, "lng": 90.10141851970849}}}, "icon": "https://maps.gstatic.com/mapfiles/place_api/icons/v1/png_71/school-71.png", "icon_background_color": "#7B9EB0", "icon_mask_base_uri": "https://maps.gstatic.com/mapfiles/place_api/icons/v2/school_pinlet", "name": "\u09ae\u09b9\u09bf\u09b7\u09ac\u09be\u09a5\u09be\u09a8 \u098f\u09b2\u09aa\u09bf \u09b8\u09cd\u0995\u09c1\u09b2", "place_id": "ChIJa1XyDTx9WDcR_nAsFgVPKow", "plus_code": {"compound_code": "94G3+F5 Basirchar, Assam, India", "global_code": "7MRG94G3+F5"}, "reference": "ChIJa1XyDTx9WDcR_nAsFgVPKow", "scope": "GOOGLE", "types": ["school", "point_of_interest", "establishment"], "vicinity": "Unnamed Road"}, {"business_status": "OPERATIONAL", "geometry": {"location": {"lat": 26.3804802, "lng": 90.11336589999999}, "viewport": {"northeast": {"lat": 26.3818427802915, "lng": 90.11463063029149}, "southwest": {"lat": 26.3791448197085, "lng": 90.11193266970848}}}, "icon": "https://maps.gstatic.com/mapfiles/place_api/icons/v1/png_71/school-71.png", "icon_background_color": "#7B9EB0", "icon_mask_base_uri": "https://maps.gstatic.com/mapfiles/place_api/icons/v2/school_pinlet", "name": "Faluguri Lp School Part 2", "opening_hours": {"open_now": true}, "place_id": "ChIJmcvwDAd9WDcR3zxZ0JB9hFY", "reference": "ChIJmcvwDAd9WDcR3zxZ0JB9hFY", "scope": "GOOGLE", "types": ["school", "point_of_interest", "establishment"], "vicinity": "94J7+58X, Basirchar"}, {"business_status": "OPERATIONAL", "geometry": {"location": {"lat": 26.3774616, "lng": 90.09445799999999}, "viewport": {"northeast": {"lat": 26.3788798802915, "lng": 90.0958206302915}, "southwest": {"lat": 26.3761819197085, "lng": 90.09312266970848}}}, "icon": "https://maps.gstatic.com/mapfiles/place_api/icons/v1/png_71/school-71.png", "icon_background_color": "#7B9EB0", "icon_mask_base_uri": "https://maps.gstatic.com/mapfiles/place_api/icons/v2/school_pinlet", "name": "Silbari East LP School", "place_id": "ChIJq7506KJ9WDcR6tRMp4z68Qo", "plus_code": {"compound_code": "93GV+XQ Joypur, Assam, India", "global_code": "7MRG93GV+XQ"}, "reference": "ChIJq7506KJ9WDcR6tRMp4z68Qo", "scope": "GOOGLE", "types": ["primary_school", "school", "point_of_interest", "establishment"], "vicinity": "Silbari, Joypur"}, {"business_status": "OPERATIONAL", "geometry": {"location": {"lat": 26.3734158, "lng": 90.0956539}, "viewport": {"northeast": {"lat": 26.3747102802915, "lng": 90.0972518302915}, "southwest": {"lat": 26.3720123197085, "lng": 90.09455386970849}}}, "icon": "https://maps.gstatic.com/mapfiles/place_api/icons/v1/png_71/school-71.png", "icon_background_color": "#7B9EB0", "icon_mask_base_uri": "https://maps.gstatic.com/mapfiles/place_api/icons/v2/school_pinlet", "name": "Madan Mohan M.E Scholl", "place_id": "ChIJN26JILV9WDcRYwOgZUfzHxI", "rating": 3, "reference": "ChIJN26JILV9WDcRYwOgZUfzHxI", "scope": "GOOGLE", "types": ["school", "point_of_interest", "establishment"], "user_ratings_total": 1, "vicinity": "93FW+976, Silbari"}, {"business_status": "OPERATIONAL", "geometry": {"location": {"lat": 26.3733924, "lng": 90.095484}, "viewport": {"northeast": {"lat": 26.3746699802915, "lng": 90.0971590802915}, "southwest": {"lat": 26.3719720197085, "lng": 90.0944611197085}}}, "icon": "https://maps.gstatic.com/mapfiles/place_api/icons/v1/png_71/school-71.png", "icon_background_color": "#7B9EB0", "icon_mask_base_uri": "https://maps.gstatic.com/mapfiles/place_api/icons/v2/school_pinlet", "name": "\u09ae\u09a6\u09a8 \u099f\u09bf\u09b2\u09be \u098f\u09ae \u0987 \u09b8\u09cd\u0995\u09c1\u09b2", "place_id": "ChIJ88WbeJp9WDcR4AfGkBdrjHo", "plus_code": {"compound_code": "93FW+95 Silbari, Assam, India", "global_code": "7MRG93FW+95"}, "reference": "ChIJ88WbeJp9WDcR4AfGkBdrjHo", "scope": "GOOGLE", "types": ["school", "point_of_interest", "establishment"], "vicinity": "Unnamed Road"}, {"business_status": "OPERATIONAL", "geometry": {"location": {"lat": 26.3729977, "lng": 90.09590740000002}, "viewport": {"northeast": {"lat": 26.3743330302915, "lng": 90.0973340302915}, "southwest": {"lat": 26.3716350697085, "lng": 90.0946360697085}}}, "icon": "https://maps.gstatic.com/mapfiles/place_api/icons/v1/png_71/school-71.png", "icon_background_color": "#7B9EB0", "icon_mask_base_uri": "https://maps.gstatic.com/mapfiles/place_api/icons/v2/school_pinlet", "name": "Gulihara L.P.School", "place_id": "ChIJE_odDSd9WDcRuaRXhhuIywU", "reference": "ChIJE_odDSd9WDcRuaRXhhuIywU", "scope": "GOOGLE", "types": ["school", "point_of_interest", "establishment"], "vicinity": "93FW+59V, Silbari"}, {"business_status": "OPERATIONAL", "geometry": {"location": {"lat": 26.3850189, "lng": 90.09099289999999}, "viewport": {"northeast": {"lat": 26.3863390302915, "lng": 90.09244558029151}, "southwest": {"lat": 26.3836410697085, "lng": 90.08974761970849}}}, "icon": "https://maps.gstatic.com/mapfiles/place_api/icons/v1/png_71/school-71.png", "icon_background_color": "#7B9EB0", "icon_mask_base_uri": "https://maps.gstatic.com/mapfiles/place_api/icons/v2/school_pinlet", "name": "Jogirvita Bamnerpar LPS (NP)(Indadul )", "photos": [{"height": 853, "html_attributions": ["<a href=\"https://maps.google.com/maps/contrib/100029493112639617536\">Indadul Khan</a>"], "photo_reference": "Aap_uEBcjDdwCLcEZL6Y9yN9U6EqAHx2-uQEZOFeQKOz7-5S2X7DHkA2-jdk7zFPrmH4JrqER6qu0sRZRepiWQEGadpBNHLhd7yffTNz6b3UfVUZ0KX1lXZBJ27Mvll-zK0u0Q-s0rNWOQkqMR8Rx6gWlT2AbWeUpYSPlosyvtgkU_0IIqBt", "width": 1280}], "place_id": "ChIJTTbjAOZ9WDcRWmLTd3_-hQs", "rating": 5, "reference": "ChIJTTbjAOZ9WDcRWmLTd3_-hQs", "scope": "GOOGLE", "types": ["school", "point_of_interest", "establishment"], "user_ratings_total": 1, "vicinity": "93PR+295, Joypur"}], "status": "OK"}