{"html_attributions": [], "results": [{"business_status": "OPERATIONAL", "geometry": {"location": {"lat": 26.0236087, "lng": 90.1363038}, "viewport": {"northeast": {"lat": 26.0244726802915, "lng": 90.1379836802915}, "southwest": {"lat": 26.0217747197085, "lng": 90.13528571970849}}}, "icon": "https://maps.gstatic.com/mapfiles/place_api/icons/v1/png_71/school-71.png", "icon_background_color": "#7B9EB0", "icon_mask_base_uri": "https://maps.gstatic.com/mapfiles/place_api/icons/v2/school_pinlet", "name": "narowamari lp school", "opening_hours": {"open_now": true}, "photos": [{"height": 3456, "html_attributions": ["<a href=\"https://maps.google.com/maps/contrib/109784662393841166232\">Biplab Das</a>"], "photo_reference": "Aap_uEB14vmoTlLLNvtZsRBWzqvmP7dfCnn30eZbgYTemvb4ZqKn2VPrNFLg_cDCz1pcq-RgRoj0yyTU7z8h5JDKaG9XQwOlYBriWD6b6xXhB8fPqNXAI-25R_5q3Ojkg6sluzVFXFyQX62CeUF69VbyzOkQBtOFGUqLQylLxKUv727orhu1", "width": 4608}], "place_id": "ChIJ8ZCdJCYNWDcR2HII3_Gak6c", "rating": 5, "reference": "ChIJ8ZCdJCYNWDcR2HII3_Gak6c", "scope": "GOOGLE", "types": ["school", "point_of_interest", "establishment"], "user_ratings_total": 1, "vicinity": "24FP+CGV, Madatari"}, {"business_status": "OPERATIONAL", "geometry": {"location": {"lat": 26.0205687, "lng": 90.13652379999999}, "viewport": {"northeast": {"lat": 26.02190643029151, "lng": 90.1380233302915}, "southwest": {"lat": 26.0192084697085, "lng": 90.1353253697085}}}, "icon": "https://maps.gstatic.com/mapfiles/place_api/icons/v1/png_71/school-71.png", "icon_background_color": "#7B9EB0", "icon_mask_base_uri": "https://maps.gstatic.com/mapfiles/place_api/icons/v2/school_pinlet", "name": "Mondia MEM", "photos": [{"height": 3120, "html_attributions": ["<a href=\"https://maps.google.com/maps/contrib/116832820402791946243\">MOYNUL HOQUE</a>"], "photo_reference": "Aap_uEB4_oM2jg7TxKfcwoycGAftXgX-qBmT_eQr_DjeAIA4dR5YCnbXBg2UgrBRZg4pmlAAj_LJKHhVB-duCJyBDx3ASujNdd7R8gsDn_xjiMXZV1fZCWtrQd6WApbfDua-OsOnMYqfr4sXIbBFI3a2-cQ6BSkrY-iZdGrTBcpU9N2N0kdV", "width": 4160}], "place_id": "ChIJs8-WWscNWDcRiAWQO3mGjtw", "plus_code": {"compound_code": "24CP+6J Madatari, Assam, India", "global_code": "7MRG24CP+6J"}, "reference": "ChIJs8-WWscNWDcRiAWQO3mGjtw", "scope": "GOOGLE", "types": ["school", "point_of_interest", "establishment"], "vicinity": "Mandia"}, {"business_status": "OPERATIONAL", "geometry": {"location": {"lat": 26.0169038, "lng": 90.13609389999999}, "viewport": {"northeast": {"lat": 26.0182997302915, "lng": 90.13766733029149}, "southwest": {"lat": 26.0156017697085, "lng": 90.13496936970849}}}, "icon": "https://maps.gstatic.com/mapfiles/place_api/icons/v1/png_71/school-71.png", "icon_background_color": "#7B9EB0", "icon_mask_base_uri": "https://maps.gstatic.com/mapfiles/place_api/icons/v2/school_pinlet", "name": "Mondia ME Madrassa.", "photos": [{"height": 1280, "html_attributions": ["<a href=\"https://maps.google.com/maps/contrib/115388374590550681732\">abu amor ibrahim</a>"], "photo_reference": "Aap_uEB66UtcSJCKZaULo8rDJLGm1gUYiVaI4htGayFVkApEg6X7kG1yC2QqCVqbijeTQNEeTsspLC6Nu25-cLIVqA2t26qdQ0ZA-6fQ_jKmg9WXIzPgYsZnKbVIZQpv1p7VZr1FQ1Arw6B9Pbli0uqVKH5NDgYgAp-hJRglHEBJucDi8cWc", "width": 720}], "place_id": "ChIJe5KgzGsNWDcRi-mkpxUJzmg", "plus_code": {"compound_code": "248P+QC Mondia, Assam, India", "global_code": "7MRG248P+QC"}, "rating": 4, "reference": "ChIJe5KgzGsNWDcRi-mkpxUJzmg", "scope": "GOOGLE", "types": ["school", "point_of_interest", "establishment"], "user_ratings_total": 1, "vicinity": "Mondia"}], "status": "OK"}