{"html_attributions": [], "results": [{"business_status": "OPERATIONAL", "geometry": {"location": {"lat": 26.2366866, "lng": 90.1194052}, "viewport": {"northeast": {"lat": 26.2380570302915, "lng": 90.12091218029151}, "southwest": {"lat": 26.2353590697085, "lng": 90.11821421970849}}}, "icon": "https://maps.gstatic.com/mapfiles/place_api/icons/v1/png_71/school-71.png", "icon_background_color": "#7B9EB0", "icon_mask_base_uri": "https://maps.gstatic.com/mapfiles/place_api/icons/v2/school_pinlet", "name": "L.P School", "place_id": "ChIJ8374g4R6WDcRgHDlfNKYoxI", "reference": "ChIJ8374g4R6WDcRgHDlfNKYoxI", "scope": "GOOGLE", "types": ["school", "point_of_interest", "establishment"], "vicinity": "64P9+MQC, Falakata Pt.II"}, {"business_status": "OPERATIONAL", "geometry": {"location": {"lat": 26.2478177, "lng": 90.1193553}, "viewport": {"northeast": {"lat": 26.2492596302915, "lng": 90.12051158029149}, "southwest": {"lat": 26.2465616697085, "lng": 90.11781361970849}}}, "icon": "https://maps.gstatic.com/mapfiles/place_api/icons/v1/png_71/school-71.png", "icon_background_color": "#7B9EB0", "icon_mask_base_uri": "https://maps.gstatic.com/mapfiles/place_api/icons/v2/school_pinlet", "name": "Kharkharia L.P School", "place_id": "ChIJs56xfo56WDcRTInUIlcqJnU", "reference": "ChIJs56xfo56WDcRTInUIlcqJnU", "scope": "GOOGLE", "types": ["school", "point_of_interest", "establishment"], "vicinity": "64X9+4PH, Falakata Pt.II"}, {"business_status": "CLOSED_TEMPORARILY", "geometry": {"location": {"lat": 26.2478295, "lng": 90.1193358}, "viewport": {"northeast": {"lat": 26.2492664302915, "lng": 90.12050238029151}, "southwest": {"lat": 26.2465684697085, "lng": 90.1178044197085}}}, "icon": "https://maps.gstatic.com/mapfiles/place_api/icons/v1/png_71/school-71.png", "icon_background_color": "#7B9EB0", "icon_mask_base_uri": "https://maps.gstatic.com/mapfiles/place_api/icons/v2/school_pinlet", "name": "2070 No Kharkharia L.P School", "permanently_closed": true, "place_id": "ChIJ6yG6fo56WDcRVKPlhNYd3FU", "plus_code": {"compound_code": "64X9+4P Falakata Pt.II, Assam, India", "global_code": "7MRG64X9+4P"}, "rating": 5, "reference": "ChIJ6yG6fo56WDcRVKPlhNYd3FU", "scope": "GOOGLE", "types": ["school", "point_of_interest", "establishment"], "user_ratings_total": 1, "vicinity": "Falakata Pt.II"}, {"business_status": "OPERATIONAL", "geometry": {"location": {"lat": 26.2365013, "lng": 90.12972979999999}, "viewport": {"northeast": {"lat": 26.2378478802915, "lng": 90.13108403029152}, "southwest": {"lat": 26.2351499197085, "lng": 90.12838606970851}}}, "icon": "https://maps.gstatic.com/mapfiles/place_api/icons/v1/png_71/school-71.png", "icon_background_color": "#7B9EB0", "icon_mask_base_uri": "https://maps.gstatic.com/mapfiles/place_api/icons/v2/school_pinlet", "name": "Bamunigaon LP School", "place_id": "ChIJURWRdAN7WDcRzuHG9tSXpzA", "plus_code": {"compound_code": "64PH+JV Falakata Pt.I, Assam, India", "global_code": "7MRG64PH+JV"}, "reference": "ChIJURWRdAN7WDcRzuHG9tSXpzA", "scope": "GOOGLE", "types": ["school", "point_of_interest", "establishment"], "vicinity": "Falakata Pt.I"}, {"business_status": "OPERATIONAL", "geometry": {"location": {"lat": 26.2475742, "lng": 90.11530479999999}, "viewport": {"northeast": {"lat": 26.2488665302915, "lng": 90.1166204302915}, "southwest": {"lat": 26.2461685697085, "lng": 90.1139224697085}}}, "icon": "https://maps.gstatic.com/mapfiles/place_api/icons/v1/png_71/school-71.png", "icon_background_color": "#7B9EB0", "icon_mask_base_uri": "https://maps.gstatic.com/mapfiles/place_api/icons/v2/school_pinlet", "name": "L.P School", "place_id": "ChIJKeZ-0Y56WDcRxDIEYkcsx7s", "rating": 4.5, "reference": "ChIJKeZ-0Y56WDcRxDIEYkcsx7s", "scope": "GOOGLE", "types": ["school", "point_of_interest", "establishment"], "user_ratings_total": 2, "vicinity": "64X8+24F, Falakata Pt.II"}, {"business_status": "OPERATIONAL", "geometry": {"location": {"lat": 26.2514797, "lng": 90.1289247}, "viewport": {"northeast": {"lat": 26.25275128029151, "lng": 90.1303600802915}, "southwest": {"lat": 26.2500533197085, "lng": 90.12766211970849}}}, "icon": "https://maps.gstatic.com/mapfiles/place_api/icons/v1/png_71/school-71.png", "icon_background_color": "#7B9EB0", "icon_mask_base_uri": "https://maps.gstatic.com/mapfiles/place_api/icons/v2/school_pinlet", "name": "Murabari School", "place_id": "ChIJd0BF6Jl7WDcRBCrx6rertks", "rating": 3, "reference": "ChIJd0BF6Jl7WDcRBCrx6rertks", "scope": "GOOGLE", "types": ["school", "point_of_interest", "establishment"], "user_ratings_total": 1, "vicinity": "742H+HHV, Falakata Pt.I"}, {"business_status": "OPERATIONAL", "geometry": {"location": {"lat": 26.2483849, "lng": 90.11438179999999}, "viewport": {"northeast": {"lat": 26.2497887802915, "lng": 90.1155448302915}, "southwest": {"lat": 26.2470908197085, "lng": 90.11284686970849}}}, "icon": "https://maps.gstatic.com/mapfiles/place_api/icons/v1/png_71/school-71.png", "icon_background_color": "#7B9EB0", "icon_mask_base_uri": "https://maps.gstatic.com/mapfiles/place_api/icons/v2/school_pinlet", "name": "Kharkharia M.E School", "opening_hours": {"open_now": true}, "photos": [{"height": 1440, "html_attributions": ["<a href=\"https://maps.google.com/maps/contrib/114765158827555136321\">Rajesh Adhikary</a>"], "photo_reference": "Aap_uEA4zonL-ZV9R314-Ch7Uyq-bDJPk4Hpbh7pyrqMorMDSaLgTEGMDfcH38YiI9Wv8ZZ1XnhefrRonZlj7Sg6RB0wWvicxRTGlNnD_LverCcc2DQATdZELMs79LYnTYAuBWecQk0z2W151SH1V_bi2fdzViOGXukso_mSDvwZAXqcScNz", "width": 2560}], "place_id": "ChIJxSUxK4p6WDcRNHjimI6ffxs", "rating": 5, "reference": "ChIJxSUxK4p6WDcRNHjimI6ffxs", "scope": "GOOGLE", "types": ["school", "point_of_interest", "establishment"], "user_ratings_total": 6, "vicinity": "64X7+9Q2, Falakata Pt.II"}, {"business_status": "OPERATIONAL", "geometry": {"location": {"lat": 26.2529558, "lng": 90.1187508}, "viewport": {"northeast": {"lat": 26.25423303029151, "lng": 90.12015533029151}, "southwest": {"lat": 26.2515350697085, "lng": 90.1174573697085}}}, "icon": "https://maps.gstatic.com/mapfiles/place_api/icons/v1/png_71/school-71.png", "icon_background_color": "#7B9EB0", "icon_mask_base_uri": "https://maps.gstatic.com/mapfiles/place_api/icons/v2/school_pinlet", "name": "L.P School", "photos": [{"height": 2560, "html_attributions": ["<a href=\"https://maps.google.com/maps/contrib/114765158827555136321\">Rajesh Adhikary</a>"], "photo_reference": "Aap_uEDB-r0wfrMVAfihmDiBR1eqCSaUU_hwZrA3z7GR9lRIiGSBBW84jq9dbpn31aOUMuw5kCe464cqoair1CBf5Gdej0qFnwduEOt07SAMT5RBFPRi_Jmx0DfJO3zgVy_vEr9-B4VO5TvB-e0aZRKGnnEz70gWUJncJXrOUkq3WH65qaIp", "width": 1440}], "place_id": "ChIJ2YT9Cvh6WDcRgBc7F_wXxF4", "reference": "ChIJ2YT9Cvh6WDcRgBc7F_wXxF4", "scope": "GOOGLE", "types": ["school", "point_of_interest", "establishment"], "vicinity": "7439+5GJ, Jalabila"}], "status": "OK"}