{"html_attributions": [], "results": [{"business_status": "OPERATIONAL", "geometry": {"location": {"lat": 25.7950154, "lng": 90.14726549999999}, "viewport": {"northeast": {"lat": 25.7963643802915, "lng": 90.1486144802915}, "southwest": {"lat": 25.7936664197085, "lng": 90.14591651970849}}}, "icon": "https://maps.gstatic.com/mapfiles/place_api/icons/v1/png_71/school-71.png", "icon_background_color": "#7B9EB0", "icon_mask_base_uri": "https://maps.gstatic.com/mapfiles/place_api/icons/v2/school_pinlet", "name": "Jangrapara Govt. L.P. School", "photos": [{"height": 1932, "html_attributions": ["<a href=\"https://maps.google.com/maps/contrib/105437808109574805510\">NATHANIEL MARAK</a>"], "photo_reference": "Aap_uED5LL14EshkOisOnEb4KjB0SjmVLpbbRip8H8tubsu47h8UdNEYCloTxNwWkVowBz3p0g4ys-w0srwU_3m9fg6-Fo1NYAO9bey5z5viuoT9C_4DtXyY_gksvIqqZXb02RtazBspFWQ2OMEAclyul91BBSfZ32_qG6vC0JrbVfhXZr1R", "width": 2576}], "place_id": "ChIJYWEhqikFWDcRTFIP29GOIVw", "rating": 4, "reference": "ChIJYWEhqikFWDcRTFIP29GOIVw", "scope": "GOOGLE", "types": ["school", "point_of_interest", "establishment"], "user_ratings_total": 1, "vicinity": "Q4WW+2W2, Chisikgre"}, {"business_status": "OPERATIONAL", "geometry": {"location": {"lat": 25.8051307, "lng": 90.13504979999999}, "viewport": {"northeast": {"lat": 25.8064796802915, "lng": 90.1363987802915}, "southwest": {"lat": 25.8037817197085, "lng": 90.13370081970848}}}, "icon": "https://maps.gstatic.com/mapfiles/place_api/icons/v1/png_71/school-71.png", "icon_background_color": "#7B9EB0", "icon_mask_base_uri": "https://maps.gstatic.com/mapfiles/place_api/icons/v2/school_pinlet", "name": "Bikonggre Secondary School", "photos": [{"height": 4128, "html_attributions": ["<a href=\"https://maps.google.com/maps/contrib/105437808109574805510\">NATHANIEL MARAK</a>"], "photo_reference": "Aap_uEDclXMKEuJlpfTGA4YWfy7kb3rVzw3G6K-OhOnOJ9lfAvpkOwL4ijY_7l-cCaeQSJ9Ds64hQK8SyKwJc87U3MdxClbuHbSP41FqUfMERVL69wNmkaIXAslWyD9ooaly-fcwfW9vJFl1YwCRw5Rg9_CCFXtfUkLWWVnT8zghCjKTTegl", "width": 3096}], "place_id": "ChIJcW_mYaAFWDcRZ7dYblscWbA", "rating": 5, "reference": "ChIJcW_mYaAFWDcRZ7dYblscWbA", "scope": "GOOGLE", "types": ["school", "point_of_interest", "establishment"], "user_ratings_total": 2, "vicinity": "R44P+323, Chisikgre"}, {"business_status": "OPERATIONAL", "geometry": {"location": {"lat": 25.8051578, "lng": 90.1347941}, "viewport": {"northeast": {"lat": 25.8065067802915, "lng": 90.13614308029149}, "southwest": {"lat": 25.8038088197085, "lng": 90.13344511970848}}}, "icon": "https://maps.gstatic.com/mapfiles/place_api/icons/v1/png_71/school-71.png", "icon_background_color": "#7B9EB0", "icon_mask_base_uri": "https://maps.gstatic.com/mapfiles/place_api/icons/v2/school_pinlet", "name": "Bikonggre U.P. School", "photos": [{"height": 1932, "html_attributions": ["<a href=\"https://maps.google.com/maps/contrib/105437808109574805510\">NATHANIEL MARAK</a>"], "photo_reference": "Aap_uEDOPpU_TitKiGWM42Xkk_T8PX9jm13I6beyT98bzyCUfFdmiUKXK_ZdSq_f1OxXNaiRskwjfMP8rtDNRoHhXT2gbKA4GQ9IsuGztfZPSUfqdVHAWkhfZw2MRaDM4gMsKxbtthTbd0MvAHOfOnLAIL6BvnZajJZDdmfMnNhYrtJvt2Re", "width": 2576}], "place_id": "ChIJMQ--7ukFWDcRYw3U5lbP9VE", "plus_code": {"compound_code": "R44M+3W Bikonggre, Meghalaya, India", "global_code": "7MQGR44M+3W"}, "rating": 2, "reference": "ChIJMQ--7ukFWDcRYw3U5lbP9VE", "scope": "GOOGLE", "types": ["school", "point_of_interest", "establishment"], "user_ratings_total": 1, "vicinity": "Bikonggre"}, {"business_status": "OPERATIONAL", "geometry": {"location": {"lat": 25.7920272, "lng": 90.1481847}, "viewport": {"northeast": {"lat": 25.7933761802915, "lng": 90.14953368029151}, "southwest": {"lat": 25.7906782197085, "lng": 90.1468357197085}}}, "icon": "https://maps.gstatic.com/mapfiles/place_api/icons/v1/png_71/school-71.png", "icon_background_color": "#7B9EB0", "icon_mask_base_uri": "https://maps.gstatic.com/mapfiles/place_api/icons/v2/school_pinlet", "name": "Jangrapara UP School", "photos": [{"height": 1840, "html_attributions": ["<a href=\"https://maps.google.com/maps/contrib/105437808109574805510\">NATHANIEL MARAK</a>"], "photo_reference": "Aap_uEDsJAL1XjhZqVOxRzIfFdFURz8hKbPF1aIKD54BIlVLBwjg7i-FpzKHbNK8vz14OkR-F7ovyv8qD4WOLhtGLRhuvEuyVSQVH1FvWn5G2Y0WbjmzJHyVFZF8d0nsIqPKuPCQ4PEFul0ocOyXB51ISVhiMN5L-vuDT1PbfNCz2Uh5ZoOl", "width": 3264}], "place_id": "ChIJo55ia78FWDcRuiPUqSnbAwU", "plus_code": {"compound_code": "Q4RX+R7 Chisikgre, Meghalaya, India", "global_code": "7MQGQ4RX+R7"}, "rating": 5, "reference": "ChIJo55ia78FWDcRuiPUqSnbAwU", "scope": "GOOGLE", "types": ["school", "point_of_interest", "establishment"], "user_ratings_total": 1, "vicinity": ""}, {"business_status": "OPERATIONAL", "geometry": {"location": {"lat": 25.8113542, "lng": 90.1503086}, "viewport": {"northeast": {"lat": 25.8126549302915, "lng": 90.15140558029151}, "southwest": {"lat": 25.8099569697085, "lng": 90.1487076197085}}}, "icon": "https://maps.gstatic.com/mapfiles/place_api/icons/v1/png_71/school-71.png", "icon_background_color": "#7B9EB0", "icon_mask_base_uri": "https://maps.gstatic.com/mapfiles/place_api/icons/v2/school_pinlet", "name": "sotmarenggre u.p school", "place_id": "ChIJ6bXObokbWDcRpqhiqAH-AZQ", "reference": "ChIJ6bXObokbWDcRpqhiqAH-AZQ", "scope": "GOOGLE", "types": ["school", "point_of_interest", "establishment"], "vicinity": "R562+G4V, Chisikgre"}], "status": "OK"}