{"html_attributions": [], "results": [{"business_status": "OPERATIONAL", "geometry": {"location": {"lat": 25.9728465, "lng": 90.15088999999999}, "viewport": {"northeast": {"lat": 25.9740039302915, "lng": 90.1523618302915}, "southwest": {"lat": 25.97130596970849, "lng": 90.14966386970849}}}, "icon": "https://maps.gstatic.com/mapfiles/place_api/icons/v1/png_71/school-71.png", "icon_background_color": "#7B9EB0", "icon_mask_base_uri": "https://maps.gstatic.com/mapfiles/place_api/icons/v2/school_pinlet", "name": "Khalisabhita HS School", "photos": [{"height": 4160, "html_attributions": ["<a href=\"https://maps.google.com/maps/contrib/104810471236136949541\">S The Rocks</a>"], "photo_reference": "Aap_uEBtdRcGqhhKp5yUFcFLhQA7Mp0C1lmHynFPtHS0dYCXjL2XuoHpLn9IHYm1zqerpgNanN8tuls6HAOHPB3VnPHCg7q5muwQ8rZ9yX3TB1KRd-3Mq087tXdYBH-xsN9xWchYxNeRqeBCkVRfd4pRTKGQWF3yrFsPJ0a-s99DOi-jBPBQ", "width": 3120}], "place_id": "ChIJcccEDHUSWDcRM-WdH1SzMwM", "rating": 4.2, "reference": "ChIJcccEDHUSWDcRM-WdH1SzMwM", "scope": "GOOGLE", "types": ["school", "point_of_interest", "establishment"], "user_ratings_total": 26, "vicinity": "X5F2+49J, Charaghar"}, {"business_status": "OPERATIONAL", "geometry": {"location": {"lat": 25.9679162, "lng": 90.149158}, "viewport": {"northeast": {"lat": 25.9692560302915, "lng": 90.1508815802915}, "southwest": {"lat": 25.9665580697085, "lng": 90.14818361970849}}}, "icon": "https://maps.gstatic.com/mapfiles/place_api/icons/v1/png_71/school-71.png", "icon_background_color": "#7B9EB0", "icon_mask_base_uri": "https://maps.gstatic.com/mapfiles/place_api/icons/v2/school_pinlet", "name": "Khalisabhita Muslimpara LP SCHOOL", "photos": [{"height": 2304, "html_attributions": ["<a href=\"https://maps.google.com/maps/contrib/104404671225086046275\">ANOWAR HUSSAIN</a>"], "photo_reference": "Aap_uEDMLImLdxTkjDvAFwS31tQLWvwW-sEXyMehq6lBWMdzfFVYTevH4df1rMvFvOyQRuEDQiFg9J4o39EryqcIw_xHGOw2Ep4giGqoa2q9n86xd8x8JHoV5eTbR8IdeTFdayJavkhy_x0N2Qine-ycorNy4ThfZw1M0tBHx5_Ag0V1iTk7", "width": 4608}], "place_id": "ChIJQ-SsP80NWDcRNXS2-Il9FKg", "rating": 5, "reference": "ChIJQ-SsP80NWDcRNXS2-Il9FKg", "scope": "GOOGLE", "types": ["school", "point_of_interest", "establishment"], "user_ratings_total": 3, "vicinity": "X49X+5M7, Charaghar"}, {"business_status": "OPERATIONAL", "geometry": {"location": {"lat": 25.968605, "lng": 90.139675}, "viewport": {"northeast": {"lat": 25.96988603029151, "lng": 90.14104663029151}, "southwest": {"lat": 25.9671880697085, "lng": 90.13834866970849}}}, "icon": "https://maps.gstatic.com/mapfiles/place_api/icons/v1/png_71/school-71.png", "icon_background_color": "#7B9EB0", "icon_mask_base_uri": "https://maps.gstatic.com/mapfiles/place_api/icons/v2/school_pinlet", "name": "MOTIKHOWA LP School", "place_id": "ChIJc4O98v8NWDcRA_LVsR-9fG4", "plus_code": {"compound_code": "X49Q+CV Charaghar, Assam, India", "global_code": "7MQGX49Q+CV"}, "reference": "ChIJc4O98v8NWDcRA_LVsR-9fG4", "scope": "GOOGLE", "types": ["primary_school", "school", "point_of_interest", "establishment"], "vicinity": "Khalisabhita - Satsiakhamar Road"}, {"business_status": "OPERATIONAL", "geometry": {"location": {"lat": 25.969344, "lng": 90.14808169999999}, "viewport": {"northeast": {"lat": 25.9707057802915, "lng": 90.1492706302915}, "southwest": {"lat": 25.96800781970849, "lng": 90.14657266970848}}}, "icon": "https://maps.gstatic.com/mapfiles/place_api/icons/v1/png_71/school-71.png", "icon_background_color": "#7B9EB0", "icon_mask_base_uri": "https://maps.gstatic.com/mapfiles/place_api/icons/v2/school_pinlet", "name": "Khslisabhita Girls ME Madrada", "place_id": "ChIJCcvKZysNWDcR86VKE-onblA", "rating": 5, "reference": "ChIJCcvKZysNWDcR86VKE-onblA", "scope": "GOOGLE", "types": ["school", "point_of_interest", "establishment"], "user_ratings_total": 3, "vicinity": "X49X+P6P, Charaghar"}, {"business_status": "OPERATIONAL", "geometry": {"location": {"lat": 25.9700051, "lng": 90.1465908}, "viewport": {"northeast": {"lat": 25.9712904302915, "lng": 90.1479351302915}, "southwest": {"lat": 25.9685924697085, "lng": 90.1452371697085}}}, "icon": "https://maps.gstatic.com/mapfiles/place_api/icons/v1/png_71/school-71.png", "icon_background_color": "#7B9EB0", "icon_mask_base_uri": "https://maps.gstatic.com/mapfiles/place_api/icons/v2/school_pinlet", "name": "Pachilagao L.P school", "photos": [{"height": 922, "html_attributions": ["<a href=\"https://maps.google.com/maps/contrib/103306389692139748331\">Zubaiya begom</a>"], "photo_reference": "Aap_uECIQGjqBnaD7WBPifKFni-toGPfiyWDKeJn5kOzuK0NMeK3M9c4kOH7Y-yyl2Y_4v6HzLamPn0CjhbJX2iTEcy1WgXD3o8GWWcvNqO9yqs9RkN_5QhJ69c2VwYJn3KCQXfBoQm7t9Q38iSuEUCPlDhf3b8xC9P8srC8Z--19Bg5UfQZ", "width": 518}], "place_id": "ChIJI_AyIQwNWDcRO-f7AWv60Ds", "plus_code": {"compound_code": "X4CW+2J Charaghar, Assam, India", "global_code": "7MQGX4CW+2J"}, "reference": "ChIJI_AyIQwNWDcRO-f7AWv60Ds", "scope": "GOOGLE", "types": ["school", "point_of_interest", "establishment"], "vicinity": "Charaghar"}, {"business_status": "OPERATIONAL", "geometry": {"location": {"lat": 25.9670481, "lng": 90.1348524}, "viewport": {"northeast": {"lat": 25.9683885802915, "lng": 90.1362015302915}, "southwest": {"lat": 25.9656906197085, "lng": 90.13350356970848}}}, "icon": "https://maps.gstatic.com/mapfiles/place_api/icons/v1/png_71/school-71.png", "icon_background_color": "#7B9EB0", "icon_mask_base_uri": "https://maps.gstatic.com/mapfiles/place_api/icons/v2/school_pinlet", "name": "Shahammad Ali Memorial M. E. Madrasa", "opening_hours": {"open_now": true}, "photos": [{"height": 1920, "html_attributions": ["<a href=\"https://maps.google.com/maps/contrib/115726870253912566370\">Being Aftabul Jia</a>"], "photo_reference": "Aap_uECbkkHjH1MrAXV325KGdwfpCWK6AJAmIg0xxSs3IjJuk5nggvXEKjGySiF0ZajfGll9b9X7Aau-9pIQXN1XF4BkFJDt93SKo71-CZuqQ6cjVej3fgc_sOQnToa5Ea9KngKtWAuYNxOWdcdDS3djR-FJQjLkwAxgVempg5GYQ1uwfmRF", "width": 1080}], "place_id": "ChIJF67G0xoNWDcR7Huxjnmg4v8", "plus_code": {"compound_code": "X48M+RW Khalisavita Hindupara, Assam, India", "global_code": "7MQGX48M+RW"}, "rating": 5, "reference": "ChIJF67G0xoNWDcR7Huxjnmg4v8", "scope": "GOOGLE", "types": ["school", "point_of_interest", "establishment"], "user_ratings_total": 1, "vicinity": "Unnamed Road"}, {"business_status": "OPERATIONAL", "geometry": {"location": {"lat": 25.96936, "lng": 90.15110159999999}, "viewport": {"northeast": {"lat": 25.9706513802915, "lng": 90.1525630302915}, "southwest": {"lat": 25.96795341970849, "lng": 90.14986506970848}}}, "icon": "https://maps.gstatic.com/mapfiles/place_api/icons/v1/png_71/school-71.png", "icon_background_color": "#7B9EB0", "icon_mask_base_uri": "https://maps.gstatic.com/mapfiles/place_api/icons/v2/school_pinlet", "name": "Khalisabhita senior madrasa", "photos": [{"height": 720, "html_attributions": ["<a href=\"https://maps.google.com/maps/contrib/104404671225086046275\">ANOWAR HUSSAIN</a>"], "photo_reference": "Aap_uEAkgxhLi6hMvmMb9aFZAfXpD1vMOI2nnV-whCHyGMCjbElVpAOR79AbGd4U2mDJv3BeYWQPyBvc5hRuyV26OdHZKQ1wJrdaYxKsPJgD9p5ftNitWO8L1nL9kti-YaXibymAX6uI303PAvz1IgxdDxlPOOCDsaAjnjQO15ZAbtiYzIX8", "width": 1280}], "place_id": "ChIJr7pgwwoSWDcRs_ieTahQx84", "rating": 4.8, "reference": "ChIJr7pgwwoSWDcRs_ieTahQx84", "scope": "GOOGLE", "types": ["school", "point_of_interest", "establishment"], "user_ratings_total": 11, "vicinity": "X592+PCX, Charaghar"}, {"business_status": "OPERATIONAL", "geometry": {"location": {"lat": 25.9708912, "lng": 90.1509188}, "viewport": {"northeast": {"lat": 25.9722789802915, "lng": 90.15231573029149}, "southwest": {"lat": 25.9695810197085, "lng": 90.14961776970848}}}, "icon": "https://maps.gstatic.com/mapfiles/place_api/icons/v1/png_71/school-71.png", "icon_background_color": "#7B9EB0", "icon_mask_base_uri": "https://maps.gstatic.com/mapfiles/place_api/icons/v2/school_pinlet", "name": "Popular Boo Stall", "place_id": "ChIJV1OLV7ITWDcR47bEN1s21IU", "plus_code": {"compound_code": "X5C2+99 Charaghar, Assam, India", "global_code": "7MQGX5C2+99"}, "rating": 5, "reference": "ChIJV1OLV7ITWDcR47bEN1s21IU", "scope": "GOOGLE", "types": ["school", "point_of_interest", "establishment"], "user_ratings_total": 1, "vicinity": "samsuddin 9954 557965, Charaghar"}, {"business_status": "OPERATIONAL", "geometry": {"location": {"lat": 25.9705919, "lng": 90.15167989999999}, "viewport": {"northeast": {"lat": 25.9718716302915, "lng": 90.1529318302915}, "southwest": {"lat": 25.9691736697085, "lng": 90.15023386970849}}}, "icon": "https://maps.gstatic.com/mapfiles/place_api/icons/v1/png_71/school-71.png", "icon_background_color": "#7B9EB0", "icon_mask_base_uri": "https://maps.gstatic.com/mapfiles/place_api/icons/v2/school_pinlet", "name": "Maulana Abdul Kalam Azad Jatiya Vidyalaya Khalisabhita", "opening_hours": {"open_now": true}, "place_id": "ChIJ6dRjOwkTWDcRJVoXqHDiR9Y", "plus_code": {"compound_code": "X5C2+6M Charaghar, Assam, India", "global_code": "7MQGX5C2+6M"}, "reference": "ChIJ6dRjOwkTWDcRJVoXqHDiR9Y", "scope": "GOOGLE", "types": ["school", "point_of_interest", "establishment"], "vicinity": "samsuddin 9954 557965, Charaghar"}, {"business_status": "OPERATIONAL", "geometry": {"location": {"lat": 25.9701567, "lng": 90.1529657}, "viewport": {"northeast": {"lat": 25.9715056802915, "lng": 90.15434988029149}, "southwest": {"lat": 25.9688077197085, "lng": 90.15165191970848}}}, "icon": "https://maps.gstatic.com/mapfiles/place_api/icons/v1/png_71/school-71.png", "icon_background_color": "#7B9EB0", "icon_mask_base_uri": "https://maps.gstatic.com/mapfiles/place_api/icons/v2/school_pinlet", "name": "Gaybanda Hafijia Madrassa", "place_id": "ChIJF_xsw4ETWDcRl5HR1CtngWQ", "plus_code": {"compound_code": "X5C3+35 Charaghar, Assam, India", "global_code": "7MQGX5C3+35"}, "reference": "ChIJF_xsw4ETWDcRl5HR1CtngWQ", "scope": "GOOGLE", "types": ["school", "point_of_interest", "establishment"], "vicinity": "Rim Road, Charaghar"}], "status": "OK"}