{"html_attributions": [], "results": [{"business_status": "OPERATIONAL", "geometry": {"location": {"lat": 25.9728465, "lng": 90.15088999999999}, "viewport": {"northeast": {"lat": 25.9740039302915, "lng": 90.1523618302915}, "southwest": {"lat": 25.97130596970849, "lng": 90.14966386970849}}}, "icon": "https://maps.gstatic.com/mapfiles/place_api/icons/v1/png_71/school-71.png", "icon_background_color": "#7B9EB0", "icon_mask_base_uri": "https://maps.gstatic.com/mapfiles/place_api/icons/v2/school_pinlet", "name": "Khalisabhita HS School", "photos": [{"height": 4160, "html_attributions": ["<a href=\"https://maps.google.com/maps/contrib/104810471236136949541\">S The Rocks</a>"], "photo_reference": "Aap_uEAL1diEUyvJiTNLQ7YYUXxCeEGfCHH7ou6y2MEZaFfiepFLrk9YQEf7czINh7KVRQSti5Y06ptaEHSQ5bnDHCR5yTngQeFIRt9p24ySP81YAK1U2EGmndjcwIdCPFnbbjbJRP89ElBIzDe7ZGW_7uVVkNIBbRc7i2eihBi0MiLUyEic", "width": 3120}], "place_id": "ChIJcccEDHUSWDcRM-WdH1SzMwM", "rating": 4.2, "reference": "ChIJcccEDHUSWDcRM-WdH1SzMwM", "scope": "GOOGLE", "types": ["school", "point_of_interest", "establishment"], "user_ratings_total": 26, "vicinity": "X5F2+49J, Charaghar"}, {"business_status": "OPERATIONAL", "geometry": {"location": {"lat": 25.9852771, "lng": 90.14096420000001}, "viewport": {"northeast": {"lat": 25.9861436802915, "lng": 90.14239233029153}, "southwest": {"lat": 25.9834457197085, "lng": 90.13969436970852}}}, "icon": "https://maps.gstatic.com/mapfiles/place_api/icons/v1/png_71/school-71.png", "icon_background_color": "#7B9EB0", "icon_mask_base_uri": "https://maps.gstatic.com/mapfiles/place_api/icons/v2/school_pinlet", "name": "Baoluri school", "place_id": "ChIJy2KAH1INWDcRVbwza6yN7-I", "reference": "ChIJy2KAH1INWDcRVbwza6yN7-I", "scope": "GOOGLE", "types": ["school", "point_of_interest", "establishment"], "vicinity": "X4PR+498, Baoluri"}, {"business_status": "OPERATIONAL", "geometry": {"location": {"lat": 25.9794072, "lng": 90.1390967}, "viewport": {"northeast": {"lat": 25.9806501302915, "lng": 90.14042883029151}, "southwest": {"lat": 25.97795216970849, "lng": 90.1377308697085}}}, "icon": "https://maps.gstatic.com/mapfiles/place_api/icons/v1/png_71/school-71.png", "icon_background_color": "#7B9EB0", "icon_mask_base_uri": "https://maps.gstatic.com/mapfiles/place_api/icons/v2/school_pinlet", "name": "Tarangajhar LP school", "photos": [{"height": 770, "html_attributions": ["<a href=\"https://maps.google.com/maps/contrib/112190034988728812414\">Ikramul Hossain Mondal</a>"], "photo_reference": "Aap_uEAEwXpfrFQRYju1RnLEnna_QVbn77fmHj3m_8on-xa9hwZUmPf6lq3NSPFv7CPJ3Fk_Zyi6VQ25ly_vPANdWL_TDiGeWCMe75cOlC7Nta0Q_KZxewFIGx1FySxJ50nZYXfiZEzSiKpQd9pYdIWFXHZh8E5LsAzKnlFZi_GQeOv434tu", "width": 1366}], "place_id": "ChIJU4oDNZANWDcRVnJ3-XZ1tYE", "rating": 3.2, "reference": "ChIJU4oDNZANWDcRVnJ3-XZ1tYE", "scope": "GOOGLE", "types": ["school", "point_of_interest", "establishment"], "user_ratings_total": 5, "vicinity": "X4HQ+QJ9, Baoluri"}, {"business_status": "OPERATIONAL", "geometry": {"location": {"lat": 25.9795905, "lng": 90.13553069999999}, "viewport": {"northeast": {"lat": 25.9808373302915, "lng": 90.13687618029151}, "southwest": {"lat": 25.9781393697085, "lng": 90.13417821970849}}}, "icon": "https://maps.gstatic.com/mapfiles/place_api/icons/v1/png_71/school-71.png", "icon_background_color": "#7B9EB0", "icon_mask_base_uri": "https://maps.gstatic.com/mapfiles/place_api/icons/v2/school_pinlet", "name": "Tarangijher pre senior madrassa", "opening_hours": {"open_now": true}, "place_id": "ChIJBX6i1JANWDcRG51YxFatQ5E", "rating": 5, "reference": "ChIJBX6i1JANWDcRG51YxFatQ5E", "scope": "GOOGLE", "types": ["school", "point_of_interest", "establishment"], "user_ratings_total": 2, "vicinity": "X4HP+R6J, Tarangijhar"}, {"business_status": "OPERATIONAL", "geometry": {"location": {"lat": 25.9830926, "lng": 90.13209379999999}, "viewport": {"northeast": {"lat": 25.98444158029151, "lng": 90.1334427802915}, "southwest": {"lat": 25.9817436197085, "lng": 90.13074481970848}}}, "icon": "https://maps.gstatic.com/mapfiles/place_api/icons/v1/png_71/school-71.png", "icon_background_color": "#7B9EB0", "icon_mask_base_uri": "https://maps.gstatic.com/mapfiles/place_api/icons/v2/school_pinlet", "name": "Senior Madrassa", "place_id": "ChIJk4UgcK8NWDcRekSMRj1hIw4", "reference": "ChIJk4UgcK8NWDcRekSMRj1hIw4", "scope": "GOOGLE", "types": ["secondary_school", "school", "point_of_interest", "establishment"], "vicinity": "X4MJ+6RQ, Baoluri"}, {"business_status": "OPERATIONAL", "geometry": {"location": {"lat": 25.9744962, "lng": 90.13360279999999}, "viewport": {"northeast": {"lat": 25.9758451802915, "lng": 90.1349517802915}, "southwest": {"lat": 25.9731472197085, "lng": 90.13225381970848}}}, "icon": "https://maps.gstatic.com/mapfiles/place_api/icons/v1/png_71/school-71.png", "icon_background_color": "#7B9EB0", "icon_mask_base_uri": "https://maps.gstatic.com/mapfiles/place_api/icons/v2/school_pinlet", "name": "Jamadarpara LP School", "place_id": "ChIJzc_nT8cNWDcRjkXjHzu32Ek", "reference": "ChIJzc_nT8cNWDcRjkXjHzu32Ek", "scope": "GOOGLE", "types": ["primary_school", "school", "point_of_interest", "establishment"], "vicinity": "X4FM+QCX, Charaghar"}, {"business_status": "OPERATIONAL", "geometry": {"location": {"lat": 25.9700051, "lng": 90.1465908}, "viewport": {"northeast": {"lat": 25.9712904302915, "lng": 90.1479351302915}, "southwest": {"lat": 25.9685924697085, "lng": 90.1452371697085}}}, "icon": "https://maps.gstatic.com/mapfiles/place_api/icons/v1/png_71/school-71.png", "icon_background_color": "#7B9EB0", "icon_mask_base_uri": "https://maps.gstatic.com/mapfiles/place_api/icons/v2/school_pinlet", "name": "Pachilagao L.P school", "photos": [{"height": 922, "html_attributions": ["<a href=\"https://maps.google.com/maps/contrib/103306389692139748331\">Zubaiya begom</a>"], "photo_reference": "Aap_uECKIhlAuOJdngFHdZW-W49WBY5yvGIL21i7z37yw8iZAC9u3rI55aj_2yTjrWs9EmrFpIm1KmCm4E43GQrNLnsWlDmuZ54n8RTv3ULTwFRnKZ4_M7OM1FBa4cWRsgQoTKvikWqa_63gs6f3cnwHcK3YC-i9EJwB42WHL6p9wJ-6GZ28", "width": 518}], "place_id": "ChIJI_AyIQwNWDcRO-f7AWv60Ds", "plus_code": {"compound_code": "X4CW+2J Charaghar, Assam, India", "global_code": "7MQGX4CW+2J"}, "reference": "ChIJI_AyIQwNWDcRO-f7AWv60Ds", "scope": "GOOGLE", "types": ["school", "point_of_interest", "establishment"], "vicinity": "Charaghar"}, {"business_status": "OPERATIONAL", "geometry": {"location": {"lat": 25.9874458, "lng": 90.1473468}, "viewport": {"northeast": {"lat": 25.98879478029151, "lng": 90.1486957802915}, "southwest": {"lat": 25.9860968197085, "lng": 90.1459978197085}}}, "icon": "https://maps.gstatic.com/mapfiles/place_api/icons/v1/png_71/school-71.png", "icon_background_color": "#7B9EB0", "icon_mask_base_uri": "https://maps.gstatic.com/mapfiles/place_api/icons/v2/school_pinlet", "name": "Baoluri LP school chirakutu GP", "place_id": "ChIJTfrBpV0NWDcR8s-88ZNr8Hg", "plus_code": {"compound_code": "X4PW+XW Kumari, Assam, India", "global_code": "7MQGX4PW+XW"}, "reference": "ChIJTfrBpV0NWDcR8s-88ZNr8Hg", "scope": "GOOGLE", "types": ["primary_school", "school", "point_of_interest", "establishment"], "vicinity": "Porabhita Tikrikilla PWD Road, Kumari"}], "status": "OK"}