{"html_attributions": [], "results": [{"business_status": "OPERATIONAL", "geometry": {"location": {"lat": 26.0248458, "lng": 90.14385759999999}, "viewport": {"northeast": {"lat": 26.0264719802915, "lng": 90.1452250802915}, "southwest": {"lat": 26.0237740197085, "lng": 90.14252711970848}}}, "icon": "https://maps.gstatic.com/mapfiles/place_api/icons/v1/png_71/school-71.png", "icon_background_color": "#7B9EB0", "icon_mask_base_uri": "https://maps.gstatic.com/mapfiles/place_api/icons/v2/school_pinlet", "name": "Medortari Jatiya Bidyalaya", "photos": [{"height": 480, "html_attributions": ["<a href=\"https://maps.google.com/maps/contrib/100768601624917756729\">Salih Umar</a>"], "photo_reference": "Aap_uEAzIGBDX5KFFNCg6aPn16BloIEJS_Z-NsaYk9voN7EuIl35WRdEIKcEbz0IsEZv7Teb8RiWe-VtVjeR37eP7c6knjo6qO--3m_B8iL3Ssid_qoSCNoTCHqkVDNU6gYu8ychdCk6_Y3q8X7EwU_cMCqlUWisMRBFx1OhYJ9SqwzjgAHz", "width": 640}], "place_id": "ChIJKT38qzYNWDcR_j4zl2sGIlk", "plus_code": {"compound_code": "24FV+WG Modokona, Assam, India", "global_code": "7MRG24FV+WG"}, "reference": "ChIJKT38qzYNWDcR_j4zl2sGIlk", "scope": "GOOGLE", "types": ["school", "point_of_interest", "establishment"], "vicinity": "Fakirganj, P.S, Medortary-Chirakuti Road"}, {"business_status": "OPERATIONAL", "geometry": {"location": {"lat": 26.0248395, "lng": 90.1460389}, "viewport": {"northeast": {"lat": 26.0261816302915, "lng": 90.14735453029151}, "southwest": {"lat": 26.0234836697085, "lng": 90.14465656970849}}}, "icon": "https://maps.gstatic.com/mapfiles/place_api/icons/v1/png_71/school-71.png", "icon_background_color": "#7B9EB0", "icon_mask_base_uri": "https://maps.gstatic.com/mapfiles/place_api/icons/v2/school_pinlet", "name": "Life Shine Academy", "opening_hours": {"open_now": true}, "photos": [{"height": 3456, "html_attributions": ["<a href=\"https://maps.google.com/maps/contrib/106157006772726539555\">asif iqbal ahmed</a>"], "photo_reference": "Aap_uECNUN1NzBmfWRGNf4ARd3oyoqJtD4ES9nO0GjLO4CbXO-qT50__zxFrohfehO-db0z9hgNXFFfIusD-JQQRgZ9PUb5NeGXovaO48mb8Exqntki0fxvzuFSeLB2UPgsjJtdfB1KykvxsQgKuQLlHUGpORClzpb-hwXrOKUtgks92vs5p", "width": 4608}], "place_id": "ChIJTY-obAwNWDcRUyotEum0F-s", "plus_code": {"compound_code": "24FW+WC Kalnoi, Assam, India", "global_code": "7MRG24FW+WC"}, "rating": 4, "reference": "ChIJTY-obAwNWDcRUyotEum0F-s", "scope": "GOOGLE", "types": ["school", "point_of_interest", "establishment"], "user_ratings_total": 1, "vicinity": "Bamunir Vita, Medortari, Dhubri"}, {"business_status": "OPERATIONAL", "geometry": {"location": {"lat": 26.0254941, "lng": 90.1431344}, "viewport": {"northeast": {"lat": 26.0267657302915, "lng": 90.1444984302915}, "southwest": {"lat": 26.0240677697085, "lng": 90.1418004697085}}}, "icon": "https://maps.gstatic.com/mapfiles/place_api/icons/v1/png_71/school-71.png", "icon_background_color": "#7B9EB0", "icon_mask_base_uri": "https://maps.gstatic.com/mapfiles/place_api/icons/v2/school_pinlet", "name": "Medortari M. E. School", "photos": [{"height": 1280, "html_attributions": ["<a href=\"https://maps.google.com/maps/contrib/101504196747828571356\">MK Bhaiya</a>"], "photo_reference": "Aap_uEDAly77KAeQ44LixpFlwZRwBOmSkAxTsJYdZtK3yaAkrC2uqtCpokKVzN0ZkTK7orJ7RttGjZmFmSPJdiHcj10m4fwIGXjg1eDnHl3YUXThFi8-UWYL6Ay8Pyf0BVVjVRZwPPBXniVIq6tOAWLb4nM3dHB_Zv-qClQti1x6M-NplrXB", "width": 960}], "place_id": "ChIJw3uuCy4NWDcRrzGYW6Ck_50", "rating": 5, "reference": "ChIJw3uuCy4NWDcRrzGYW6Ck_50", "scope": "GOOGLE", "types": ["school", "point_of_interest", "establishment"], "user_ratings_total": 1, "vicinity": "24GV+57R, Modokona"}, {"business_status": "OPERATIONAL", "geometry": {"location": {"lat": 26.0254571, "lng": 90.14610230000001}, "viewport": {"northeast": {"lat": 26.0268016302915, "lng": 90.1473472802915}, "southwest": {"lat": 26.0241036697085, "lng": 90.14464931970849}}}, "icon": "https://maps.gstatic.com/mapfiles/place_api/icons/v1/png_71/school-71.png", "icon_background_color": "#7B9EB0", "icon_mask_base_uri": "https://maps.gstatic.com/mapfiles/place_api/icons/v2/school_pinlet", "name": "Gyandip Academy", "opening_hours": {"open_now": true}, "photos": [{"height": 3456, "html_attributions": ["<a href=\"https://maps.google.com/maps/contrib/106157006772726539555\">asif iqbal ahmed</a>"], "photo_reference": "Aap_uEBuuQK1YpfEx4uZlO_-OJXU75FkqQhM6V_xqX5Zv2EsG6_RPA7UviDvYDNKVuL1kFVHgX_LxVUf4Y_Ui29Vs6OnzdXQD_zoyn0cLD06thOULUPcWuUXOnvDTu4u7o75-u0prxlEbZCJk1QGfkP51QKmy2wcdVRGpMUQm_25yCzTVIJv", "width": 4608}], "place_id": "ChIJrZL60zENWDcRh3-QBnzE8J4", "plus_code": {"compound_code": "24GW+5C Modokona, Assam, India", "global_code": "7MRG24GW+5C"}, "rating": 5, "reference": "ChIJrZL60zENWDcRh3-QBnzE8J4", "scope": "GOOGLE", "types": ["school", "point_of_interest", "establishment"], "user_ratings_total": 1, "vicinity": "Bamunir vita, Medortari, Dhubri"}, {"business_status": "OPERATIONAL", "geometry": {"location": {"lat": 26.0254962, "lng": 90.1460275}, "viewport": {"northeast": {"lat": 26.02683818029151, "lng": 90.14730833029151}, "southwest": {"lat": 26.0241402197085, "lng": 90.14461036970849}}}, "icon": "https://maps.gstatic.com/mapfiles/place_api/icons/v1/png_71/school-71.png", "icon_background_color": "#7B9EB0", "icon_mask_base_uri": "https://maps.gstatic.com/mapfiles/place_api/icons/v2/school_pinlet", "name": "GYANDEEP ACADEMY MEDORTARI", "photos": [{"height": 541, "html_attributions": ["<a href=\"https://maps.google.com/maps/contrib/115388374590550681732\">abu amor ibrahim</a>"], "photo_reference": "Aap_uED0cMTRcOM2cZ94pOUVW-HeY2tu9amY-fancHs2GT36u56NoMpZfuDGDXMz-i93SRtY9o7k4vYT9eWNpZuIrxzBLv_FE5Hk-BXmmxGLqcLByJG9M5c7WkISQpLgiFNDvvTWZG7bzmiUq_ykRWjL9z7bs6HBYe83zVDeagq3Zk03u2r7", "width": 719}], "place_id": "ChIJJRPOgWMNWDcRjyjf1nC81Qc", "reference": "ChIJJRPOgWMNWDcRjyjf1nC81Qc", "scope": "GOOGLE", "types": ["school", "point_of_interest", "establishment"], "vicinity": "24GW+5CR, Modokona"}, {"business_status": "OPERATIONAL", "geometry": {"location": {"lat": 26.0212433, "lng": 90.1384533}, "viewport": {"northeast": {"lat": 26.0224374302915, "lng": 90.1402210302915}, "southwest": {"lat": 26.0197394697085, "lng": 90.1375230697085}}}, "icon": "https://maps.gstatic.com/mapfiles/place_api/icons/v1/png_71/school-71.png", "icon_background_color": "#7B9EB0", "icon_mask_base_uri": "https://maps.gstatic.com/mapfiles/place_api/icons/v2/school_pinlet", "name": "KHADIZATUL TUITION CENTER", "photos": [{"height": 720, "html_attributions": ["<a href=\"https://maps.google.com/maps/contrib/107582215138222394883\">ABDUL KHALEQUE ENGG.</a>"], "photo_reference": "Aap_uEBCHeLqQLzOfyFyUikpd2l3g5vXeSp9Ny3bHciHS6CnbgCzDzB9W8rAe-mS4JUjIZV8yGVK_i7G_kXV_VU47XIBN812ECQvhXN2Mh5IkGOujIyU_bE_W6i7vQsXuo7fTMKD-Bro4K-CAvfrZ1eQcs77L8fLpWtDDXiBluYhac4wZls", "width": 1280}], "place_id": "ChIJoeSHTFgNWDcRN1M6G7MVMPA", "plus_code": {"compound_code": "24CQ+F9 Modokona, Assam, India", "global_code": "7MRG24CQ+F9"}, "reference": "ChIJoeSHTFgNWDcRN1M6G7MVMPA", "scope": "GOOGLE", "types": ["secondary_school", "school", "point_of_interest", "establishment"], "vicinity": "Medortary-Chirakuti Road, Modokona"}, {"business_status": "OPERATIONAL", "geometry": {"location": {"lat": 26.028058, "lng": 90.1436816}, "viewport": {"northeast": {"lat": 26.0293883802915, "lng": 90.14487373029151}, "southwest": {"lat": 26.0266904197085, "lng": 90.1421757697085}}}, "icon": "https://maps.gstatic.com/mapfiles/place_api/icons/v1/png_71/school-71.png", "icon_background_color": "#7B9EB0", "icon_mask_base_uri": "https://maps.gstatic.com/mapfiles/place_api/icons/v2/school_pinlet", "name": "167 No Bamunirvita L. P. School", "opening_hours": {"open_now": true}, "photos": [{"height": 3120, "html_attributions": ["<a href=\"https://maps.google.com/maps/contrib/114962497702974484561\">Biswanath Pratap Shah</a>"], "photo_reference": "Aap_uEB-vgX6zAVg7_JHhcs4amhKrxYapNUAWTtNI-ezgF-_aa4SH6AMwK0WdM1JfhyDK0-awUt3Af84YnymfhikL34cIzeAaK0UdBCvzVrBhaCPLwz1AcV2aADvAtuqzbE6D7plaqR4qjWqYfKrHx6dLOId29iwMpZu8m570pKAfSaHSnAz", "width": 4160}], "place_id": "ChIJX2xQFVoNWDcRRzhAyme6mt0", "rating": 5, "reference": "ChIJX2xQFVoNWDcRRzhAyme6mt0", "scope": "GOOGLE", "types": ["primary_school", "school", "point_of_interest", "establishment"], "user_ratings_total": 1, "vicinity": "24HV+6FF, Modokona"}, {"business_status": "OPERATIONAL", "geometry": {"location": {"lat": 26.0181298, "lng": 90.1379189}, "viewport": {"northeast": {"lat": 26.01952643029151, "lng": 90.13920468029151}, "southwest": {"lat": 26.0168284697085, "lng": 90.1365067197085}}}, "icon": "https://maps.gstatic.com/mapfiles/place_api/icons/v1/png_71/school-71.png", "icon_background_color": "#7B9EB0", "icon_mask_base_uri": "https://maps.gstatic.com/mapfiles/place_api/icons/v2/school_pinlet", "name": "MEDOBIL ALLADIBALA L.P. SCHOOL", "opening_hours": {"open_now": true}, "photos": [{"height": 780, "html_attributions": ["<a href=\"https://maps.google.com/maps/contrib/115470493216066517915\">Azaharul Islam</a>"], "photo_reference": "Aap_uECXDbV76vDzkmM_9FmYRCnsL_lIDATj0vdIJt65PmaFaqd3JqwAQ_5aY9JU_4NLXfzrKZdKXKHq0F2c2U14vLuQv_c7fRmpGfDUsKHKeqorNTyKc8dBKC_AgMKxn6CSYKgS0JL4w6T6HLPqYCFliVq_J9ssK4decM-h3nYdv6h7p1Gp", "width": 1040}], "place_id": "ChIJ11Iih0INWDcRFHMY0HfVE2c", "plus_code": {"compound_code": "249Q+75 Medobil, Assam, India", "global_code": "7MRG249Q+75"}, "rating": 4.3, "reference": "ChIJ11Iih0INWDcRFHMY0HfVE2c", "scope": "GOOGLE", "types": ["primary_school", "school", "point_of_interest", "establishment"], "user_ratings_total": 3, "vicinity": "Medortary-Chirakuti Road, Medobil"}, {"business_status": "OPERATIONAL", "geometry": {"location": {"lat": 26.0205687, "lng": 90.13652379999999}, "viewport": {"northeast": {"lat": 26.02190643029151, "lng": 90.1380233302915}, "southwest": {"lat": 26.0192084697085, "lng": 90.1353253697085}}}, "icon": "https://maps.gstatic.com/mapfiles/place_api/icons/v1/png_71/school-71.png", "icon_background_color": "#7B9EB0", "icon_mask_base_uri": "https://maps.gstatic.com/mapfiles/place_api/icons/v2/school_pinlet", "name": "Mondia MEM", "photos": [{"height": 3120, "html_attributions": ["<a href=\"https://maps.google.com/maps/contrib/116832820402791946243\">MOYNUL HOQUE</a>"], "photo_reference": "Aap_uEC1-mwguBKqOicLpRr_woacpxiEPmJigIuk8pCN8MFMenAXepbLlApVJDnrpLFYjtmRXB5YqmTsvRTc-ZoFC0_dw80nbOjpYDxj2yYJbwA1LCqz4YR8RhNkNzQVn27xCV_fbiNbcMiVztzBSmH3ZAiSdI4FYVcXtVQrMF1n7WNj5kby", "width": 4160}], "place_id": "ChIJs8-WWscNWDcRiAWQO3mGjtw", "plus_code": {"compound_code": "24CP+6J Madatari, Assam, India", "global_code": "7MRG24CP+6J"}, "reference": "ChIJs8-WWscNWDcRiAWQO3mGjtw", "scope": "GOOGLE", "types": ["school", "point_of_interest", "establishment"], "vicinity": "Mandia"}, {"business_status": "OPERATIONAL", "geometry": {"location": {"lat": 26.0236087, "lng": 90.1363038}, "viewport": {"northeast": {"lat": 26.0244726802915, "lng": 90.1379836802915}, "southwest": {"lat": 26.0217747197085, "lng": 90.13528571970849}}}, "icon": "https://maps.gstatic.com/mapfiles/place_api/icons/v1/png_71/school-71.png", "icon_background_color": "#7B9EB0", "icon_mask_base_uri": "https://maps.gstatic.com/mapfiles/place_api/icons/v2/school_pinlet", "name": "narowamari lp school", "opening_hours": {"open_now": true}, "photos": [{"height": 3456, "html_attributions": ["<a href=\"https://maps.google.com/maps/contrib/109784662393841166232\">Biplab Das</a>"], "photo_reference": "Aap_uEBHC110EY2VZ_C_H9wNxuHpqgD2KEH1QAEJpQbqoZsiA8CtCRDzmX7dJKwlPFPFPFziEo25o-TT0uQBa5cBtrAF1R6UnEkWl-3hw7eVAczGoV7fbmZQxNsedq1KqxWnZtaMtnXx9K63Zx91_p-Zv2VUF39dJ2owajwcMlOckw_fQkZK", "width": 4608}], "place_id": "ChIJ8ZCdJCYNWDcR2HII3_Gak6c", "rating": 5, "reference": "ChIJ8ZCdJCYNWDcR2HII3_Gak6c", "scope": "GOOGLE", "types": ["school", "point_of_interest", "establishment"], "user_ratings_total": 1, "vicinity": "24FP+CGV, Madatari"}, {"business_status": "OPERATIONAL", "geometry": {"location": {"lat": 26.0295619, "lng": 90.14240889999999}, "viewport": {"northeast": {"lat": 26.0309170302915, "lng": 90.1437611802915}, "southwest": {"lat": 26.0282190697085, "lng": 90.14106321970849}}}, "icon": "https://maps.gstatic.com/mapfiles/place_api/icons/v1/png_71/school-71.png", "icon_background_color": "#7B9EB0", "icon_mask_base_uri": "https://maps.gstatic.com/mapfiles/place_api/icons/v2/school_pinlet", "name": "2172 NO PAROWA L.P SCHOOL", "place_id": "ChIJByR-1jwNWDcRmGys99aSZR4", "reference": "ChIJByR-1jwNWDcRmGys99aSZR4", "scope": "GOOGLE", "types": ["school", "point_of_interest", "establishment"], "vicinity": "24HR+RXF, Parua"}, {"business_status": "OPERATIONAL", "geometry": {"location": {"lat": 26.0183276, "lng": 90.1520826}, "viewport": {"northeast": {"lat": 26.0195659302915, "lng": 90.15352833029151}, "southwest": {"lat": 26.0168679697085, "lng": 90.15083036970849}}}, "icon": "https://maps.gstatic.com/mapfiles/place_api/icons/v1/png_71/school-71.png", "icon_background_color": "#7B9EB0", "icon_mask_base_uri": "https://maps.gstatic.com/mapfiles/place_api/icons/v2/school_pinlet", "name": "Amzadul Islam", "place_id": "ChIJ3UYT2TYTWDcRnpo-OLcJwPA", "plus_code": {"compound_code": "2592+8R Gobratari, Assam, India", "global_code": "7MRG2592+8R"}, "reference": "ChIJ3UYT2TYTWDcRnpo-OLcJwPA", "scope": "GOOGLE", "types": ["school", "point_of_interest", "establishment"], "vicinity": "Padmarbhita-Bhalukmari Road, Gobratari"}, {"business_status": "OPERATIONAL", "geometry": {"location": {"lat": 26.0299717, "lng": 90.1421604}, "viewport": {"northeast": {"lat": 26.0311996302915, "lng": 90.14346263029151}, "southwest": {"lat": 26.02850166970849, "lng": 90.14076466970849}}}, "icon": "https://maps.gstatic.com/mapfiles/place_api/icons/v1/png_71/school-71.png", "icon_background_color": "#7B9EB0", "icon_mask_base_uri": "https://maps.gstatic.com/mapfiles/place_api/icons/v2/school_pinlet", "name": "Medortari L.P. School", "opening_hours": {"open_now": true}, "photos": [{"height": 960, "html_attributions": ["<a href=\"https://maps.google.com/maps/contrib/112050027186863704041\">Online Helper</a>"], "photo_reference": "Aap_uECpOlCmBwQOFxGQGM0Dx32MUN4HprfGPmrAVky_a69O5jqNOWsrQbINGJvpJEgHVES8FOu3HKoIql-5Odaq7_QYFqDcEVFBl2YzqXHu91UDKmi5dlT_GVeF7EFad7o0fa2hL_m-yjL4_DbyVniCfdkwRbuw1Dy2GsQJ_iBQ2HqHVlBc", "width": 540}], "place_id": "ChIJ68MTHOYNWDcR7QkoJcOsFoM", "rating": 5, "reference": "ChIJ68MTHOYNWDcR7QkoJcOsFoM", "scope": "GOOGLE", "types": ["school", "point_of_interest", "establishment"], "user_ratings_total": 1, "vicinity": "24HR+XVM, Puthia"}, {"business_status": "OPERATIONAL", "geometry": {"location": {"lat": 26.0169038, "lng": 90.13609389999999}, "viewport": {"northeast": {"lat": 26.0182997302915, "lng": 90.13766733029149}, "southwest": {"lat": 26.0156017697085, "lng": 90.13496936970849}}}, "icon": "https://maps.gstatic.com/mapfiles/place_api/icons/v1/png_71/school-71.png", "icon_background_color": "#7B9EB0", "icon_mask_base_uri": "https://maps.gstatic.com/mapfiles/place_api/icons/v2/school_pinlet", "name": "Mondia ME Madrassa.", "photos": [{"height": 1280, "html_attributions": ["<a href=\"https://maps.google.com/maps/contrib/115388374590550681732\">abu amor ibrahim</a>"], "photo_reference": "Aap_uEAB3PevrDfYQVmNIlX0qIdj4FZgMkmxyFOFY86LUx5bFsUiQylFTXOEf7v2SIObSqDbUiFsdeefJyaDCCodoybhTyxAFXKf84xpHrZgjN79dHChgQgQJCSJxyKMx4QfYcIXDe6st0etWzKLNPZh0DobQIsTL8nbFkIpjTAFQyZtuCVW", "width": 720}], "place_id": "ChIJe5KgzGsNWDcRi-mkpxUJzmg", "plus_code": {"compound_code": "248P+QC Mondia, Assam, India", "global_code": "7MRG248P+QC"}, "rating": 4, "reference": "ChIJe5KgzGsNWDcRi-mkpxUJzmg", "scope": "GOOGLE", "types": ["school", "point_of_interest", "establishment"], "user_ratings_total": 1, "vicinity": "Mondia"}, {"business_status": "OPERATIONAL", "geometry": {"location": {"lat": 26.0142924, "lng": 90.150145}, "viewport": {"northeast": {"lat": 26.0156259302915, "lng": 90.15144508029151}, "southwest": {"lat": 26.0129279697085, "lng": 90.14874711970849}}}, "icon": "https://maps.gstatic.com/mapfiles/place_api/icons/v1/png_71/school-71.png", "icon_background_color": "#7B9EB0", "icon_mask_base_uri": "https://maps.gstatic.com/mapfiles/place_api/icons/v2/school_pinlet", "name": "302 No Kumri L. P. School", "opening_hours": {"open_now": true}, "photos": [{"height": 720, "html_attributions": ["<a href=\"https://maps.google.com/maps/contrib/114962497702974484561\">Biswanath Pratap Shah</a>"], "photo_reference": "Aap_uEDwoHxVfyklQrFJrUWHwg0l0KQzBeQc94b7kMf-m5uFZcLYrkLR1KQWs036v9skTbFiFOSeVmWOYvTZL4kJVQR7nHJN6N5VBjMrQ6_YSOaU5GmXKh05Z1SGRSgevjyxZx6i1GkPLTPbhuGKa2eME0WtwKkPl8IR4O4n8C8FYFSXSdK0", "width": 1280}], "place_id": "ChIJqZHtMZ4SWDcRR1nDPzncf-g", "rating": 2, "reference": "ChIJqZHtMZ4SWDcRR1nDPzncf-g", "scope": "GOOGLE", "types": ["primary_school", "school", "point_of_interest", "establishment"], "user_ratings_total": 1, "vicinity": "2572+P36, Gobratari"}, {"business_status": "OPERATIONAL", "geometry": {"location": {"lat": 26.0143731, "lng": 90.15048159999999}, "viewport": {"northeast": {"lat": 26.01565483029151, "lng": 90.15161788029151}, "southwest": {"lat": 26.0129568697085, "lng": 90.14891991970849}}}, "icon": "https://maps.gstatic.com/mapfiles/place_api/icons/v1/png_71/school-71.png", "icon_background_color": "#7B9EB0", "icon_mask_base_uri": "https://maps.gstatic.com/mapfiles/place_api/icons/v2/school_pinlet", "name": "Kumri Poddarvita Das Para ME School", "photos": [{"height": 3456, "html_attributions": ["<a href=\"https://maps.google.com/maps/contrib/108854439246935091910\">Advance help</a>"], "photo_reference": "Aap_uEDGasALYheuCAE3m1gFVjjxbGYwuL27ZbzzuFwdYNA90z_iFAzmBcVUftWqW3t8QaOuHPu9WoIbtP7VDe8jgtx3Yuwztl0g8r9guJ-YMhbSWOOgE9tAUAbauaL1Ihs5JC5SqIl6Q1AIbmWIGMsk2AzJR2cQAlX0wjXPvWCYB3VWWAfT", "width": 4608}], "place_id": "ChIJb6yENp4SWDcR4oR6bc5BUts", "plus_code": {"compound_code": "2572+P5 Chirakuti, Assam, India", "global_code": "7MRG2572+P5"}, "reference": "ChIJb6yENp4SWDcR4oR6bc5BUts", "scope": "GOOGLE", "types": ["school", "point_of_interest", "establishment"], "vicinity": "Rd, Medortari, Chirakuti"}, {"business_status": "OPERATIONAL", "geometry": {"location": {"lat": 26.0143086, "lng": 90.1504756}, "viewport": {"northeast": {"lat": 26.0155985302915, "lng": 90.15162428029151}, "southwest": {"lat": 26.0129005697085, "lng": 90.1489263197085}}}, "icon": "https://maps.gstatic.com/mapfiles/place_api/icons/v1/png_71/school-71.png", "icon_background_color": "#7B9EB0", "icon_mask_base_uri": "https://maps.gstatic.com/mapfiles/place_api/icons/v2/school_pinlet", "name": "Kumri Padyavita Daspara M.E. School", "opening_hours": {"open_now": true}, "photos": [{"height": 720, "html_attributions": ["<a href=\"https://maps.google.com/maps/contrib/114962497702974484561\">Biswanath Pratap Shah</a>"], "photo_reference": "Aap_uEB3BKLlwx-JdEypoomy4H2tpEzahxAFQSPH8YTITiEkzu5l-VCz3x-wrttg2WLZjYKaVTbi-BAHBBmmMo2hYrdiHBI2zmtkqz57elQuQcuuc_zDvXyw6suWF153cVLOsmbafjmNjzi2lvIEnoC22-Z1aRkNjC2oaGh4_upBulu1fBji", "width": 1280}], "place_id": "ChIJIaybNp4SWDcRJG_VLUIp0cg", "reference": "ChIJIaybNp4SWDcRJG_VLUIp0cg", "scope": "GOOGLE", "types": ["primary_school", "school", "point_of_interest", "establishment"], "vicinity": "2572+P5H, Gobratari"}], "status": "OK"}