{"html_attributions": [], "results": [{"business_status": "OPERATIONAL", "geometry": {"location": {"lat": 26.1706479, "lng": 90.14899539999999}, "viewport": {"northeast": {"lat": 26.1719727802915, "lng": 90.15045198029149}, "southwest": {"lat": 26.1692748197085, "lng": 90.14775401970849}}}, "icon": "https://maps.gstatic.com/mapfiles/place_api/icons/v1/png_71/school-71.png", "icon_background_color": "#7B9EB0", "icon_mask_base_uri": "https://maps.gstatic.com/mapfiles/place_api/icons/v2/school_pinlet", "name": "Andamari Kalairchar M.E. Madrass", "place_id": "ChIJhVkSL_JxWDcRjxnT8tnG9aA", "reference": "ChIJhVkSL_JxWDcRjxnT8tnG9aA", "scope": "GOOGLE", "types": ["secondary_school", "school", "point_of_interest", "establishment"], "vicinity": "54CX+7H5, Gutipara Pt. VII"}, {"business_status": "OPERATIONAL", "geometry": {"location": {"lat": 26.1736076, "lng": 90.14175689999999}, "viewport": {"northeast": {"lat": 26.1749763802915, "lng": 90.1430703802915}, "southwest": {"lat": 26.1722784197085, "lng": 90.1403724197085}}}, "icon": "https://maps.gstatic.com/mapfiles/place_api/icons/v1/png_71/school-71.png", "icon_background_color": "#7B9EB0", "icon_mask_base_uri": "https://maps.gstatic.com/mapfiles/place_api/icons/v2/school_pinlet", "name": "16 No. Patakata L.P. School", "opening_hours": {"open_now": true}, "photos": [{"height": 1080, "html_attributions": ["<a href=\"https://maps.google.com/maps/contrib/102965964673780616908\">SANU HUSSAIN</a>"], "photo_reference": "Aap_uECQFftBa8V-k70UWBlxAZ5kYUC57LSBa5QTr0Txk4dm0cl3Jy8b7oT4hxsUoqjSGFPpPOz6HJdPdusTfgiDXGcMCNH2wW1mkVpVv5JbIZzbJYRc24-4I2GlVXkjw_13XfcQaIFN7OgWiZNVh05fQUud6DIJKIMJ42IXW4AdA2nbK_RV", "width": 1920}], "place_id": "ChIJo4oOf75xWDcRNm9wrSxCZqw", "rating": 5, "reference": "ChIJo4oOf75xWDcRNm9wrSxCZqw", "scope": "GOOGLE", "types": ["school", "point_of_interest", "establishment"], "user_ratings_total": 1, "vicinity": "54FR+CPR, Jheltarchar Pt.III"}, {"business_status": "OPERATIONAL", "geometry": {"location": {"lat": 26.1502965, "lng": 90.1397649}, "viewport": {"northeast": {"lat": 26.1516333302915, "lng": 90.1411021302915}, "southwest": {"lat": 26.1489353697085, "lng": 90.13840416970848}}}, "icon": "https://maps.gstatic.com/mapfiles/place_api/icons/v1/png_71/school-71.png", "icon_background_color": "#7B9EB0", "icon_mask_base_uri": "https://maps.gstatic.com/mapfiles/place_api/icons/v2/school_pinlet", "name": "School Kathulipara", "photos": [{"height": 1934, "html_attributions": ["<a href=\"https://maps.google.com/maps/contrib/114557055752502169231\">Abu Siddique Khan</a>"], "photo_reference": "Aap_uEBiWkGFZ0Pd2jzlLezPfdtfLofk9BoBeOt6YHAqTAGJb64Lrsc_Xkxaoj4gFUl7pinr0pFaJ-sMLZEIvoL3NpjMPpImsAOrobzQe0P1f1n3hoZAkEqhEJqZrVd_bLl-ULMvmDI3MqXxL1vsJU4n1mbuHlETkmLjbkRhVa7Uj0_EPTp6", "width": 4073}], "place_id": "ChIJEXGLg-9xWDcRDd2UKzXzExA", "rating": 3.6, "reference": "ChIJEXGLg-9xWDcRDd2UKzXzExA", "scope": "GOOGLE", "types": ["school", "point_of_interest", "establishment"], "user_ratings_total": 5, "vicinity": "542Q+4W6, Sadhuvasa Pt.I"}], "status": "OK"}