{"html_attributions": [], "results": [{"business_status": "CLOSED_TEMPORARILY", "geometry": {"location": {"lat": 26.2204491, "lng": 90.1431673}, "viewport": {"northeast": {"lat": 26.2218277302915, "lng": 90.1445044302915}, "southwest": {"lat": 26.21912976970849, "lng": 90.1418064697085}}}, "icon": "https://maps.gstatic.com/mapfiles/place_api/icons/v1/png_71/school-71.png", "icon_background_color": "#7B9EB0", "icon_mask_base_uri": "https://maps.gstatic.com/mapfiles/place_api/icons/v2/school_pinlet", "name": "Chapar Academy", "permanently_closed": true, "place_id": "ChIJx40x7wRwWDcRrH3QGby82b8", "rating": 5, "reference": "ChIJx40x7wRwWDcRrH3QGby82b8", "scope": "GOOGLE", "types": ["school", "point_of_interest", "establishment"], "user_ratings_total": 3, "vicinity": "National Highway 17, Rowmari, Chapar"}, {"business_status": "OPERATIONAL", "geometry": {"location": {"lat": 26.2195578, "lng": 90.14623759999999}, "viewport": {"northeast": {"lat": 26.2209165802915, "lng": 90.14762398029151}, "southwest": {"lat": 26.2182186197085, "lng": 90.1449260197085}}}, "icon": "https://maps.gstatic.com/mapfiles/place_api/icons/v1/png_71/school-71.png", "icon_background_color": "#7B9EB0", "icon_mask_base_uri": "https://maps.gstatic.com/mapfiles/place_api/icons/v2/school_pinlet", "name": "Ananda Namo Das House", "opening_hours": {"open_now": true}, "place_id": "ChIJCWJOcHZxWDcRt6VWHMlLuo0", "reference": "ChIJCWJOcHZxWDcRt6VWHMlLuo0", "scope": "GOOGLE", "types": ["school", "point_of_interest", "establishment"], "vicinity": "649W+RFH"}, {"business_status": "OPERATIONAL", "geometry": {"location": {"lat": 26.2298217, "lng": 90.14600999999999}, "viewport": {"northeast": {"lat": 26.2312184302915, "lng": 90.1474162802915}, "southwest": {"lat": 26.2285204697085, "lng": 90.14471831970849}}}, "icon": "https://maps.gstatic.com/mapfiles/place_api/icons/v1/png_71/school-71.png", "icon_background_color": "#7B9EB0", "icon_mask_base_uri": "https://maps.gstatic.com/mapfiles/place_api/icons/v2/school_pinlet", "name": "Raju Hoque (Chentu)", "opening_hours": {"open_now": false}, "place_id": "ChIJ1VSRXlNxWDcRNzor9dZKk54", "reference": "ChIJ1VSRXlNxWDcRNzor9dZKk54", "scope": "GOOGLE", "types": ["school", "point_of_interest", "establishment"], "vicinity": "64HW+WCC, Fokiranijhar Pt.II"}, {"business_status": "OPERATIONAL", "geometry": {"location": {"lat": 26.2164842, "lng": 90.1525144}, "viewport": {"northeast": {"lat": 26.2178779802915, "lng": 90.1540753802915}, "southwest": {"lat": 26.21518001970849, "lng": 90.1513774197085}}}, "icon": "https://maps.gstatic.com/mapfiles/place_api/icons/v1/png_71/school-71.png", "icon_background_color": "#7B9EB0", "icon_mask_base_uri": "https://maps.gstatic.com/mapfiles/place_api/icons/v2/school_pinlet", "name": "2268 NO. KALABARI LP SCHOOL", "opening_hours": {"open_now": true}, "photos": [{"height": 3264, "html_attributions": ["<a href=\"https://maps.google.com/maps/contrib/107739821661161209299\">Sudipto Saha</a>"], "photo_reference": "Aap_uEBUtZd1X7o08Pil8kRlhaSpohu9mndqpRkvhEsf1_jn_gep7RBD81IwAlwE5TIVqUf0hihwtQ5BQRlmCokdK11zQKNUwREWnW9IANLSbQn7IwkDrrMPkwcesnZgkINlzkeUCWkv3EOFxZwHN7RSFwK8WKUQgdUEvZEb3PWOtyAcHmLZ", "width": 1504}], "place_id": "ChIJOVs8f-FvWDcREdrkt3c_6EA", "rating": 5, "reference": "ChIJOVs8f-FvWDcREdrkt3c_6EA", "scope": "GOOGLE", "types": ["primary_school", "school", "point_of_interest", "establishment"], "user_ratings_total": 1, "vicinity": "6583+H2R, Bilasipara"}, {"business_status": "OPERATIONAL", "geometry": {"location": {"lat": 26.2248841, "lng": 90.15422559999999}, "viewport": {"northeast": {"lat": 26.2262281802915, "lng": 90.15557778029151}, "southwest": {"lat": 26.2235302197085, "lng": 90.15287981970849}}}, "icon": "https://maps.gstatic.com/mapfiles/place_api/icons/v1/png_71/school-71.png", "icon_background_color": "#7B9EB0", "icon_mask_base_uri": "https://maps.gstatic.com/mapfiles/place_api/icons/v2/school_pinlet", "name": "Barkanda Peoples Academy H.S.School Raju Roy", "photos": [{"height": 4160, "html_attributions": ["<a href=\"https://maps.google.com/maps/contrib/114460654002295256339\">Harilal Chowhan</a>"], "photo_reference": "Aap_uEDq_Oi10DQnvCsdjC_7Bzpj6XcffhFfGNLKuzBF3t6y_j_QTC6TOqMQ3jNPNDEOPK8y-ObVA8CH7utqGVp3Me3S_dlfDH-Ri1bmJt_KFUogn5nXPM4aqsJj94suIlw5LxQolrqtZNQP57NVwfgKPO6_LhW1rXExNAbPtrfkBYGbh582", "width": 3120}], "place_id": "ChIJxUTY6TZvWDcRJwQbklAux9U", "reference": "ChIJxUTY6TZvWDcRJwQbklAux9U", "scope": "GOOGLE", "types": ["school", "point_of_interest", "establishment"], "vicinity": "65F3+XM5, Fokiranijhar Pt.I"}, {"business_status": "OPERATIONAL", "geometry": {"location": {"lat": 26.2289041, "lng": 90.1530097}, "viewport": {"northeast": {"lat": 26.2303334802915, "lng": 90.15404128029151}, "southwest": {"lat": 26.2276355197085, "lng": 90.1513433197085}}}, "icon": "https://maps.gstatic.com/mapfiles/place_api/icons/v1/png_71/school-71.png", "icon_background_color": "#7B9EB0", "icon_mask_base_uri": "https://maps.gstatic.com/mapfiles/place_api/icons/v2/school_pinlet", "name": "Alma bibe", "place_id": "ChIJI-kJixFvWDcRBdplqJdY1PM", "reference": "ChIJI-kJixFvWDcRBdplqJdY1PM", "scope": "GOOGLE", "types": ["school", "point_of_interest", "establishment"], "vicinity": "65H3+H66, Fokiranijhar Pt.II"}, {"business_status": "OPERATIONAL", "geometry": {"location": {"lat": 26.2153908, "lng": 90.1344082}, "viewport": {"northeast": {"lat": 26.21684523029151, "lng": 90.1357324302915}, "southwest": {"lat": 26.2141472697085, "lng": 90.13303446970849}}}, "icon": "https://maps.gstatic.com/mapfiles/place_api/icons/v1/png_71/school-71.png", "icon_background_color": "#7B9EB0", "icon_mask_base_uri": "https://maps.gstatic.com/mapfiles/place_api/icons/v2/school_pinlet", "name": "Khoraghat ME School", "opening_hours": {"open_now": true}, "photos": [{"height": 4000, "html_attributions": ["<a href=\"https://maps.google.com/maps/contrib/101512297710043695411\">Choton Saha</a>"], "photo_reference": "Aap_uEDb7UcKK-b84bdJUPmdWAutKsz8ezNwIls81AkT9Q1VvPhhw0l7uGPLgfFZHGdyd-w6psaIrAGwkjrQvbCpmkmWv6BeaD-b86DKGLKWpZNZppNSY4CIveoZMnf3Knad6Qw1Yh0XJQzMGZKEEHRIR9akVG3UxDlcaTP1PzYA9299XPBa", "width": 1844}], "place_id": "ChIJf1VOyhNwWDcRHw3mJ1rR7AU", "reference": "ChIJf1VOyhNwWDcRHw3mJ1rR7AU", "scope": "GOOGLE", "types": ["school", "point_of_interest", "establishment"], "vicinity": "648M+5Q3, Bogribari"}, {"business_status": "OPERATIONAL", "geometry": {"location": {"lat": 26.2152212, "lng": 90.13452649999999}, "viewport": {"northeast": {"lat": 26.2165523302915, "lng": 90.1359779302915}, "southwest": {"lat": 26.2138543697085, "lng": 90.1332799697085}}}, "icon": "https://maps.gstatic.com/mapfiles/place_api/icons/v1/png_71/school-71.png", "icon_background_color": "#7B9EB0", "icon_mask_base_uri": "https://maps.gstatic.com/mapfiles/place_api/icons/v2/school_pinlet", "name": "Khoraghat J B School", "photos": [{"height": 3096, "html_attributions": ["<a href=\"https://maps.google.com/maps/contrib/109761514834062568913\">Mominur Islam</a>"], "photo_reference": "Aap_uEAdhd4NsLigI3xNVBXFNgYXzqpCZDQB-4E7JDEBNQY4CLXxjKyRvtsb5dj8DBC3UzhsLFMkO3ionOP2YqNHCNxF2T8Shh_f-PL7wZYnSIQP1GXNgQdYQk3rBS0YAIGD-NZXemamFYpLzmEq7pq41h7yNqAlek7ie2UycLOihvdpQIcZ", "width": 4128}], "place_id": "ChIJaSIiNIlxWDcRmUBuW3tj3qM", "rating": 2, "reference": "ChIJaSIiNIlxWDcRmUBuW3tj3qM", "scope": "GOOGLE", "types": ["school", "point_of_interest", "establishment"], "user_ratings_total": 1, "vicinity": "648M+3RJ, Rajapara Pt.II"}, {"business_status": "OPERATIONAL", "geometry": {"location": {"lat": 26.2148212, "lng": 90.1342672}, "viewport": {"northeast": {"lat": 26.21613903029151, "lng": 90.1354403302915}, "southwest": {"lat": 26.21344106970851, "lng": 90.1327423697085}}}, "icon": "https://maps.gstatic.com/mapfiles/place_api/icons/v1/png_71/school-71.png", "icon_background_color": "#7B9EB0", "icon_mask_base_uri": "https://maps.gstatic.com/mapfiles/place_api/icons/v2/school_pinlet", "name": "Sheikh Ahmed Orphan Madrasa", "photos": [{"height": 3096, "html_attributions": ["<a href=\"https://maps.google.com/maps/contrib/109761514834062568913\">Mominur Islam</a>"], "photo_reference": "Aap_uEBCO1LW9okiykLliitA3WVj5qi4EPbeh6hWYlWzLgbd5mmFlDHunRfLzIKZ76mkc32x0hTC1qG5iCbnypP0yygoxHAeGiZBdkkTCn2XeHBSEnNvqd2FUZNt0ZmG3q7ShPPOa82mUK82AtPb23pm9kncBt7wJPNE05knlT1_9NfPJ-nn", "width": 4128}], "place_id": "ChIJqy3Y789xWDcRUzCuRS1NSF4", "reference": "ChIJqy3Y789xWDcRUzCuRS1NSF4", "scope": "GOOGLE", "types": ["school", "point_of_interest", "establishment"], "vicinity": "647M+WPC, Rajapara Pt.II"}, {"business_status": "OPERATIONAL", "geometry": {"location": {"lat": 26.2144599, "lng": 90.13375099999999}, "viewport": {"northeast": {"lat": 26.2158234302915, "lng": 90.1352061802915}, "southwest": {"lat": 26.21312546970849, "lng": 90.1325082197085}}}, "icon": "https://maps.gstatic.com/mapfiles/place_api/icons/v1/png_71/school-71.png", "icon_background_color": "#7B9EB0", "icon_mask_base_uri": "https://maps.gstatic.com/mapfiles/place_api/icons/v2/school_pinlet", "name": "Khoraghat Adarsha Bidyalaya", "place_id": "ChIJG867vBNwWDcRB9jV2FLRyto", "plus_code": {"compound_code": "647M+QG Rajapara Pt.II, Assam, India", "global_code": "7MRG647M+QG"}, "reference": "ChIJG867vBNwWDcRB9jV2FLRyto", "scope": "GOOGLE", "types": ["school", "point_of_interest", "establishment"], "vicinity": "Rajapara Pt.II"}], "status": "OK"}