{"html_attributions": [], "results": [{"business_status": "OPERATIONAL", "geometry": {"location": {"lat": 26.3808113, "lng": 90.1431848}, "viewport": {"northeast": {"lat": 26.3823044802915, "lng": 90.14453253029151}, "southwest": {"lat": 26.3796065197085, "lng": 90.14183456970851}}}, "icon": "https://maps.gstatic.com/mapfiles/place_api/icons/v1/png_71/school-71.png", "icon_background_color": "#7B9EB0", "icon_mask_base_uri": "https://maps.gstatic.com/mapfiles/place_api/icons/v2/school_pinlet", "name": "Pachim Durahati LP School", "place_id": "ChIJ1Tuu9y59WDcRgGX4tjt1Omc", "reference": "ChIJ1Tuu9y59WDcRgGX4tjt1Omc", "scope": "GOOGLE", "types": ["school", "point_of_interest", "establishment"], "vicinity": "94JV+87F, Pratakhata Pt I"}, {"business_status": "OPERATIONAL", "geometry": {"location": {"lat": 26.3738524, "lng": 90.14833469999999}, "viewport": {"northeast": {"lat": 26.3752522302915, "lng": 90.15277575}, "southwest": {"lat": 26.37255426970849, "lng": 90.14685434999998}}}, "icon": "https://maps.gstatic.com/mapfiles/place_api/icons/v1/png_71/school-71.png", "icon_background_color": "#7B9EB0", "icon_mask_base_uri": "https://maps.gstatic.com/mapfiles/place_api/icons/v2/school_pinlet", "name": "Pachim Durahati LP School", "place_id": "ChIJuWngwSp9WDcRGkvsT5C2vMk", "rating": 1, "reference": "ChIJuWngwSp9WDcRGkvsT5C2vMk", "scope": "GOOGLE", "types": ["school", "point_of_interest", "establishment"], "user_ratings_total": 1, "vicinity": "94FX+G8W, Bhuban Nagar"}, {"business_status": "OPERATIONAL", "geometry": {"location": {"lat": 26.3819223, "lng": 90.1339053}, "viewport": {"northeast": {"lat": 26.3832568302915, "lng": 90.1353715302915}, "southwest": {"lat": 26.38055886970849, "lng": 90.13267356970849}}}, "icon": "https://maps.gstatic.com/mapfiles/place_api/icons/v1/png_71/school-71.png", "icon_background_color": "#7B9EB0", "icon_mask_base_uri": "https://maps.gstatic.com/mapfiles/place_api/icons/v2/school_pinlet", "name": "\u09aa\u09cd\u09f0\u09a4\u09be\u09aa\u0996\u09be\u09a4\u09be \u098f\u09b2\u09aa\u09bf \u09b8\u09cd\u0995\u09c1\u09b2", "place_id": "ChIJWxSKDJF9WDcRBeFC7iGDdD0", "plus_code": {"compound_code": "94JM+QH Mohisbathan, Assam, India", "global_code": "7MRG94JM+QH"}, "reference": "ChIJWxSKDJF9WDcRBeFC7iGDdD0", "scope": "GOOGLE", "types": ["school", "point_of_interest", "establishment"], "vicinity": "Unnamed Road, Mohisbathan"}, {"business_status": "OPERATIONAL", "geometry": {"location": {"lat": 26.3729112, "lng": 90.141806}, "viewport": {"northeast": {"lat": 26.3742895302915, "lng": 90.14304923029151}, "southwest": {"lat": 26.3715915697085, "lng": 90.1403512697085}}}, "icon": "https://maps.gstatic.com/mapfiles/place_api/icons/v1/png_71/school-71.png", "icon_background_color": "#7B9EB0", "icon_mask_base_uri": "https://maps.gstatic.com/mapfiles/place_api/icons/v2/school_pinlet", "name": "Durahati L.P School", "place_id": "ChIJCUjBOih9WDcR8m4uHsbmsWU", "plus_code": {"compound_code": "94FR+5P Hatachara, Assam, India", "global_code": "7MRG94FR+5P"}, "reference": "ChIJCUjBOih9WDcR8m4uHsbmsWU", "scope": "GOOGLE", "types": ["school", "point_of_interest", "establishment"], "vicinity": "khata 2, Gali Number 5, Pratap Nagar, Saharanpur"}, {"business_status": "OPERATIONAL", "geometry": {"location": {"lat": 26.3761513, "lng": 90.1337061}, "viewport": {"northeast": {"lat": 26.3774641302915, "lng": 90.1349379802915}, "southwest": {"lat": 26.3747661697085, "lng": 90.13224001970849}}}, "icon": "https://maps.gstatic.com/mapfiles/place_api/icons/v1/png_71/school-71.png", "icon_background_color": "#7B9EB0", "icon_mask_base_uri": "https://maps.gstatic.com/mapfiles/place_api/icons/v2/school_pinlet", "name": "Durahati Lp School Part 1", "opening_hours": {"open_now": true}, "place_id": "ChIJVyP-ESF9WDcRnbg91lIP4rc", "reference": "ChIJVyP-ESF9WDcRnbg91lIP4rc", "scope": "GOOGLE", "types": ["school", "point_of_interest", "establishment"], "vicinity": "94GM+FF8, Faluguri"}, {"business_status": "OPERATIONAL", "geometry": {"location": {"lat": 26.3814933, "lng": 90.13094679999999}, "viewport": {"northeast": {"lat": 26.3827649802915, "lng": 90.1321764302915}, "southwest": {"lat": 26.38006701970849, "lng": 90.12947846970847}}}, "icon": "https://maps.gstatic.com/mapfiles/place_api/icons/v1/png_71/school-71.png", "icon_background_color": "#7B9EB0", "icon_mask_base_uri": "https://maps.gstatic.com/mapfiles/place_api/icons/v2/school_pinlet", "name": "Jatya Biddyalay Mohatma Children School", "opening_hours": {"open_now": true}, "place_id": "ChIJbbCugyJ9WDcRrArmcI_bDq4", "rating": 5, "reference": "ChIJbbCugyJ9WDcRrArmcI_bDq4", "scope": "GOOGLE", "types": ["school", "point_of_interest", "establishment"], "user_ratings_total": 1, "vicinity": "94JJ+H9W, Mohisbathan"}, {"business_status": "OPERATIONAL", "geometry": {"location": {"lat": 26.3927641, "lng": 90.1377983}, "viewport": {"northeast": {"lat": 26.3941420302915, "lng": 90.13860428029152}, "southwest": {"lat": 26.3914440697085, "lng": 90.1359063197085}}}, "icon": "https://maps.gstatic.com/mapfiles/place_api/icons/v1/png_71/school-71.png", "icon_background_color": "#7B9EB0", "icon_mask_base_uri": "https://maps.gstatic.com/mapfiles/place_api/icons/v2/school_pinlet", "name": "Rimijhimi Ghop L.P. School RimijhimiGhop", "opening_hours": {"open_now": true}, "photos": [{"height": 3120, "html_attributions": ["<a href=\"https://maps.google.com/maps/contrib/107233289094713187184\">Ratan Chandra Barman</a>"], "photo_reference": "Aap_uEDJNKir2G3Lit_jh4E9JjOP1xGMC4Z4UQFpJBJfSHyRlOOkpk25HRMZt93o6VSIMDDsco3OS2lMRMpaDNkBJDLlfyXjk4iw26bZfI0ZRyS-aJ5LzILeFCXJouEHtoqZ07kLPQ_2n93oerlNcecnZiUu6VMrlPS3qGbyKhNpTGucFyAM", "width": 4160}], "place_id": "ChIJ-S3poqB9WDcR7frJZMN5WnI", "rating": 5, "reference": "ChIJ-S3poqB9WDcR7frJZMN5WnI", "scope": "GOOGLE", "types": ["school", "point_of_interest", "establishment"], "user_ratings_total": 2, "vicinity": "94VQ+443, Rimijhimighopa"}], "status": "OK"}