{"html_attributions": [], "results": [{"business_status": "OPERATIONAL", "geometry": {"location": {"lat": 26.0044612, "lng": 90.1637279}, "viewport": {"northeast": {"lat": 26.0058101802915, "lng": 90.16507688029151}, "southwest": {"lat": 26.0031122197085, "lng": 90.16237891970849}}}, "icon": "https://maps.gstatic.com/mapfiles/place_api/icons/v1/png_71/school-71.png", "icon_background_color": "#7B9EB0", "icon_mask_base_uri": "https://maps.gstatic.com/mapfiles/place_api/icons/v2/school_pinlet", "name": "Dingdinga Simlabari L.P. School", "place_id": "ChIJFYvt4I0SWDcRyEnqPTRg7U8", "rating": 5, "reference": "ChIJFYvt4I0SWDcRyEnqPTRg7U8", "scope": "GOOGLE", "types": ["school", "point_of_interest", "establishment"], "user_ratings_total": 1, "vicinity": "2537+QFQ, Dingdinga"}, {"business_status": "OPERATIONAL", "geometry": {"location": {"lat": 26.0046348, "lng": 90.1639168}, "viewport": {"northeast": {"lat": 26.0059837802915, "lng": 90.1652657802915}, "southwest": {"lat": 26.0032858197085, "lng": 90.1625678197085}}}, "icon": "https://maps.gstatic.com/mapfiles/place_api/icons/v1/png_71/school-71.png", "icon_background_color": "#7B9EB0", "icon_mask_base_uri": "https://maps.gstatic.com/mapfiles/place_api/icons/v2/school_pinlet", "name": "Dingdinga Simlabari M.E. Madrassa", "place_id": "ChIJ9xeV5o0SWDcRsR4xP1pgHNc", "reference": "ChIJ9xeV5o0SWDcRsR4xP1pgHNc", "scope": "GOOGLE", "types": ["school", "point_of_interest", "establishment"], "vicinity": "2537+VH3, Dingdinga"}, {"business_status": "OPERATIONAL", "geometry": {"location": {"lat": 26.0001064, "lng": 90.16606929999999}, "viewport": {"northeast": {"lat": 26.0014553802915, "lng": 90.16741828029149}, "southwest": {"lat": 25.9987574197085, "lng": 90.16472031970848}}}, "icon": "https://maps.gstatic.com/mapfiles/place_api/icons/v1/png_71/school-71.png", "icon_background_color": "#7B9EB0", "icon_mask_base_uri": "https://maps.gstatic.com/mapfiles/place_api/icons/v2/school_pinlet", "name": "H R Memorial High Madrassa", "place_id": "ChIJwXQIgYwSWDcRDrd6dgf1FpE", "rating": 1, "reference": "ChIJwXQIgYwSWDcRDrd6dgf1FpE", "scope": "GOOGLE", "types": ["school", "point_of_interest", "establishment"], "user_ratings_total": 1, "vicinity": "2528+2CW, Dingdinga"}, {"business_status": "OPERATIONAL", "geometry": {"location": {"lat": 26.0000427, "lng": 90.1678476}, "viewport": {"northeast": {"lat": 26.0010965802915, "lng": 90.1730793}, "southwest": {"lat": 25.9983986197085, "lng": 90.16610370000001}}}, "icon": "https://maps.gstatic.com/mapfiles/place_api/icons/v1/png_71/school-71.png", "icon_background_color": "#7B9EB0", "icon_mask_base_uri": "https://maps.gstatic.com/mapfiles/place_api/icons/v2/school_pinlet", "name": "Dingdinga Gourantari Girls M E Madrassa", "place_id": "ChIJSetieVQTWDcRgtSB9-VoxXg", "reference": "ChIJSetieVQTWDcRgtSB9-VoxXg", "scope": "GOOGLE", "types": ["school", "point_of_interest", "establishment"], "vicinity": "2529+249, Dingdinga"}, {"business_status": "OPERATIONAL", "geometry": {"location": {"lat": 26.006667, "lng": 90.1640764}, "viewport": {"northeast": {"lat": 26.0080159802915, "lng": 90.16542538029151}, "southwest": {"lat": 26.0053180197085, "lng": 90.1627274197085}}}, "icon": "https://maps.gstatic.com/mapfiles/place_api/icons/v1/png_71/school-71.png", "icon_background_color": "#7B9EB0", "icon_mask_base_uri": "https://maps.gstatic.com/mapfiles/place_api/icons/v2/school_pinlet", "name": "Al-Amin Ideal Academy", "place_id": "ChIJ43KWGpISWDcRx6IX7pmatzQ", "reference": "ChIJ43KWGpISWDcRx6IX7pmatzQ", "scope": "GOOGLE", "types": ["school", "point_of_interest", "establishment"], "vicinity": "2547+MJ8, Falpur"}, {"business_status": "OPERATIONAL", "geometry": {"location": {"lat": 25.9969599, "lng": 90.1658856}, "viewport": {"northeast": {"lat": 25.99874364999999, "lng": 90.1677124802915}, "southwest": {"lat": 25.99160865, "lng": 90.16501451970849}}}, "icon": "https://maps.gstatic.com/mapfiles/place_api/icons/v1/png_71/school-71.png", "icon_background_color": "#7B9EB0", "icon_mask_base_uri": "https://maps.gstatic.com/mapfiles/place_api/icons/v2/school_pinlet", "name": "DINGDINGA GOURANTARI GIRLS M E MADRASSA", "place_id": "ChIJ-wUZs2ITWDcRZ2kvZ2aCMYs", "rating": 5, "reference": "ChIJ-wUZs2ITWDcRZ2kvZ2aCMYs", "scope": "GOOGLE", "types": ["school", "point_of_interest", "establishment"], "user_ratings_total": 1, "vicinity": "X5W8+Q9J, Dingdinga"}, {"business_status": "OPERATIONAL", "geometry": {"location": {"lat": 26.006161, "lng": 90.15675870000001}, "viewport": {"northeast": {"lat": 26.0075084802915, "lng": 90.15811773029151}, "southwest": {"lat": 26.0048105197085, "lng": 90.1554197697085}}}, "icon": "https://maps.gstatic.com/mapfiles/place_api/icons/v1/png_71/school-71.png", "icon_background_color": "#7B9EB0", "icon_mask_base_uri": "https://maps.gstatic.com/mapfiles/place_api/icons/v2/school_pinlet", "name": "Parowa Me Madrassa", "opening_hours": {"open_now": false}, "place_id": "ChIJiU4vvtITWDcRWyIje0FwhEc", "reference": "ChIJiU4vvtITWDcRWyIje0FwhEc", "scope": "GOOGLE", "types": ["school", "point_of_interest", "establishment"], "vicinity": "2544+FP6, Falpur"}, {"business_status": "OPERATIONAL", "geometry": {"location": {"lat": 26.0081476, "lng": 90.17061969999999}, "viewport": {"northeast": {"lat": 26.0094316302915, "lng": 90.1719753302915}, "southwest": {"lat": 26.0067336697085, "lng": 90.1692773697085}}}, "icon": "https://maps.gstatic.com/mapfiles/place_api/icons/v1/png_71/school-71.png", "icon_background_color": "#7B9EB0", "icon_mask_base_uri": "https://maps.gstatic.com/mapfiles/place_api/icons/v2/school_pinlet", "name": "Shiltoka LP School", "place_id": "ChIJs0ivsb4TWDcRzP09dmwPiw8", "reference": "ChIJs0ivsb4TWDcRzP09dmwPiw8", "scope": "GOOGLE", "types": ["school", "point_of_interest", "establishment"], "vicinity": "255C+765, Falpur"}, {"business_status": "OPERATIONAL", "geometry": {"location": {"lat": 25.9920333, "lng": 90.1606784}, "viewport": {"northeast": {"lat": 25.9934216302915, "lng": 90.16201733029149}, "southwest": {"lat": 25.99072366970849, "lng": 90.15931936970848}}}, "icon": "https://maps.gstatic.com/mapfiles/place_api/icons/v1/png_71/school-71.png", "icon_background_color": "#7B9EB0", "icon_mask_base_uri": "https://maps.gstatic.com/mapfiles/place_api/icons/v2/school_pinlet", "name": "Rahul Store", "place_id": "ChIJy4NQJO8TWDcRumBQsG8YCCA", "reference": "ChIJy4NQJO8TWDcRumBQsG8YCCA", "scope": "GOOGLE", "types": ["school", "point_of_interest", "establishment"], "vicinity": "X5R6+R77, Morichbari Reserve"}, {"business_status": "OPERATIONAL", "geometry": {"location": {"lat": 25.9946735, "lng": 90.1736734}, "viewport": {"northeast": {"lat": 25.9954439302915, "lng": 90.1744897302915}, "southwest": {"lat": 25.9927459697085, "lng": 90.17179176970849}}}, "icon": "https://maps.gstatic.com/mapfiles/place_api/icons/v1/png_71/school-71.png", "icon_background_color": "#7B9EB0", "icon_mask_base_uri": "https://maps.gstatic.com/mapfiles/place_api/icons/v2/school_pinlet", "name": "Janakalyan M.E. School", "photos": [{"height": 1080, "html_attributions": ["<a href=\"https://maps.google.com/maps/contrib/115726870253912566370\">Being Aftabul Jia</a>"], "photo_reference": "Aap_uEAqO89SwsO-FJCyCULQ2Q_yoLylGyIiYxkisHqQJH-0FhEufVY_NZV8FTFWh9ne4bUHlj6-y5gQc0iuM9soxHa21gMVYVd4U7wBIwAuD9WLrs7c--CNytguOqEEDEhY95oOrFdIg6QVAsO7f3pB6Usjpl_9mOrDMd16bTsFw-rxBfbN", "width": 1920}], "place_id": "ChIJZcU7_AkTWDcRY3BAzwFk_LU", "plus_code": {"compound_code": "X5VF+VF Haruaphuta, Assam, India", "global_code": "7MQGX5VF+VF"}, "rating": 5, "reference": "ChIJZcU7_AkTWDcRY3BAzwFk_LU", "scope": "GOOGLE", "types": ["school", "point_of_interest", "establishment"], "user_ratings_total": 1, "vicinity": "Dhumerghat Jinjiram wooden river bridge, Dhumerghat-Baunury Road, Haruaphuta"}, {"business_status": "OPERATIONAL", "geometry": {"location": {"lat": 25.9945557, "lng": 90.17361439999999}, "viewport": {"northeast": {"lat": 25.9953740802915, "lng": 90.1744748802915}, "southwest": {"lat": 25.9926761197085, "lng": 90.17177691970849}}}, "icon": "https://maps.gstatic.com/mapfiles/place_api/icons/v1/png_71/school-71.png", "icon_background_color": "#7B9EB0", "icon_mask_base_uri": "https://maps.gstatic.com/mapfiles/place_api/icons/v2/school_pinlet", "name": "JANAKALYAN M.E. SCHOOL (DINGDINGA P.T- 2)", "opening_hours": {"open_now": true}, "photos": [{"height": 1080, "html_attributions": ["<a href=\"https://maps.google.com/maps/contrib/115726870253912566370\">Being Aftabul Jia</a>"], "photo_reference": "Aap_uEDRNLI4Kc3_DS0FVo2YKffREGVxPP4sZU_3o_8hsIKVTZ9juWdMjtP198xweKR-PDzm8u6pSEoLDXTgDn5pezSN_n36h9wC78bec9mHdvTazHzMbQE9zGEawSxJEqvs0g_WS1AuPlts6-YwXhKFvIl1X4MoTiErKyfktD-d686TktDx", "width": 1920}], "place_id": "ChIJf2iwVY4TWDcRACndt05Ak6w", "plus_code": {"compound_code": "X5VF+RC Haruaphuta, Assam, India", "global_code": "7MQGX5VF+RC"}, "rating": 5, "reference": "ChIJf2iwVY4TWDcRACndt05Ak6w", "scope": "GOOGLE", "types": ["school", "point_of_interest", "establishment"], "user_ratings_total": 4, "vicinity": "Dhumerghat Jinjiram wooden river bridge, Dhumerghat-Baunury Road, Haruaphuta"}, {"business_status": "OPERATIONAL", "geometry": {"location": {"lat": 26.0107908, "lng": 90.1547511}, "viewport": {"northeast": {"lat": 26.0121219802915, "lng": 90.1560143802915}, "southwest": {"lat": 26.0094240197085, "lng": 90.15331641970849}}}, "icon": "https://maps.gstatic.com/mapfiles/place_api/icons/v1/png_71/school-71.png", "icon_background_color": "#7B9EB0", "icon_mask_base_uri": "https://maps.gstatic.com/mapfiles/place_api/icons/v2/school_pinlet", "name": "Parowa", "place_id": "ChIJudhSlpETWDcRvAKewEx9iJ8", "reference": "ChIJudhSlpETWDcRvAKewEx9iJ8", "scope": "GOOGLE", "types": ["school", "point_of_interest", "establishment"], "vicinity": "2563+8W6, Parua"}, {"business_status": "OPERATIONAL", "geometry": {"location": {"lat": 26.011247, "lng": 90.1543169}, "viewport": {"northeast": {"lat": 26.0125897302915, "lng": 90.15565888029151}, "southwest": {"lat": 26.0098917697085, "lng": 90.15296091970849}}}, "icon": "https://maps.gstatic.com/mapfiles/place_api/icons/v1/png_71/school-71.png", "icon_background_color": "#7B9EB0", "icon_mask_base_uri": "https://maps.gstatic.com/mapfiles/place_api/icons/v2/school_pinlet", "name": "Afser Ali", "place_id": "ChIJuadnzgUTWDcR0123oKE7EYg", "reference": "ChIJuadnzgUTWDcR0123oKE7EYg", "scope": "GOOGLE", "types": ["school", "point_of_interest", "establishment"], "vicinity": "2563+FPW"}], "status": "OK"}