{"html_attributions": [], "results": [{"business_status": "OPERATIONAL", "geometry": {"location": {"lat": 26.137869, "lng": 90.16337469999999}, "viewport": {"northeast": {"lat": 26.13889935, "lng": 90.1642922802915}, "southwest": {"lat": 26.13477795, "lng": 90.1615943197085}}}, "icon": "https://maps.gstatic.com/mapfiles/place_api/icons/v1/png_71/school-71.png", "icon_background_color": "#7B9EB0", "icon_mask_base_uri": "https://maps.gstatic.com/mapfiles/place_api/icons/v2/school_pinlet", "name": "1378 No Guwalerchar LP School", "photos": [{"height": 1280, "html_attributions": ["<a href=\"https://maps.google.com/maps/contrib/105967947212651081008\">Prince Sahin</a>"], "photo_reference": "Aap_uEDhe1cv6G4nc6ZJvmGZdHl_rG6mHu80IHwQbbOpbz05-F_Qapzs-mihhmIXHYeTBH25Qh11a9RgYeRZ8YCMXMPfwttB_w8IGM4fXKfLaANdiEFJerLVbt06OevaeMU9nFUJ6tH72zbE6uANX1xbNyHDWb3ymTqKzYD4YpzvTs_iSOut", "width": 720}], "place_id": "ChIJ4_RFNAFvWDcRNBksBKsz4a8", "reference": "ChIJ4_RFNAFvWDcRNBksBKsz4a8", "scope": "GOOGLE", "types": ["school", "point_of_interest", "establishment"], "vicinity": "45Q7+48X, Boyjer Alga Pt.VI"}, {"business_status": "OPERATIONAL", "geometry": {"location": {"lat": 26.1474299, "lng": 90.1629385}, "viewport": {"northeast": {"lat": 26.1489074802915, "lng": 90.16402438029151}, "southwest": {"lat": 26.14620951970849, "lng": 90.16132641970849}}}, "icon": "https://maps.gstatic.com/mapfiles/place_api/icons/v1/png_71/school-71.png", "icon_background_color": "#7B9EB0", "icon_mask_base_uri": "https://maps.gstatic.com/mapfiles/place_api/icons/v2/school_pinlet", "name": "Goailer Char M. E. Madrassa", "place_id": "ChIJjzXmnm1vWDcRLXtBeGXT4bc", "reference": "ChIJjzXmnm1vWDcRLXtBeGXT4bc", "scope": "GOOGLE", "types": ["secondary_school", "school", "point_of_interest", "establishment"], "vicinity": "45W7+X5G, Fulkakata"}, {"business_status": "OPERATIONAL", "geometry": {"location": {"lat": 26.1373972, "lng": 90.15091210000001}, "viewport": {"northeast": {"lat": 26.1391533802915, "lng": 90.15193420000003}, "southwest": {"lat": 26.1364554197085, "lng": 90.14784579999997}}}, "icon": "https://maps.gstatic.com/mapfiles/place_api/icons/v1/png_71/school-71.png", "icon_background_color": "#7B9EB0", "icon_mask_base_uri": "https://maps.gstatic.com/mapfiles/place_api/icons/v2/school_pinlet", "name": "Alim uddin Mondal", "opening_hours": {"open_now": true}, "photos": [{"height": 4160, "html_attributions": ["<a href=\"https://maps.google.com/maps/contrib/107643247148098099962\">Alim uddin Mondal</a>"], "photo_reference": "Aap_uECXBXI1MnOEGgDJepx2JcYpQgStZ1lgvXqg8k8r01g3DvpWEF5uT_RKUSdTeaDmVv88je3O6GDUIECp1ZD4sXk8NqqkvwrCDbFz6dkekBNEZpN1X8B8ByVsEtvFVasKmqIrXNnemvhvbqBeXiCvv8ABQMHLqmNjUxykvH69dpvR405c", "width": 3120}], "place_id": "ChIJeVaaqGJvWDcRz4HSO0VYxNo", "plus_code": {"compound_code": "45P2+X9 Fulkakata, Assam, India", "global_code": "7MRG45P2+X9"}, "reference": "ChIJeVaaqGJvWDcRz4HSO0VYxNo", "scope": "GOOGLE", "types": ["school", "point_of_interest", "establishment"], "vicinity": "Baburhat Kathaldighi PMGSY Road, Fulkakata"}], "status": "OK"}