{"html_attributions": [], "results": [{"business_status": "OPERATIONAL", "geometry": {"location": {"lat": 26.2192962, "lng": 90.16759150000001}, "viewport": {"northeast": {"lat": 26.2205890802915, "lng": 90.16899988029151}, "southwest": {"lat": 26.2178911197085, "lng": 90.1663019197085}}}, "icon": "https://maps.gstatic.com/mapfiles/place_api/icons/v1/png_71/school-71.png", "icon_background_color": "#7B9EB0", "icon_mask_base_uri": "https://maps.gstatic.com/mapfiles/place_api/icons/v2/school_pinlet", "name": "1824 No. Boalkamri L.P. School", "place_id": "ChIJMxKiMtlvWDcR3EKq2PV1Pq8", "plus_code": {"compound_code": "6599+P2 Boalkamri Pt.I, Assam, India", "global_code": "7MRG6599+P2"}, "reference": "ChIJMxKiMtlvWDcR3EKq2PV1Pq8", "scope": "GOOGLE", "types": ["primary_school", "school", "point_of_interest", "establishment"], "vicinity": "Boalkamri Pt.I"}, {"business_status": "OPERATIONAL", "geometry": {"location": {"lat": 26.2224538, "lng": 90.1688202}, "viewport": {"northeast": {"lat": 26.2237969302915, "lng": 90.1702171302915}, "southwest": {"lat": 26.2210989697085, "lng": 90.1675191697085}}}, "icon": "https://maps.gstatic.com/mapfiles/place_api/icons/v1/png_71/school-71.png", "icon_background_color": "#7B9EB0", "icon_mask_base_uri": "https://maps.gstatic.com/mapfiles/place_api/icons/v2/school_pinlet", "name": "H.Ali", "place_id": "ChIJ-44GNvRvWDcRNkCvTlaHWxU", "reference": "ChIJ-44GNvRvWDcRNkCvTlaHWxU", "scope": "GOOGLE", "types": ["primary_school", "school", "point_of_interest", "establishment"], "vicinity": "65C9+XGP, Boalkamri Pt.I"}, {"business_status": "OPERATIONAL", "geometry": {"location": {"lat": 26.2247826, "lng": 90.1597846}, "viewport": {"northeast": {"lat": 26.2262195802915, "lng": 90.1613036302915}, "southwest": {"lat": 26.22352161970849, "lng": 90.15860566970849}}}, "icon": "https://maps.gstatic.com/mapfiles/place_api/icons/v1/png_71/school-71.png", "icon_background_color": "#7B9EB0", "icon_mask_base_uri": "https://maps.gstatic.com/mapfiles/place_api/icons/v2/school_pinlet", "name": "\u09ac\u09f0\u0995\u09be\u09a8\u09cd\u09a6\u09be \u09aa\u09bf\u09aa\u09b2\u09b8 \u098f\u0995\u09be\u09a1\u09c7\u09ae\u09bf \u0989\u099a\u09cd\u099a\u09a4\u09f0 \u09ae\u09be\u09a7\u09cd\u09af\u09ae\u09bf\u0995 \u09ac\u09bf\u09a6\u09cd\u09af\u09be\u09b2\u09af\u09bc", "place_id": "ChIJN8eDz6hvWDcRgPpwidh7t_I", "reference": "ChIJN8eDz6hvWDcRgPpwidh7t_I", "scope": "GOOGLE", "types": ["secondary_school", "school", "point_of_interest", "establishment"], "vicinity": "65F5+WW7, Chalbanda"}, {"business_status": "OPERATIONAL", "geometry": {"location": {"lat": 26.2247131, "lng": 90.1597017}, "viewport": {"northeast": {"lat": 26.2262599302915, "lng": 90.16093293029151}, "southwest": {"lat": 26.22356196970849, "lng": 90.15823496970849}}}, "icon": "https://maps.gstatic.com/mapfiles/place_api/icons/v1/png_71/school-71.png", "icon_background_color": "#7B9EB0", "icon_mask_base_uri": "https://maps.gstatic.com/mapfiles/place_api/icons/v2/school_pinlet", "name": "2184 No. Batapara N. B. LPS", "photos": [{"height": 2016, "html_attributions": ["<a href=\"https://maps.google.com/maps/contrib/116703873642464397801\">its meeh</a>"], "photo_reference": "Aap_uEBmpIV9EdMZy-z6VCJNN9hp-SeMGGgIArA6cc7ZRdd5DkerTNZUi1s9ifenJxb1pbpqj6kxAfz05RDa8aMbJXXOf829ktl38e2-z2aeiTOekyQw0QvWSX9O6nDYPIm8muJPHJ1ybEMQ0FA5-fNbTj2PoKN3AHJZ9W3R4B5vej6oUvku", "width": 4032}], "place_id": "ChIJl_d8r9tvWDcR0fn0c9kLLPs", "plus_code": {"compound_code": "65F5+VV Borkanda, Assam, India", "global_code": "7MRG65F5+VV"}, "reference": "ChIJl_d8r9tvWDcR0fn0c9kLLPs", "scope": "GOOGLE", "types": ["school", "point_of_interest", "establishment"], "vicinity": "vill - Dubachari PT I, P.O - Barkanda, Dist"}, {"business_status": "OPERATIONAL", "geometry": {"location": {"lat": 26.2247131, "lng": 90.1597017}, "viewport": {"northeast": {"lat": 26.2262599302915, "lng": 90.16093293029151}, "southwest": {"lat": 26.22356196970849, "lng": 90.15823496970849}}}, "icon": "https://maps.gstatic.com/mapfiles/place_api/icons/v1/png_71/school-71.png", "icon_background_color": "#7B9EB0", "icon_mask_base_uri": "https://maps.gstatic.com/mapfiles/place_api/icons/v2/school_pinlet", "name": "Barkanda High School", "photos": [{"height": 764, "html_attributions": ["<a href=\"https://maps.google.com/maps/contrib/114280939428810405271\">Amir Hssain</a>"], "photo_reference": "Aap_uEBL6CEM3L6x9cds-XFC4gfFYtzxoaE2ZgAf37iZzyY1_nOkwcO8GsQO5Ki4c9aEavRFS2D8iH9cBaxNR-CEDHEAHO6fbKHNlloumxy_aKlw0beGiTNDduHETZZn2I2-HLmav1M6sn6QJrhl8HCPZxMy02ft0p5kRJpohA99yrFPUhic", "width": 766}], "place_id": "ChIJRyRuTPdvWDcRzQFnSO0qJO8", "rating": 4.1, "reference": "ChIJRyRuTPdvWDcRzQFnSO0qJO8", "scope": "GOOGLE", "types": ["school", "point_of_interest", "establishment"], "user_ratings_total": 7, "vicinity": "65F5+VVP, Borkanda"}, {"business_status": "OPERATIONAL", "geometry": {"location": {"lat": 26.2247594, "lng": 90.1597038}, "viewport": {"northeast": {"lat": 26.2262886302915, "lng": 90.1609455302915}, "southwest": {"lat": 26.2235906697085, "lng": 90.1582475697085}}}, "icon": "https://maps.gstatic.com/mapfiles/place_api/icons/v1/png_71/school-71.png", "icon_background_color": "#7B9EB0", "icon_mask_base_uri": "https://maps.gstatic.com/mapfiles/place_api/icons/v2/school_pinlet", "name": "Barkanda Peoples Academy H.S. School", "opening_hours": {"open_now": true}, "photos": [{"height": 2304, "html_attributions": ["<a href=\"https://maps.google.com/maps/contrib/113624792685188769560\">Hafizur Rahman</a>"], "photo_reference": "Aap_uECy3t16HqhGZml3q82RTWN23kU7nhIb_wLNGlmYAUx6o9orqpEsnyB4xASX0wEcfoOBaQP1jgrvvQIR-vD1MkqfiROGWJAerUZHpZklShuAQJvEPHskVAiaCT1NVX87qgnZf_WPO4tTeReAnQg_MVycG9VB14QoLXxNLOTn8c_F1kEU", "width": 4096}], "place_id": "ChIJDYkNTPdvWDcRu0zEOSPHLJw", "rating": 4.2, "reference": "ChIJDYkNTPdvWDcRu0zEOSPHLJw", "scope": "GOOGLE", "types": ["school", "point_of_interest", "establishment"], "user_ratings_total": 12, "vicinity": "65F5+WV4, Borkanda"}, {"business_status": "OPERATIONAL", "geometry": {"location": {"lat": 26.22453, "lng": 90.1696266}, "viewport": {"northeast": {"lat": 26.2258999802915, "lng": 90.1710051302915}, "southwest": {"lat": 26.2232020197085, "lng": 90.1683071697085}}}, "icon": "https://maps.gstatic.com/mapfiles/place_api/icons/v1/png_71/school-71.png", "icon_background_color": "#7B9EB0", "icon_mask_base_uri": "https://maps.gstatic.com/mapfiles/place_api/icons/v2/school_pinlet", "name": "BOALKAMURI LP SCHOOL", "place_id": "ChIJORGTpCNvWDcRXtMZ6MbJ7fE", "reference": "ChIJORGTpCNvWDcRXtMZ6MbJ7fE", "scope": "GOOGLE", "types": ["school", "point_of_interest", "establishment"], "vicinity": "65F9+RV6, Boalkamri Pt.I"}, {"business_status": "OPERATIONAL", "geometry": {"location": {"lat": 26.2237928, "lng": 90.1702777}, "viewport": {"northeast": {"lat": 26.2252821302915, "lng": 90.1715990302915}, "southwest": {"lat": 26.2225841697085, "lng": 90.1689010697085}}}, "icon": "https://maps.gstatic.com/mapfiles/place_api/icons/v1/png_71/school-71.png", "icon_background_color": "#7B9EB0", "icon_mask_base_uri": "https://maps.gstatic.com/mapfiles/place_api/icons/v2/school_pinlet", "name": "Janata EM Madrasa", "place_id": "ChIJZ7mQBXBvWDcRMm_apz_0uxs", "reference": "ChIJZ7mQBXBvWDcRMm_apz_0uxs", "scope": "GOOGLE", "types": ["school", "point_of_interest", "establishment"], "vicinity": "65FC+G46, Boalkamri Pt.I"}, {"business_status": "OPERATIONAL", "geometry": {"location": {"lat": 26.2233774, "lng": 90.1728426}, "viewport": {"northeast": {"lat": 26.22457663029151, "lng": 90.17419598029151}, "southwest": {"lat": 26.2218786697085, "lng": 90.17149801970851}}}, "icon": "https://maps.gstatic.com/mapfiles/place_api/icons/v1/png_71/school-71.png", "icon_background_color": "#7B9EB0", "icon_mask_base_uri": "https://maps.gstatic.com/mapfiles/place_api/icons/v2/school_pinlet", "name": "Mohizul Pharmacy", "opening_hours": {"open_now": true}, "place_id": "ChIJH5jRv7FvWDcR7Kk_5098Ya4", "plus_code": {"compound_code": "65FF+94 Boalkamri Pt.I, Assam, India", "global_code": "7MRG65FF+94"}, "rating": 5, "reference": "ChIJH5jRv7FvWDcR7Kk_5098Ya4", "scope": "GOOGLE", "types": ["school", "point_of_interest", "establishment"], "user_ratings_total": 1, "vicinity": "boalkamuri part 1 po barkandA"}, {"business_status": "OPERATIONAL", "geometry": {"location": {"lat": 26.2286537, "lng": 90.1700618}, "viewport": {"northeast": {"lat": 26.2303438802915, "lng": 90.1713290802915}, "southwest": {"lat": 26.2276459197085, "lng": 90.1686311197085}}}, "icon": "https://maps.gstatic.com/mapfiles/place_api/icons/v1/png_71/school-71.png", "icon_background_color": "#7B9EB0", "icon_mask_base_uri": "https://maps.gstatic.com/mapfiles/place_api/icons/v2/school_pinlet", "name": "sonkosh madrasa", "photos": [{"height": 4128, "html_attributions": ["<a href=\"https://maps.google.com/maps/contrib/109761514834062568913\">Mominur Islam</a>"], "photo_reference": "Aap_uEBHv2972rxIKXIAg6m2Ksn4ywz2r9Bz0U--T0c4de2V58MRgPnT42bceNu9xFHLHSsGK7XwyGp_1nDPwVtXRDzd20gMgveQXMddYbeEXheXukU-9epjUKMHg0Nar7sMmeiE9tO3vX5qm9g-LyMpUEpJUt8Zr4d7PekbZWVV_oRtfO_u", "width": 3096}], "place_id": "ChIJD8tC8opvWDcRbZaourLGNIc", "rating": 4.5, "reference": "ChIJD8tC8opvWDcRbZaourLGNIc", "scope": "GOOGLE", "types": ["school", "point_of_interest", "establishment"], "user_ratings_total": 2, "vicinity": "65HC+F27, Boalkamri Pt.I"}, {"business_status": "OPERATIONAL", "geometry": {"location": {"lat": 26.2277586, "lng": 90.1716091}, "viewport": {"northeast": {"lat": 26.2290614802915, "lng": 90.1729893302915}, "southwest": {"lat": 26.2263635197085, "lng": 90.17029136970848}}}, "icon": "https://maps.gstatic.com/mapfiles/place_api/icons/v1/png_71/school-71.png", "icon_background_color": "#7B9EB0", "icon_mask_base_uri": "https://maps.gstatic.com/mapfiles/place_api/icons/v2/school_pinlet", "name": "JHARPARA LP SCHOOL", "opening_hours": {"open_now": true}, "photos": [{"height": 1808, "html_attributions": ["<a href=\"https://maps.google.com/maps/contrib/105715356743159978102\">Soleman Ali</a>"], "photo_reference": "Aap_uEB0oHOK-Au6BqEKgKQb9AfQcFiuNG4Wl0Oava8sQQzVFPE_Oz0XBWJObRVmx0PrOq2OXv126ccozaUhnFfzON9JJxK2G0tcFdJCzX1neyBtfghMFZYx2JcFL9nFTAnlUVt8kRPkyb9WOAaHJ-Zh6iJJusrFhiKIhc42nPAT0s6i8w91", "width": 6576}], "place_id": "ChIJpcIrSopvWDcR3r9Mn5M-CMs", "rating": 4, "reference": "ChIJpcIrSopvWDcR3r9Mn5M-CMs", "scope": "GOOGLE", "types": ["school", "point_of_interest", "establishment"], "user_ratings_total": 1, "vicinity": "65HC+4J5, Boalkamri Pt.I"}, {"business_status": "OPERATIONAL", "geometry": {"location": {"lat": 26.2248841, "lng": 90.15422559999999}, "viewport": {"northeast": {"lat": 26.2262281802915, "lng": 90.15557778029151}, "southwest": {"lat": 26.2235302197085, "lng": 90.15287981970849}}}, "icon": "https://maps.gstatic.com/mapfiles/place_api/icons/v1/png_71/school-71.png", "icon_background_color": "#7B9EB0", "icon_mask_base_uri": "https://maps.gstatic.com/mapfiles/place_api/icons/v2/school_pinlet", "name": "Barkanda Peoples Academy H.S.School Raju Roy", "photos": [{"height": 4160, "html_attributions": ["<a href=\"https://maps.google.com/maps/contrib/114460654002295256339\">Harilal Chowhan</a>"], "photo_reference": "Aap_uEDUHkHXwgbSsm7Abp5CE9x-m_8B1kEQGMrB5QoBELhQfPT-1WOSMfn_rU_tXHcZ-pyJP-LngpPJ6BM8k_89rnEUIPVvM8pC4iFamdPYuELk2JvvTPeYoyiDQQ9C7GCt2Iac3-0SOaoNJN0jVEiyOeKtJqeBYKdUcbxKJhM6X5I9gRfb", "width": 3120}], "place_id": "ChIJxUTY6TZvWDcRJwQbklAux9U", "reference": "ChIJxUTY6TZvWDcRJwQbklAux9U", "scope": "GOOGLE", "types": ["school", "point_of_interest", "establishment"], "vicinity": "65F3+XM5, Fokiranijhar Pt.I"}, {"business_status": "OPERATIONAL", "geometry": {"location": {"lat": 26.2297169, "lng": 90.1700293}, "viewport": {"northeast": {"lat": 26.2308959302915, "lng": 90.1714189802915}, "southwest": {"lat": 26.2281979697085, "lng": 90.1687210197085}}}, "icon": "https://maps.gstatic.com/mapfiles/place_api/icons/v1/png_71/school-71.png", "icon_background_color": "#7B9EB0", "icon_mask_base_uri": "https://maps.gstatic.com/mapfiles/place_api/icons/v2/school_pinlet", "name": "Vidyasagar Adarsha Vidyalaya", "opening_hours": {"open_now": true}, "place_id": "ChIJt4A4hYpvWDcRAMP2dP-EWKY", "rating": 4.5, "reference": "ChIJt4A4hYpvWDcRAMP2dP-EWKY", "scope": "GOOGLE", "types": ["school", "point_of_interest", "establishment"], "user_ratings_total": 2, "vicinity": "65HC+V2J, Boalkamri Pt.I"}, {"business_status": "OPERATIONAL", "geometry": {"location": {"lat": 26.2164842, "lng": 90.1525144}, "viewport": {"northeast": {"lat": 26.2178779802915, "lng": 90.1540753802915}, "southwest": {"lat": 26.21518001970849, "lng": 90.1513774197085}}}, "icon": "https://maps.gstatic.com/mapfiles/place_api/icons/v1/png_71/school-71.png", "icon_background_color": "#7B9EB0", "icon_mask_base_uri": "https://maps.gstatic.com/mapfiles/place_api/icons/v2/school_pinlet", "name": "2268 NO. KALABARI LP SCHOOL", "opening_hours": {"open_now": true}, "photos": [{"height": 3264, "html_attributions": ["<a href=\"https://maps.google.com/maps/contrib/107739821661161209299\">Sudipto Saha</a>"], "photo_reference": "Aap_uEAMrzNOYRwccY_WC2OtqOU8uLPMQHNJkhfqUv0hhvDCwVo6xWFINVthOPnBs8ANzQa7IjtncOjcFAq-hn0x2crd-sAPS7nKkNdNMqhyf1fmXYHKmBSvNixiw38HQ7hMsW7lzQu-8bgfAdBWzBjCjOTovMVIvfLiPM8V3hMTVb5n3o9v", "width": 1504}], "place_id": "ChIJOVs8f-FvWDcREdrkt3c_6EA", "rating": 5, "reference": "ChIJOVs8f-FvWDcREdrkt3c_6EA", "scope": "GOOGLE", "types": ["primary_school", "school", "point_of_interest", "establishment"], "user_ratings_total": 1, "vicinity": "6583+H2R, Bilasipara"}, {"business_status": "OPERATIONAL", "geometry": {"location": {"lat": 26.2289041, "lng": 90.1530097}, "viewport": {"northeast": {"lat": 26.2303334802915, "lng": 90.15404128029151}, "southwest": {"lat": 26.2276355197085, "lng": 90.1513433197085}}}, "icon": "https://maps.gstatic.com/mapfiles/place_api/icons/v1/png_71/school-71.png", "icon_background_color": "#7B9EB0", "icon_mask_base_uri": "https://maps.gstatic.com/mapfiles/place_api/icons/v2/school_pinlet", "name": "Alma bibe", "place_id": "ChIJI-kJixFvWDcRBdplqJdY1PM", "reference": "ChIJI-kJixFvWDcRBdplqJdY1PM", "scope": "GOOGLE", "types": ["school", "point_of_interest", "establishment"], "vicinity": "65H3+H66, Fokiranijhar Pt.II"}], "status": "OK"}