{"html_attributions": [], "results": [{"business_status": "OPERATIONAL", "geometry": {"location": {"lat": 25.9979332, "lng": 90.18158890000001}, "viewport": {"northeast": {"lat": 25.9992220802915, "lng": 90.18296008029151}, "southwest": {"lat": 25.9965241197085, "lng": 90.1802621197085}}}, "icon": "https://maps.gstatic.com/mapfiles/place_api/icons/v1/png_71/school-71.png", "icon_background_color": "#7B9EB0", "icon_mask_base_uri": "https://maps.gstatic.com/mapfiles/place_api/icons/v2/school_pinlet", "name": "Baromaru Phecharjhar L.P.S", "opening_hours": {"open_now": true}, "photos": [{"height": 3000, "html_attributions": ["<a href=\"https://maps.google.com/maps/contrib/111165301528362824900\">Ramen Barman</a>"], "photo_reference": "Aap_uEDqQAuZ_4FheVfIUL9PRVkJL89Y5r6q4giNLB5XwBUixMXAx6_CedBpGNyljF-o3OcMo9WhmMb8CzIWdZR9frq_yuujUrPswumjJCTYbus8_QudTARHAPIvw2WWkZqgSn74ISMfNYn1SdKXWlNahW70LHlllXqO4RVunAa3TtT_MYk", "width": 3000}], "place_id": "ChIJWd5FOvkSWDcR4ODkCBQ08r4", "rating": 5, "reference": "ChIJWd5FOvkSWDcR4ODkCBQ08r4", "scope": "GOOGLE", "types": ["school", "point_of_interest", "establishment"], "user_ratings_total": 1, "vicinity": "X5XJ+5JG, Baromaru, Lakhipur"}, {"business_status": "OPERATIONAL", "geometry": {"location": {"lat": 26.0071114, "lng": 90.1858013}, "viewport": {"northeast": {"lat": 26.0084506802915, "lng": 90.1869967302915}, "southwest": {"lat": 26.0057527197085, "lng": 90.18429876970849}}}, "icon": "https://maps.gstatic.com/mapfiles/place_api/icons/v1/png_71/school-71.png", "icon_background_color": "#7B9EB0", "icon_mask_base_uri": "https://maps.gstatic.com/mapfiles/place_api/icons/v2/school_pinlet", "name": "Chitlang L.P &M.E School", "opening_hours": {"open_now": true}, "place_id": "ChIJc-OAv-ISWDcRrEGKP1ZRUWo", "reference": "ChIJc-OAv-ISWDcRrEGKP1ZRUWo", "scope": "GOOGLE", "types": ["school", "point_of_interest", "establishment"], "vicinity": "254P+R8V, Shialkanda"}, {"business_status": "OPERATIONAL", "geometry": {"location": {"lat": 26.008753, "lng": 90.1840783}, "viewport": {"northeast": {"lat": 26.0100808802915, "lng": 90.18556128029151}, "southwest": {"lat": 26.0073829197085, "lng": 90.1828633197085}}}, "icon": "https://maps.gstatic.com/mapfiles/place_api/icons/v1/png_71/school-71.png", "icon_background_color": "#7B9EB0", "icon_mask_base_uri": "https://maps.gstatic.com/mapfiles/place_api/icons/v2/school_pinlet", "name": "Darul uloom faiz e abrar shialkanda madrasa", "photos": [{"height": 2448, "html_attributions": ["<a href=\"https://maps.google.com/maps/contrib/117046689275994612002\">abdurazzaqueali ahmed</a>"], "photo_reference": "Aap_uECipDDs87B1HZ33QnPq4tjMtx4-FzljCg2mnONphvRehF_dcD2EWvS14R-1q4FRQZGfVNfnPcgCJ9kBd2aSLWw6foM6Ua6BHcZxjGG4mFBOVbl5R1iO-3GfvVUNehFSBHWOZTc0EMsKFuAzO3zNMK9fAmjFNgUVzoZJivnSXz9Vvyu8", "width": 3264}], "place_id": "ChIJsdQt814TWDcRuBPS2tPKG0k", "rating": 3, "reference": "ChIJsdQt814TWDcRuBPS2tPKG0k", "scope": "GOOGLE", "types": ["school", "point_of_interest", "establishment"], "user_ratings_total": 1, "vicinity": "255M+GJ4, Shialkanda"}, {"business_status": "OPERATIONAL", "geometry": {"location": {"lat": 26.0087605, "lng": 90.18462170000001}, "viewport": {"northeast": {"lat": 26.0101452302915, "lng": 90.1858552802915}, "southwest": {"lat": 26.0074472697085, "lng": 90.1831573197085}}}, "icon": "https://maps.gstatic.com/mapfiles/place_api/icons/v1/png_71/school-71.png", "icon_background_color": "#7B9EB0", "icon_mask_base_uri": "https://maps.gstatic.com/mapfiles/place_api/icons/v2/school_pinlet", "name": "Chitlang M.E Maddrasa", "place_id": "ChIJAQAAAOMSWDcR0oeaGqhp3F4", "rating": 5, "reference": "ChIJAQAAAOMSWDcR0oeaGqhp3F4", "scope": "GOOGLE", "types": ["school", "point_of_interest", "establishment"], "user_ratings_total": 1, "vicinity": "255M+GR5, Shialkanda"}, {"business_status": "OPERATIONAL", "geometry": {"location": {"lat": 25.9943756, "lng": 90.1879843}, "viewport": {"northeast": {"lat": 25.99570808029151, "lng": 90.18932763029152}, "southwest": {"lat": 25.9930101197085, "lng": 90.1866296697085}}}, "icon": "https://maps.gstatic.com/mapfiles/place_api/icons/v1/png_71/school-71.png", "icon_background_color": "#7B9EB0", "icon_mask_base_uri": "https://maps.gstatic.com/mapfiles/place_api/icons/v2/school_pinlet", "name": "Marich Bari Lp School", "place_id": "ChIJyySm_TQTWDcRU9mCCnKtoOI", "reference": "ChIJyySm_TQTWDcRU9mCCnKtoOI", "scope": "GOOGLE", "types": ["school", "point_of_interest", "establishment"], "vicinity": "X5VQ+Q55, Gosaidubi Hindupara"}, {"business_status": "OPERATIONAL", "geometry": {"location": {"lat": 25.9914824, "lng": 90.18948929999999}, "viewport": {"northeast": {"lat": 25.9928508802915, "lng": 90.1913766302915}, "southwest": {"lat": 25.9901529197085, "lng": 90.18867866970848}}}, "icon": "https://maps.gstatic.com/mapfiles/place_api/icons/v1/png_71/school-71.png", "icon_background_color": "#7B9EB0", "icon_mask_base_uri": "https://maps.gstatic.com/mapfiles/place_api/icons/v2/school_pinlet", "name": "Marich Bari Lp School", "place_id": "ChIJd6cTqNITWDcRZ1ulUMDXJrc", "reference": "ChIJd6cTqNITWDcRZ1ulUMDXJrc", "scope": "GOOGLE", "types": ["school", "point_of_interest", "establishment"], "vicinity": "X5RQ+HQX, Gosaidubi Muslimpara"}, {"business_status": "OPERATIONAL", "geometry": {"location": {"lat": 25.9946735, "lng": 90.1736734}, "viewport": {"northeast": {"lat": 25.9954439302915, "lng": 90.1744897302915}, "southwest": {"lat": 25.9927459697085, "lng": 90.17179176970849}}}, "icon": "https://maps.gstatic.com/mapfiles/place_api/icons/v1/png_71/school-71.png", "icon_background_color": "#7B9EB0", "icon_mask_base_uri": "https://maps.gstatic.com/mapfiles/place_api/icons/v2/school_pinlet", "name": "Janakalyan M.E. School", "photos": [{"height": 1080, "html_attributions": ["<a href=\"https://maps.google.com/maps/contrib/115726870253912566370\">Being Aftabul Jia</a>"], "photo_reference": "Aap_uEBeOWhrz0qUI89zIdtZthpFF78hGjd73S1VJAO-mejoGSSZyo7rveTTtG2MWy3795lGxUBybXzAx9d9GQn58w8qb1xE86lZtvtrB9XmInGE8NfZBEIZTMUE3LnrdUriO_-efGime1WP9NYYVw7Z0i-iM-nSf5ABAPgJ8gEnK1A66Okv", "width": 1920}], "place_id": "ChIJZcU7_AkTWDcRY3BAzwFk_LU", "plus_code": {"compound_code": "X5VF+VF Haruaphuta, Assam, India", "global_code": "7MQGX5VF+VF"}, "rating": 5, "reference": "ChIJZcU7_AkTWDcRY3BAzwFk_LU", "scope": "GOOGLE", "types": ["school", "point_of_interest", "establishment"], "user_ratings_total": 1, "vicinity": "Dhumerghat Jinjiram wooden river bridge, Dhumerghat-Baunury Road, Haruaphuta"}, {"business_status": "OPERATIONAL", "geometry": {"location": {"lat": 25.9945557, "lng": 90.17361439999999}, "viewport": {"northeast": {"lat": 25.9953740802915, "lng": 90.1744748802915}, "southwest": {"lat": 25.9926761197085, "lng": 90.17177691970849}}}, "icon": "https://maps.gstatic.com/mapfiles/place_api/icons/v1/png_71/school-71.png", "icon_background_color": "#7B9EB0", "icon_mask_base_uri": "https://maps.gstatic.com/mapfiles/place_api/icons/v2/school_pinlet", "name": "JANAKALYAN M.E. SCHOOL (DINGDINGA P.T- 2)", "opening_hours": {"open_now": true}, "photos": [{"height": 1080, "html_attributions": ["<a href=\"https://maps.google.com/maps/contrib/115726870253912566370\">Being Aftabul Jia</a>"], "photo_reference": "Aap_uEBC8u5Juen_oKZcSbLFyhJ0OWJ3YXafVQtIX7VdRrh7Xiaq3pTD8psQVEi8pWFj5gapa3XAqWKvXos7fXWIOhy6-lAOmY8gREsMfZ65hw-_Rvy1dV6ocHG5gqKXQApuMCr1vPJGYEgy5xtg1X1UOZenSn8m_WGPGGN-XGryI513rtme", "width": 1920}], "place_id": "ChIJf2iwVY4TWDcRACndt05Ak6w", "plus_code": {"compound_code": "X5VF+RC Haruaphuta, Assam, India", "global_code": "7MQGX5VF+RC"}, "rating": 5, "reference": "ChIJf2iwVY4TWDcRACndt05Ak6w", "scope": "GOOGLE", "types": ["school", "point_of_interest", "establishment"], "user_ratings_total": 4, "vicinity": "Dhumerghat Jinjiram wooden river bridge, Dhumerghat-Baunury Road, Haruaphuta"}], "status": "OK"}