{"html_attributions": [], "results": [{"business_status": "OPERATIONAL", "geometry": {"location": {"lat": 26.3277589, "lng": 90.19867980000001}, "viewport": {"northeast": {"lat": 26.3291153302915, "lng": 90.2000290802915}, "southwest": {"lat": 26.3264173697085, "lng": 90.1973311197085}}}, "icon": "https://maps.gstatic.com/mapfiles/place_api/icons/v1/png_71/school-71.png", "icon_background_color": "#7B9EB0", "icon_mask_base_uri": "https://maps.gstatic.com/mapfiles/place_api/icons/v2/school_pinlet", "name": "Ghun Ghuni Khata Pt.I", "place_id": "ChIJ48ONGw5jWDcRw7TusbLcRsU", "plus_code": {"compound_code": "85HX+4F Ghughunikhata Pt.I, Assam, India", "global_code": "7MRG85HX+4F"}, "rating": 5, "reference": "ChIJ48ONGw5jWDcRw7TusbLcRsU", "scope": "GOOGLE", "types": ["school", "point_of_interest", "establishment"], "user_ratings_total": 1, "vicinity": "Ghun Ghuni Khata Pt.I"}, {"business_status": "OPERATIONAL", "geometry": {"location": {"lat": 26.327066, "lng": 90.19689629999999}, "viewport": {"northeast": {"lat": 26.3283614302915, "lng": 90.19850483029151}, "southwest": {"lat": 26.32566346970849, "lng": 90.1958068697085}}}, "icon": "https://maps.gstatic.com/mapfiles/place_api/icons/v1/png_71/school-71.png", "icon_background_color": "#7B9EB0", "icon_mask_base_uri": "https://maps.gstatic.com/mapfiles/place_api/icons/v2/school_pinlet", "name": "Ghunghunikhata L.P School", "place_id": "ChIJozGueohjWDcRkCbmyWChULk", "rating": 5, "reference": "ChIJozGueohjWDcRkCbmyWChULk", "scope": "GOOGLE", "types": ["school", "point_of_interest", "establishment"], "user_ratings_total": 1, "vicinity": "85GW+RQC, Ghughunikhata Pt.I"}, {"business_status": "OPERATIONAL", "geometry": {"location": {"lat": 26.3279624, "lng": 90.2115723}, "viewport": {"northeast": {"lat": 26.3293751802915, "lng": 90.2129339302915}, "southwest": {"lat": 26.3266772197085, "lng": 90.21023596970849}}}, "icon": "https://maps.gstatic.com/mapfiles/place_api/icons/v1/png_71/school-71.png", "icon_background_color": "#7B9EB0", "icon_mask_base_uri": "https://maps.gstatic.com/mapfiles/place_api/icons/v2/school_pinlet", "name": "FUTKIBARI HIGH SCHOOL", "photos": [{"height": 1836, "html_attributions": ["<a href=\"https://maps.google.com/maps/contrib/109893447453056057752\">Pranjal Roy</a>"], "photo_reference": "Aap_uECN69r7Uax7ZgnZgt13Z8A6OzR50-O_-A3sM2lbo9UTZ1QPu5dAyQJVTHfZGoHDsXlOwpU4YhfgxiKJaqMtaMdcn8So-HH4aOmpkZ5VsCZV9FSDQg-1UnNx93jMYWh-Nfgx8mxQUGvE5yi2M451lFRIoqIeo2ECvVINSVX2vNiL9wRk", "width": 3264}], "place_id": "ChIJ3dHS9PZjWDcRpbfD1xN02LQ", "rating": 5, "reference": "ChIJ3dHS9PZjWDcRpbfD1xN02LQ", "scope": "GOOGLE", "types": ["school", "point_of_interest", "establishment"], "user_ratings_total": 1, "vicinity": "86H6+5JP, Ghughunikhata Pt.I"}, {"business_status": "OPERATIONAL", "geometry": {"location": {"lat": 26.3281733, "lng": 90.2116803}, "viewport": {"northeast": {"lat": 26.3294832802915, "lng": 90.2130320302915}, "southwest": {"lat": 26.3267853197085, "lng": 90.2103340697085}}}, "icon": "https://maps.gstatic.com/mapfiles/place_api/icons/v1/png_71/school-71.png", "icon_background_color": "#7B9EB0", "icon_mask_base_uri": "https://maps.gstatic.com/mapfiles/place_api/icons/v2/school_pinlet", "name": "Futkibari M.E School", "place_id": "ChIJrx9u8_ZjWDcRo1USdX3fnr8", "reference": "ChIJrx9u8_ZjWDcRo1USdX3fnr8", "scope": "GOOGLE", "types": ["school", "point_of_interest", "establishment"], "vicinity": "86H6+7M7, Gaurangtari Pt.I"}, {"business_status": "OPERATIONAL", "geometry": {"location": {"lat": 26.3256043, "lng": 90.21377059999999}, "viewport": {"northeast": {"lat": 26.32689888029151, "lng": 90.2149790802915}, "southwest": {"lat": 26.3242009197085, "lng": 90.21228111970849}}}, "icon": "https://maps.gstatic.com/mapfiles/place_api/icons/v1/png_71/school-71.png", "icon_background_color": "#7B9EB0", "icon_mask_base_uri": "https://maps.gstatic.com/mapfiles/place_api/icons/v2/school_pinlet", "name": "Bakuwabhangi L P School", "place_id": "ChIJLXfVwvdjWDcRdxKxRRO8KJw", "rating": 5, "reference": "ChIJLXfVwvdjWDcRdxKxRRO8KJw", "scope": "GOOGLE", "types": ["school", "point_of_interest", "establishment"], "user_ratings_total": 1, "vicinity": "86G7+6GR, Gaurangtari Pt.I"}, {"business_status": "OPERATIONAL", "geometry": {"location": {"lat": 26.3258048, "lng": 90.2138317}, "viewport": {"northeast": {"lat": 26.32707363029151, "lng": 90.21497373029152}, "southwest": {"lat": 26.3243756697085, "lng": 90.21227576970851}}}, "icon": "https://maps.gstatic.com/mapfiles/place_api/icons/v1/png_71/school-71.png", "icon_background_color": "#7B9EB0", "icon_mask_base_uri": "https://maps.gstatic.com/mapfiles/place_api/icons/v2/school_pinlet", "name": "32 No Futkibari LP School", "place_id": "ChIJcXQ_wvdjWDcR0NVqxDYcYw0", "reference": "ChIJcXQ_wvdjWDcR0NVqxDYcYw0", "scope": "GOOGLE", "types": ["school", "point_of_interest", "establishment"], "vicinity": "86G7+8GG, Gaurangtari Pt.I"}, {"business_status": "OPERATIONAL", "geometry": {"location": {"lat": 26.3285772, "lng": 90.2118845}, "viewport": {"northeast": {"lat": 26.3299523302915, "lng": 90.2132985302915}, "southwest": {"lat": 26.32725436970849, "lng": 90.21060056970848}}}, "icon": "https://maps.gstatic.com/mapfiles/place_api/icons/v1/png_71/school-71.png", "icon_background_color": "#7B9EB0", "icon_mask_base_uri": "https://maps.gstatic.com/mapfiles/place_api/icons/v2/school_pinlet", "name": "Nobi hometown", "place_id": "ChIJuxN_xZNjWDcRAOuoXvvuGkM", "plus_code": {"compound_code": "86H6+CQ Gaurangtari Pt.I, Assam, India", "global_code": "7MRG86H6+CQ"}, "reference": "ChIJuxN_xZNjWDcRAOuoXvvuGkM", "scope": "GOOGLE", "types": ["school", "point_of_interest", "establishment"], "vicinity": "Beltoli-Serfangguri Road, Gaurangtari Pt.I"}, {"business_status": "OPERATIONAL", "geometry": {"location": {"lat": 26.3329244, "lng": 90.2084737}, "viewport": {"northeast": {"lat": 26.3343672302915, "lng": 90.20997563029151}, "southwest": {"lat": 26.3316692697085, "lng": 90.20727766970849}}}, "icon": "https://maps.gstatic.com/mapfiles/place_api/icons/v1/png_71/school-71.png", "icon_background_color": "#7B9EB0", "icon_mask_base_uri": "https://maps.gstatic.com/mapfiles/place_api/icons/v2/school_pinlet", "name": "FUTKIBARI JATIYA VIDYALAYA", "photos": [{"height": 3096, "html_attributions": ["<a href=\"https://maps.google.com/maps/contrib/109893447453056057752\">Pranjal Roy</a>"], "photo_reference": "Aap_uEBk6Toi-NOSglvsxMpVZMUGiuQdvg--ib94-TX6-swTGPQxo9KxTpKK1ZIlFW0qQdlYH_hsBAgb4n_aIYFUmjhQZDOcoF9ke-fP9VYUQH8C9CB6u1DKEbBA-Yze6JKLiPRXMg9uK3aL6opVbgPlzKQIhPlSmiaI-fKJE_C4jnvYRog3", "width": 4128}], "place_id": "ChIJJS58r_NjWDcRkeJzo1Hf1QE", "rating": 5, "reference": "ChIJJS58r_NjWDcRkeJzo1Hf1QE", "scope": "GOOGLE", "types": ["school", "point_of_interest", "establishment"], "user_ratings_total": 2, "vicinity": "86M5+599, Ghughunikhata Pt.I"}, {"business_status": "OPERATIONAL", "geometry": {"location": {"lat": 26.3178715, "lng": 90.2169565}, "viewport": {"northeast": {"lat": 26.3192489802915, "lng": 90.2183792302915}, "southwest": {"lat": 26.31655101970849, "lng": 90.2156812697085}}}, "icon": "https://maps.gstatic.com/mapfiles/place_api/icons/v1/png_71/school-71.png", "icon_background_color": "#7B9EB0", "icon_mask_base_uri": "https://maps.gstatic.com/mapfiles/place_api/icons/v2/school_pinlet", "name": "Hazare Para L P School", "place_id": "ChIJBcYDsZplWDcRpq7S_kSHM9I", "reference": "ChIJBcYDsZplWDcRpq7S_kSHM9I", "scope": "GOOGLE", "types": ["school", "point_of_interest", "establishment"], "vicinity": "8698+4QW, Bakuabhangi"}], "status": "OK"}