{"html_attributions": [], "results": [{"business_status": "OPERATIONAL", "geometry": {"location": {"lat": 25.9672727, "lng": 90.22248789999999}, "viewport": {"northeast": {"lat": 25.9686265302915, "lng": 90.2238275302915}, "southwest": {"lat": 25.9659285697085, "lng": 90.2211295697085}}}, "icon": "https://maps.gstatic.com/mapfiles/place_api/icons/v1/png_71/school-71.png", "icon_background_color": "#7B9EB0", "icon_mask_base_uri": "https://maps.gstatic.com/mapfiles/place_api/icons/v2/school_pinlet", "name": "\u099a\u09c1\u0987\u09ac\u09be\u09b0\u09bf", "place_id": "ChIJYc_5DiMTWDcRSHJOlsr77LM", "reference": "ChIJYc_5DiMTWDcRSHJOlsr77LM", "scope": "GOOGLE", "types": ["school", "point_of_interest", "establishment"], "vicinity": "X68C+WX5, Chaibari"}, {"business_status": "OPERATIONAL", "geometry": {"location": {"lat": 25.957424, "lng": 90.22748800000001}, "viewport": {"northeast": {"lat": 25.9584946802915, "lng": 90.22890058029151}, "southwest": {"lat": 25.9557967197085, "lng": 90.2262026197085}}}, "icon": "https://maps.gstatic.com/mapfiles/place_api/icons/v1/png_71/school-71.png", "icon_background_color": "#7B9EB0", "icon_mask_base_uri": "https://maps.gstatic.com/mapfiles/place_api/icons/v2/school_pinlet", "name": "Kulamua Lp School", "photos": [{"height": 864, "html_attributions": ["<a href=\"https://maps.google.com/maps/contrib/115140050865073988492\">Nizam baharul Islam</a>"], "photo_reference": "Aap_uECQzt6hjeokL9dV3XW0JOXAxVwAVRs-0cQKyI30vdLuM8KDIRzZWfmhH4aHRd7uJi1uHUILeCauhiEShI1Xt5NDcFVHxWbjAp4PP5ce5wQ54FfgzGjtKujQFZJccseZ57hQ-pPzfigJLO32tEfjE-4OPG7Zx91MvMTo6yGBN3CUsuf1", "width": 1152}], "place_id": "ChIJVTE_OgYUWDcRCBjt4mV0jjQ", "rating": 5, "reference": "ChIJVTE_OgYUWDcRCBjt4mV0jjQ", "scope": "GOOGLE", "types": ["school", "point_of_interest", "establishment"], "user_ratings_total": 1, "vicinity": "X64G+XX9, Nalbari"}, {"business_status": "OPERATIONAL", "geometry": {"location": {"lat": 25.9592484, "lng": 90.21394169999999}, "viewport": {"northeast": {"lat": 25.9605889802915, "lng": 90.2155807302915}, "southwest": {"lat": 25.9578910197085, "lng": 90.21288276970849}}}, "icon": "https://maps.gstatic.com/mapfiles/place_api/icons/v1/png_71/school-71.png", "icon_background_color": "#7B9EB0", "icon_mask_base_uri": "https://maps.gstatic.com/mapfiles/place_api/icons/v2/school_pinlet", "name": "Nayapara L.P School", "photos": [{"height": 3120, "html_attributions": ["<a href=\"https://maps.google.com/maps/contrib/109825637392752085377\">Game Engine</a>"], "photo_reference": "Aap_uEC3pgSathwNJaj38tisawKNxVom8Q4togPCkHklElvagF-55sleUCUqomh9-KiAWYj8X88pTj6zI9XH-ZYxoUet-apziDX1NU_t2ZiUnulqDiQRukt1W3zp4HHKckDiosQQrGSTBL4t3AydScIFjpgikyRewGUtcciQKX95V9Am-81Y", "width": 4160}], "place_id": "ChIJXYgKCNYTWDcRXGiI3Hya3Aw", "plus_code": {"compound_code": "X657+MH Gumaijhar, Assam, India", "global_code": "7MQGX657+MH"}, "reference": "ChIJXYgKCNYTWDcRXGiI3Hya3Aw", "scope": "GOOGLE", "types": ["school", "point_of_interest", "establishment"], "vicinity": "Gumaijhar"}, {"business_status": "OPERATIONAL", "geometry": {"location": {"lat": 25.9602914, "lng": 90.2114764}, "viewport": {"northeast": {"lat": 25.9616183302915, "lng": 90.21272333029151}, "southwest": {"lat": 25.9589203697085, "lng": 90.2100253697085}}}, "icon": "https://maps.gstatic.com/mapfiles/place_api/icons/v1/png_71/school-71.png", "icon_background_color": "#7B9EB0", "icon_mask_base_uri": "https://maps.gstatic.com/mapfiles/place_api/icons/v2/school_pinlet", "name": "Abdul Motaleb", "place_id": "ChIJNVPqpsQTWDcRe0ptQ_J_LAY", "plus_code": {"compound_code": "X666+4H Holdibari Pt-II, Assam, India", "global_code": "7MQGX666+4H"}, "reference": "ChIJNVPqpsQTWDcRe0ptQ_J_LAY", "scope": "GOOGLE", "types": ["school", "point_of_interest", "establishment"], "vicinity": "Chataimari crusher"}, {"business_status": "OPERATIONAL", "geometry": {"location": {"lat": 25.95852, "lng": 90.210957}, "viewport": {"northeast": {"lat": 25.95992793029151, "lng": 90.2121911802915}, "southwest": {"lat": 25.9572299697085, "lng": 90.20949321970849}}}, "icon": "https://maps.gstatic.com/mapfiles/place_api/icons/v1/png_71/school-71.png", "icon_background_color": "#7B9EB0", "icon_mask_base_uri": "https://maps.gstatic.com/mapfiles/place_api/icons/v2/school_pinlet", "name": "NurAlomj", "photos": [{"height": 1144, "html_attributions": ["<a href=\"https://maps.google.com/maps/contrib/108065769176617167736\">N CERATIONE</a>"], "photo_reference": "Aap_uECTY3htvGRAnnhXj-XFpuKVchnHGoEJSmhJ50wlCgj7HL8MCHC5sL_r68KH4rJWWwzeli4V0aF9xveCQlVlEI3G0jfZFod3ZeVNnpFdnA1EAgrjqHMoXqUHv0Y_IkNFNdKrME1nHYb-v3vYEvXtWtIY-RPddDO8A0feIb05z5ikBDp3", "width": 800}], "place_id": "ChIJUyo1dY0TWDcRhhkCkqx3Q-Y", "plus_code": {"compound_code": "X656+C9 Tikrikilla, Meghalaya, India", "global_code": "7MQGX656+C9"}, "rating": 5, "reference": "ChIJUyo1dY0TWDcRhhkCkqx3Q-Y", "scope": "GOOGLE", "types": ["school", "point_of_interest", "establishment"], "user_ratings_total": 1, "vicinity": "Porabhita Tikrikilla PWD Road, Tikrikilla"}, {"business_status": "OPERATIONAL", "geometry": {"location": {"lat": 25.9637938, "lng": 90.2104538}, "viewport": {"northeast": {"lat": 25.96513043029151, "lng": 90.21170053029151}, "southwest": {"lat": 25.9624324697085, "lng": 90.2090025697085}}}, "icon": "https://maps.gstatic.com/mapfiles/place_api/icons/v1/png_71/school-71.png", "icon_background_color": "#7B9EB0", "icon_mask_base_uri": "https://maps.gstatic.com/mapfiles/place_api/icons/v2/school_pinlet", "name": "chataimari MEM", "place_id": "ChIJrWIjre4TWDcR3FlCIDteTao", "plus_code": {"compound_code": "X676+G5 Kaimari, Assam, India", "global_code": "7MQGX676+G5"}, "reference": "ChIJrWIjre4TWDcR3FlCIDteTao", "scope": "GOOGLE", "types": ["school", "point_of_interest", "establishment"], "vicinity": "Chataimari"}], "status": "OK"}