{"html_attributions": [], "results": [{"business_status": "OPERATIONAL", "geometry": {"location": {"lat": 26.2683583, "lng": 89.7500718}, "viewport": {"northeast": {"lat": 26.2696459802915, "lng": 89.75146843029151}, "southwest": {"lat": 26.2669480197085, "lng": 89.7487704697085}}}, "icon": "https://maps.gstatic.com/mapfiles/place_api/icons/v1/png_71/school-71.png", "icon_background_color": "#7B9EB0", "icon_mask_base_uri": "https://maps.gstatic.com/mapfiles/place_api/icons/v2/school_pinlet", "name": "POKALAGI GONESHER DHAM SCHOOL", "photos": [{"height": 3264, "html_attributions": ["<a href=\"https://maps.google.com/maps/contrib/113004287056277030228\">SAHIDUL HAQUE</a>"], "photo_reference": "Aap_uEDQwnBJLNrELUwtiUAELr2MvDuzpXh9he9IkqryojlOKLJBzH_ExgJUvt-kDUk4VUUVBi-855g3rwFSBESAW-oYgW2AwTb1kXYOX-TPCGKlaiRFWZXUDHx1hWemY3C_PLeJiiq6GBVvc5Hz18BY42FUEOQwtko3SAlnUb1gFfQJk1M0", "width": 2448}], "place_id": "ChIJqxWy23iN4jkRQettTe4J9ww", "reference": "ChIJqxWy23iN4jkRQettTe4J9ww", "scope": "GOOGLE", "types": ["school", "point_of_interest", "establishment"], "vicinity": "7Q92+82W, Pokalagi Pt.V"}, {"business_status": "OPERATIONAL", "geometry": {"location": {"lat": 26.2567444, "lng": 89.7516244}, "viewport": {"northeast": {"lat": 26.2580321302915, "lng": 89.7529493802915}, "southwest": {"lat": 26.25533416970849, "lng": 89.75025141970849}}}, "icon": "https://maps.gstatic.com/mapfiles/place_api/icons/v1/png_71/school-71.png", "icon_background_color": "#7B9EB0", "icon_mask_base_uri": "https://maps.gstatic.com/mapfiles/place_api/icons/v2/school_pinlet", "name": "47No Dighaltari L.P School", "place_id": "ChIJE3eCzReN4jkRALLIxp3qjS4", "plus_code": {"compound_code": "7Q42+MJ Kherbari Pt.II, Assam, India", "global_code": "7MRF7Q42+MJ"}, "rating": 5, "reference": "ChIJE3eCzReN4jkRALLIxp3qjS4", "scope": "GOOGLE", "types": ["primary_school", "school", "point_of_interest", "establishment"], "user_ratings_total": 1, "vicinity": "Halakura-Pokalagi-Kherbari Road, Kherbari Pt.II"}, {"business_status": "OPERATIONAL", "geometry": {"location": {"lat": 26.2669176, "lng": 89.7336184}, "viewport": {"northeast": {"lat": 26.2682300802915, "lng": 89.7349722302915}, "southwest": {"lat": 26.2655321197085, "lng": 89.7322742697085}}}, "icon": "https://maps.gstatic.com/mapfiles/place_api/icons/v1/png_71/school-71.png", "icon_background_color": "#7B9EB0", "icon_mask_base_uri": "https://maps.gstatic.com/mapfiles/place_api/icons/v2/school_pinlet", "name": "Mansai 2 no. AP School", "opening_hours": {"open_now": true}, "photos": [{"height": 3000, "html_attributions": ["<a href=\"https://maps.google.com/maps/contrib/113428025130559140946\">INFmystic</a>"], "photo_reference": "Aap_uEDTkawWRCY-pb268QyUA4XDwbj5uEbkPpXD9pitqv5xWr_mhTrleuhexT1k79oH4drvR06UU4DRHQUm4w6mTEqM_lwXJrgBOMO7EhqS2UWFtkdtrx9pce_8OAWKWwVTrju9aroAkSPrcrkY6281ac9xv7CgFGjVUmbFSyieddBlHBUV", "width": 4000}], "place_id": "ChIJ5Vl4OHmN4jkRCHvTMTzlKa0", "plus_code": {"compound_code": "7P8M+QC Pokalagi Pt.IV, Assam, India", "global_code": "7MRF7P8M+QC"}, "reference": "ChIJ5Vl4OHmN4jkRCHvTMTzlKa0", "scope": "GOOGLE", "types": ["primary_school", "school", "point_of_interest", "establishment"], "vicinity": "Halakura-Pokalagi-Kherbari Road, Pokalagi Pt.IV"}, {"business_status": "OPERATIONAL", "geometry": {"location": {"lat": 26.2524196, "lng": 89.7504976}, "viewport": {"northeast": {"lat": 26.25629005, "lng": 89.7518747302915}, "southwest": {"lat": 26.25112945, "lng": 89.7491767697085}}}, "icon": "https://maps.gstatic.com/mapfiles/place_api/icons/v1/png_71/school-71.png", "icon_background_color": "#7B9EB0", "icon_mask_base_uri": "https://maps.gstatic.com/mapfiles/place_api/icons/v2/school_pinlet", "name": "Jagmohan M.E School", "photos": [{"height": 2256, "html_attributions": ["<a href=\"https://maps.google.com/maps/contrib/115274541095661116874\">Kushal Barman</a>"], "photo_reference": "Aap_uEBiHSsJTmHhe6zs0Aa4ezvKWKqBuw0RqntqRMkDdgU3fn6v_fxfGC-Z4NGZgAXl09W_4n9ExLimmxrJc1kSeewAzfKC9idBGDD4BUgwMAcvprA1YEQ6M1E9rac3fXn_HNs93jwuD_JU_WdllwqyB1Rve0_dbyeBP9e4DBBH2os9BwYj", "width": 4000}], "place_id": "ChIJTV1K_YqN4jkRmzIB_5hJ8Dg", "rating": 5, "reference": "ChIJTV1K_YqN4jkRmzIB_5hJ8Dg", "scope": "GOOGLE", "types": ["secondary_school", "school", "point_of_interest", "establishment"], "user_ratings_total": 1, "vicinity": "7Q22+X59, Kherbari Pt.II"}], "status": "OK"}