{"html_attributions": [], "results": [{"business_status": "OPERATIONAL", "geometry": {"location": {"lat": 26.3615301, "lng": 90.2193226}, "viewport": {"northeast": {"lat": 26.36279613029151, "lng": 90.2207265302915}, "southwest": {"lat": 26.3600981697085, "lng": 90.21802856970848}}}, "icon": "https://maps.gstatic.com/mapfiles/place_api/icons/v1/png_71/school-71.png", "icon_background_color": "#7B9EB0", "icon_mask_base_uri": "https://maps.gstatic.com/mapfiles/place_api/icons/v2/school_pinlet", "name": "\u09ee\u09ef\u09eb \u09a8\u0982 \u09aa\u09cd\u09f0\u09be\u09a5\u09ae\u09bf\u0995 \u09ac\u09bf\u09a6\u09cd\u09af\u09be\u09b2\u09af\u09bc", "place_id": "ChIJuyS7XSdjWDcRdruiER7hsY8", "plus_code": {"compound_code": "9669+JP Paroura, Assam, India", "global_code": "7MRG9669+JP"}, "reference": "ChIJuyS7XSdjWDcRdruiER7hsY8", "scope": "GOOGLE", "types": ["school", "point_of_interest", "establishment"], "vicinity": "Unnamed Road, Paroura"}, {"business_status": "OPERATIONAL", "geometry": {"location": {"lat": 26.3597714, "lng": 90.2199851}, "viewport": {"northeast": {"lat": 26.3610548802915, "lng": 90.22119938029151}, "southwest": {"lat": 26.3583569197085, "lng": 90.2185014197085}}}, "icon": "https://maps.gstatic.com/mapfiles/place_api/icons/v1/png_71/school-71.png", "icon_background_color": "#7B9EB0", "icon_mask_base_uri": "https://maps.gstatic.com/mapfiles/place_api/icons/v2/school_pinlet", "name": "895 No Paroura LP School", "photos": [{"height": 491, "html_attributions": ["<a href=\"https://maps.google.com/maps/contrib/108733271838496731764\">Abu Aktar</a>"], "photo_reference": "Aap_uECYAw71TUpAP-lASKnN11y2msFuTlCGDsLA_k0Pm5eQvh8xkyIXw653cKs8H_SN3zRu8rYz_jw5VFQVp_FLn0x7jnbRevP9s7z5IPbAGfMyRgZdmw9krrbx6Lj7BLDnbmBNXIYBY2fjs4Ae3T_nXM6g0oj_5va-qHTMQgnZadh9-KFZ", "width": 480}], "place_id": "ChIJiVyIJM9jWDcRGFyaEU9yrDg", "plus_code": {"compound_code": "9659+WX Paroura, Assam, India", "global_code": "7MRG9659+WX"}, "reference": "ChIJiVyIJM9jWDcRGFyaEU9yrDg", "scope": "GOOGLE", "types": ["school", "point_of_interest", "establishment"], "vicinity": "Muslim Para pt=2, Paroura"}, {"business_status": "OPERATIONAL", "geometry": {"location": {"lat": 26.3578377, "lng": 90.2172539}, "viewport": {"northeast": {"lat": 26.3592350302915, "lng": 90.2186298802915}, "southwest": {"lat": 26.35653706970849, "lng": 90.2159319197085}}}, "icon": "https://maps.gstatic.com/mapfiles/place_api/icons/v1/png_71/school-71.png", "icon_background_color": "#7B9EB0", "icon_mask_base_uri": "https://maps.gstatic.com/mapfiles/place_api/icons/v2/school_pinlet", "name": "\u0985\u0999\u09cd\u0997\u09a8\u09be\u09f1\u09be\u09a6\u09bf \u0995\u09c7\u09a8\u09cd\u09a6\u09cd\u09f0", "place_id": "ChIJY82HWCZjWDcRIyOnxQIF_s4", "reference": "ChIJY82HWCZjWDcRIyOnxQIF_s4", "scope": "GOOGLE", "types": ["school", "point_of_interest", "establishment"], "vicinity": "9658+4WJ, Paroura"}, {"business_status": "OPERATIONAL", "geometry": {"location": {"lat": 26.3574189, "lng": 90.2364951}, "viewport": {"northeast": {"lat": 26.3587678802915, "lng": 90.23780083029149}, "southwest": {"lat": 26.3560699197085, "lng": 90.23510286970848}}}, "icon": "https://maps.gstatic.com/mapfiles/place_api/icons/v1/png_71/school-71.png", "icon_background_color": "#7B9EB0", "icon_mask_base_uri": "https://maps.gstatic.com/mapfiles/place_api/icons/v2/school_pinlet", "name": "Crpf 129 HQ", "photos": [{"height": 3268, "html_attributions": ["<a href=\"https://maps.google.com/maps/contrib/118070484047686903878\">Suresh Lakshmipathy</a>"], "photo_reference": "Aap_uEA1BOhxxFtIGUAP2Ne4V2wrmYSId9fy4BJJDP_VBYDfBV-3kJIyFgUI-wvkFy5ApZeZnCtlRp5yX7qchdCb5WT_rQPJgYeRUn6E_NWxoTRjIsJWXuu784mDAF-kaQ2Oe4dMbsja7pi8V1YifmKnnYWN4E1YBPzqwhZf2pMYmHV2oRPq", "width": 4895}], "place_id": "ChIJm6eBVm5hWDcRPrfCBGcFx1c", "rating": 4.3, "reference": "ChIJm6eBVm5hWDcRPrfCBGcFx1c", "scope": "GOOGLE", "types": ["school", "point_of_interest", "establishment"], "user_ratings_total": 4, "vicinity": "964P+XH9, Paroura"}], "status": "OK"}