{"html_attributions": [], "results": [{"business_status": "OPERATIONAL", "geometry": {"location": {"lat": 26.3338389, "lng": 90.2459557}, "viewport": {"northeast": {"lat": 26.3351925302915, "lng": 90.2472246302915}, "southwest": {"lat": 26.3324945697085, "lng": 90.24452666970849}}}, "icon": "https://maps.gstatic.com/mapfiles/place_api/icons/v1/png_71/school-71.png", "icon_background_color": "#7B9EB0", "icon_mask_base_uri": "https://maps.gstatic.com/mapfiles/place_api/icons/v2/school_pinlet", "name": "Tilapara ME School", "place_id": "ChIJKencAzdhWDcR-nPUcRtVIXY", "rating": 4.5, "reference": "ChIJKencAzdhWDcR-nPUcRtVIXY", "scope": "GOOGLE", "types": ["school", "point_of_interest", "establishment"], "user_ratings_total": 2, "vicinity": "86MW+G9P, Mahajanpara"}, {"business_status": "OPERATIONAL", "geometry": {"location": {"lat": 26.3333156, "lng": 90.2421632}, "viewport": {"northeast": {"lat": 26.33455003029151, "lng": 90.24350923029151}, "southwest": {"lat": 26.3318520697085, "lng": 90.2408112697085}}}, "icon": "https://maps.gstatic.com/mapfiles/place_api/icons/v1/png_71/school-71.png", "icon_background_color": "#7B9EB0", "icon_mask_base_uri": "https://maps.gstatic.com/mapfiles/place_api/icons/v2/school_pinlet", "name": "Tilapara ME School", "photos": [{"height": 4160, "html_attributions": ["<a href=\"https://maps.google.com/maps/contrib/100473687785937829617\">ABDUL MAZID</a>"], "photo_reference": "Aap_uEDqqkn7GIRLWy9harKG_yKzC58BX3M54EcU2nMg9Jwfw0WV8oRZKD8rYPAAiQJiHyvZ1JiUGvD_Y6a-NFS9EBA1VRgt0G7sAsVL85xXhdKI7uyH6rWSK4kbWDC3cXp1ZbhS2WX65uwzihuoa6GNwWVHi0h-5n2JaODxG2XBXr08WU1x", "width": 1968}], "place_id": "ChIJhd1j6MJhWDcRt3oRhNS_CNQ", "reference": "ChIJhd1j6MJhWDcRt3oRhNS_CNQ", "scope": "GOOGLE", "types": ["primary_school", "school", "point_of_interest", "establishment"], "vicinity": "86MR+8VF, Mahajanpara"}, {"business_status": "OPERATIONAL", "geometry": {"location": {"lat": 26.3473853, "lng": 90.2536578}, "viewport": {"northeast": {"lat": 26.3487171302915, "lng": 90.2551271802915}, "southwest": {"lat": 26.3460191697085, "lng": 90.25242921970849}}}, "icon": "https://maps.gstatic.com/mapfiles/place_api/icons/v1/png_71/school-71.png", "icon_background_color": "#7B9EB0", "icon_mask_base_uri": "https://maps.gstatic.com/mapfiles/place_api/icons/v2/school_pinlet", "name": "Thanadarpara L.P School", "place_id": "ChIJKWU_RFthWDcR0f8UbVajioA", "reference": "ChIJKWU_RFthWDcR0f8UbVajioA", "scope": "GOOGLE", "types": ["school", "point_of_interest", "establishment"], "vicinity": "87W3+XF3, Thanadar Para"}, {"business_status": "OPERATIONAL", "geometry": {"location": {"lat": 26.3527788, "lng": 90.2444038}, "viewport": {"northeast": {"lat": 26.3536443302915, "lng": 90.24529465}, "southwest": {"lat": 26.35094636970849, "lng": 90.24173124999999}}}, "icon": "https://maps.gstatic.com/mapfiles/place_api/icons/v1/png_71/school-71.png", "icon_background_color": "#7B9EB0", "icon_mask_base_uri": "https://maps.gstatic.com/mapfiles/place_api/icons/v2/school_pinlet", "name": "Sopkul", "place_id": "ChIJSwCNCAVhWDcReiCd8KeZYEs", "reference": "ChIJSwCNCAVhWDcReiCd8KeZYEs", "scope": "GOOGLE", "types": ["school", "point_of_interest", "establishment"], "vicinity": "963V+4Q6, Kashipara"}, {"business_status": "OPERATIONAL", "geometry": {"location": {"lat": 26.3471284, "lng": 90.23279699999999}, "viewport": {"northeast": {"lat": 26.3484069802915, "lng": 90.2342657802915}, "southwest": {"lat": 26.3457090197085, "lng": 90.23156781970847}}}, "icon": "https://maps.gstatic.com/mapfiles/place_api/icons/v1/png_71/school-71.png", "icon_background_color": "#7B9EB0", "icon_mask_base_uri": "https://maps.gstatic.com/mapfiles/place_api/icons/v2/school_pinlet", "name": "Sokman ali", "place_id": "ChIJIdW5MkhhWDcRJAhg7yCeiHY", "plus_code": {"compound_code": "86WM+V4 Baruapara, Assam, India", "global_code": "7MRG86WM+V4"}, "reference": "ChIJIdW5MkhhWDcRJAhg7yCeiHY", "scope": "GOOGLE", "types": ["school", "point_of_interest", "establishment"], "vicinity": "Thana Road, Baruapara"}, {"business_status": "OPERATIONAL", "geometry": {"location": {"lat": 26.3464497, "lng": 90.2318475}, "viewport": {"northeast": {"lat": 26.3477794302915, "lng": 90.23312803029151}, "southwest": {"lat": 26.34508146970849, "lng": 90.2304300697085}}}, "icon": "https://maps.gstatic.com/mapfiles/place_api/icons/v1/png_71/school-71.png", "icon_background_color": "#7B9EB0", "icon_mask_base_uri": "https://maps.gstatic.com/mapfiles/place_api/icons/v2/school_pinlet", "name": "UTTAR BARUAPARA LP SCHOOL", "photos": [{"height": 3120, "html_attributions": ["<a href=\"https://maps.google.com/maps/contrib/104300322118189729602\">SAJIBUL SK</a>"], "photo_reference": "Aap_uEAfNkT1CEBlU9NmAzAZuattFLW5n9p2T0aFgpiLffqoY4y6pulrin-pNbsm6xV4P4joCEMZUOkI_OqGFUx_JatcIGO4h94Ytpi1RjBYIy6lf03iTpmapZVdnmZlP7yH6FI-Jk23fv4xq_abB54oSZHsHgilVX-H-V5PUu4_4YWJQJ-V", "width": 4160}], "place_id": "ChIJUQ2Y1HdhWDcRODEX5MB22vk", "rating": 4, "reference": "ChIJUQ2Y1HdhWDcRODEX5MB22vk", "scope": "GOOGLE", "types": ["primary_school", "school", "point_of_interest", "establishment"], "user_ratings_total": 1, "vicinity": "86WJ+HPH, Khutamari"}, {"business_status": "OPERATIONAL", "geometry": {"location": {"lat": 26.3508526, "lng": 90.23394300000001}, "viewport": {"northeast": {"lat": 26.3521412302915, "lng": 90.23527973029154}, "southwest": {"lat": 26.3494432697085, "lng": 90.23258176970852}}}, "icon": "https://maps.gstatic.com/mapfiles/place_api/icons/v1/png_71/school-71.png", "icon_background_color": "#7B9EB0", "icon_mask_base_uri": "https://maps.gstatic.com/mapfiles/place_api/icons/v2/school_pinlet", "name": "Isha Atul Uloom Madrassa, Khutamari", "photos": [{"height": 2322, "html_attributions": ["<a href=\"https://maps.google.com/maps/contrib/102923168656046875619\">Abdul Hakim</a>"], "photo_reference": "Aap_uEDUBzy2UJfvJpZZfsGPFXqc1FpXe4UCAlYmweSp7wdOo69poZKmy_NoYSUK-NGDX59ENl2EUUEQKfiQ_mOKbg9VDfh4AhcNHDa0GCiDV8hbEO3VZoUOLfk9r1otTdHXdohzZVT1TcKC0PqqCZ-ZDeQ1DPkZH_kEhu8PYyLkrTJdXKOk", "width": 4128}], "place_id": "ChIJSxbqeGhhWDcR-9a_42dVVO4", "reference": "ChIJSxbqeGhhWDcR-9a_42dVVO4", "scope": "GOOGLE", "types": ["school", "point_of_interest", "establishment"], "vicinity": "962M+8HW, Khutamari"}, {"business_status": "OPERATIONAL", "geometry": {"location": {"lat": 26.3404615, "lng": 90.2579889}, "viewport": {"northeast": {"lat": 26.3418280802915, "lng": 90.25929098029151}, "southwest": {"lat": 26.3391301197085, "lng": 90.25659301970849}}}, "icon": "https://maps.gstatic.com/mapfiles/place_api/icons/v1/png_71/school-71.png", "icon_background_color": "#7B9EB0", "icon_mask_base_uri": "https://maps.gstatic.com/mapfiles/place_api/icons/v2/school_pinlet", "name": "673No Ghoramara LP School", "place_id": "ChIJAbQnF6hhWDcRVtm6zf2IxKk", "reference": "ChIJAbQnF6hhWDcRVtm6zf2IxKk", "scope": "GOOGLE", "types": ["school", "point_of_interest", "establishment"], "vicinity": "87R5+55Q, Ghoramara"}], "status": "OK"}