{"html_attributions": [], "results": [{"business_status": "OPERATIONAL", "geometry": {"location": {"lat": 23.8368087, "lng": 86.5217905}, "viewport": {"northeast": {"lat": 23.8381774802915, "lng": 86.5231244802915}, "southwest": {"lat": 23.8354795197085, "lng": 86.5204265197085}}}, "icon": "https://maps.gstatic.com/mapfiles/place_api/icons/v1/png_71/shopping-71.png", "name": "Anmol Store", "photos": [{"height": 1080, "html_attributions": ["<a href=\"https://maps.google.com/maps/contrib/102426523663568552394\">sandeep Kumar Gupta</a>"], "photo_reference": "ATtYBwKbC8UyhTdTl_2MZc7AqhAKfHEBTGtLLuC9F5UA438uwYljR0HUT308wKkCib_8GxCp9HQ4H6o_bhzIcS9Gs2wWxffgUtA-O2RP7Bzwuo5IVgsoWW-yuKds7Br28lR1BtFZlqg2sP9GAADprc_hE6uDZ4b6EW39oXvOZHS3YZhufvCN", "width": 1920}], "place_id": "ChIJSf3hwcy59jkRMSw4WrK4Hug", "plus_code": {"compound_code": "RGPC+PP Gobindpur, Jharkhand, India", "global_code": "7MM8RGPC+PP"}, "rating": 5, "reference": "ChIJSf3hwcy59jkRMSw4WrK4Hug", "scope": "GOOGLE", "types": ["supermarket", "grocery_or_supermarket", "food", "point_of_interest", "store", "establishment"], "user_ratings_total": 1, "vicinity": "Gobindpur Village Road, Gobindpur"}, {"business_status": "OPERATIONAL", "geometry": {"location": {"lat": 23.8356139, "lng": 86.5190744}, "viewport": {"northeast": {"lat": 23.8369444802915, "lng": 86.52037618029149}, "southwest": {"lat": 23.83424651970849, "lng": 86.51767821970849}}}, "icon": "https://maps.gstatic.com/mapfiles/place_api/icons/v1/png_71/shopping-71.png", "name": "Azad Market", "opening_hours": {"open_now": true}, "place_id": "ChIJD9tT9QG59jkRXZ2tnKieXJU", "plus_code": {"compound_code": "RGP9+6J Gobindpur, Jharkhand, India", "global_code": "7MM8RGP9+6J"}, "reference": "ChIJD9tT9QG59jkRXZ2tnKieXJU", "scope": "GOOGLE", "types": ["supermarket", "grocery_or_supermarket", "food", "point_of_interest", "store", "establishment"], "vicinity": "Azad Market, Tundi - Govindpur - Dhanbad Road, Gobindpur"}, {"business_status": "OPERATIONAL", "geometry": {"location": {"lat": 23.8368923, "lng": 86.5184513}, "viewport": {"northeast": {"lat": 23.8382358802915, "lng": 86.5198261302915}, "southwest": {"lat": 23.8355379197085, "lng": 86.5171281697085}}}, "icon": "https://maps.gstatic.com/mapfiles/place_api/icons/v1/png_71/shopping-71.png", "name": "Milan store", "place_id": "ChIJVYfJq3y59jkRzRI7smJE1Qw", "plus_code": {"compound_code": "RGP9+Q9 Gobindpur, Jharkhand, India", "global_code": "7MM8RGP9+Q9"}, "rating": 5, "reference": "ChIJVYfJq3y59jkRzRI7smJE1Qw", "scope": "GOOGLE", "types": ["supermarket", "grocery_or_supermarket", "food", "point_of_interest", "store", "establishment"], "user_ratings_total": 1, "vicinity": "Jharkhand State Highway 13, Gobindpur"}, {"business_status": "OPERATIONAL", "geometry": {"location": {"lat": 23.8328454, "lng": 86.5203015}, "viewport": {"northeast": {"lat": 23.8341812802915, "lng": 86.52157323029151}, "southwest": {"lat": 23.8314833197085, "lng": 86.5188752697085}}}, "icon": "https://maps.gstatic.com/mapfiles/place_api/icons/v1/png_71/shopping-71.png", "name": "ROYAL SHOE", "place_id": "ChIJwcVslhC59jkRUQvPWYDoWoo", "plus_code": {"compound_code": "RGMC+44 Gobindpur, Jharkhand, India", "global_code": "7MM8RGMC+44"}, "rating": 5, "reference": "ChIJwcVslhC59jkRUQvPWYDoWoo", "scope": "GOOGLE", "types": ["supermarket", "grocery_or_supermarket", "food", "point_of_interest", "store", "establishment"], "user_ratings_total": 1, "vicinity": "Jharkhand State Highway 13, Gobindpur"}, {"business_status": "OPERATIONAL", "geometry": {"location": {"lat": 23.8326209, "lng": 86.5202023}, "viewport": {"northeast": {"lat": 23.83398773029151, "lng": 86.5215781802915}, "southwest": {"lat": 23.8312897697085, "lng": 86.51888021970849}}}, "icon": "https://maps.gstatic.com/mapfiles/place_api/icons/v1/png_71/shopping-71.png", "name": "Govindpur Niche Bazar", "photos": [{"height": 1203, "html_attributions": ["<a href=\"https://maps.google.com/maps/contrib/100280905266797232064\">Anand Raj</a>"], "photo_reference": "ATtYBwLUQgLL8x1vRlkOJl3IDFAHK2GMyY0eSjS2ReTsthS3r58llyRQM-xcj7qcBmolDtQiEV3R1WpgjgDYSQkXUeNe52-oLNUnT_rnMpgjsxmBPwYAxfLvbL0MLQisA1DzEEW5WB10DoNWMnmN_O75oy2DVH0DhG668MdkSxv7LQS7VA4V", "width": 2608}], "place_id": "ChIJTSt2Mzm59jkRq-zKxIhBquE", "plus_code": {"compound_code": "RGMC+23 Gobindpur, Jharkhand, India", "global_code": "7MM8RGMC+23"}, "rating": 3.7, "reference": "ChIJTSt2Mzm59jkRq-zKxIhBquE", "scope": "GOOGLE", "types": ["supermarket", "grocery_or_supermarket", "food", "point_of_interest", "store", "establishment"], "user_ratings_total": 3, "vicinity": "National Highway 19, Gobindpur"}, {"business_status": "OPERATIONAL", "geometry": {"location": {"lat": 23.8496675, "lng": 86.5221996}, "viewport": {"northeast": {"lat": 23.8510279802915, "lng": 86.52348653029149}, "southwest": {"lat": 23.8483300197085, "lng": 86.52078856970849}}}, "icon": "https://maps.gstatic.com/mapfiles/place_api/icons/v1/png_71/shopping-71.png", "name": "Nasir Market & stores", "opening_hours": {"open_now": true}, "photos": [{"height": 810, "html_attributions": ["<a href=\"https://maps.google.com/maps/contrib/114172338637047484837\">Nasir Market &amp; stores</a>"], "photo_reference": "ATtYBwLJempdzx3MmeLsIztRGtroc5NnqMBJK0zhHgCzTpyZpP5RbsvYwp_hpf-G0QhFtakf-EJY4TnaRzdFQ5DMJdDwzww4YVHzKoJg36-P8e2Z8wvZLduXavQePOuF2gu-fS7NstdpBonohYcaO4JvhE8bMfjrIYqXGgD7mP_3F-F1KqKy", "width": 1440}], "place_id": "ChIJF6rVgBS59jkRIVMmhbK1pm4", "plus_code": {"compound_code": "RGXC+VV Bario, Jharkhand, India", "global_code": "7MM8RGXC+VV"}, "rating": 3.6, "reference": "ChIJF6rVgBS59jkRIVMmhbK1pm4", "scope": "GOOGLE", "types": ["grocery_or_supermarket", "supermarket", "food", "point_of_interest", "store", "establishment"], "user_ratings_total": 25, "vicinity": "Bario more govindpur, Bario"}], "status": "OK"}