{"html_attributions": [], "results": [{"business_status": "OPERATIONAL", "geometry": {"location": {"lat": 24.3982283, "lng": 86.17127669999999}, "viewport": {"northeast": {"lat": 24.3995284802915, "lng": 86.17263283029149}, "southwest": {"lat": 24.3968305197085, "lng": 86.16993486970848}}}, "icon": "https://maps.gstatic.com/mapfiles/place_api/icons/v1/png_71/bank-71.png", "icon_background_color": "#909CE1", "icon_mask_base_uri": "https://maps.gstatic.com/mapfiles/place_api/icons/v2/bank-intl_pinlet", "name": "Bank Of India, Mirzaganj + ATM", "photos": [{"height": 1920, "html_attributions": ["<a href=\"https://maps.google.com/maps/contrib/111140478993678574690\">Ritesh kumar Gupta</a>"], "photo_reference": "Aap_uEBaEfuqoqQ_x7YoMczGW56kl6EvemQ6nNTHo4aOjBDBbT9RXOHBnXzCyU_b7poEBkCEVniGbBjZ-oeFveGjeOyBofV4BdBCiLpZ3rZg7R_hHsTGb06vB09hzXVnRlOeEhv6Dpufd561jCNC3bLhd9o66hc1QGWheiLLmoHrQzCaW3iU", "width": 1080}], "place_id": "ChIJVTXo8rPm8zkRUbHf3cQeTqU", "rating": 3.2, "reference": "ChIJVTXo8rPm8zkRUbHf3cQeTqU", "scope": "GOOGLE", "types": ["bank", "finance", "point_of_interest", "establishment"], "user_ratings_total": 5, "vicinity": "95XC+7GR, Jagarnathdih"}, {"business_status": "OPERATIONAL", "geometry": {"location": {"lat": 24.40626, "lng": 86.17136099999999}, "viewport": {"northeast": {"lat": 24.4082331802915, "lng": 86.1725847802915}, "southwest": {"lat": 24.40553521970849, "lng": 86.1698868197085}}}, "icon": "https://maps.gstatic.com/mapfiles/place_api/icons/v1/png_71/bank-71.png", "icon_background_color": "#909CE1", "icon_mask_base_uri": "https://maps.gstatic.com/mapfiles/place_api/icons/v2/bank-intl_pinlet", "name": "Allahabad Bank", "place_id": "ChIJ8f__P8rm8zkRw0bdD6SYxI4", "plus_code": {"compound_code": "C54C+GG Pargodih, Jharkhand, India", "global_code": "7MP8C54C+GG"}, "rating": 5, "reference": "ChIJ8f__P8rm8zkRw0bdD6SYxI4", "scope": "GOOGLE", "types": ["bank", "finance", "point_of_interest", "establishment"], "user_ratings_total": 2, "vicinity": "VILL. & P.O. PARGODI VIA. PALAJORIHAT"}, {"business_status": "OPERATIONAL", "geometry": {"location": {"lat": 24.3885268, "lng": 86.17390429999999}, "viewport": {"northeast": {"lat": 24.3897401302915, "lng": 86.17711415}, "southwest": {"lat": 24.3870421697085, "lng": 86.17283434999999}}}, "icon": "https://maps.gstatic.com/mapfiles/place_api/icons/v1/png_71/bank-71.png", "icon_background_color": "#909CE1", "icon_mask_base_uri": "https://maps.gstatic.com/mapfiles/place_api/icons/v2/bank-intl_pinlet", "name": "Bank of India", "photos": [{"height": 960, "html_attributions": ["<a href=\"https://maps.google.com/maps/contrib/111026683743547252497\">ABHAY KUMAR</a>"], "photo_reference": "Aap_uEAOkAnxQacMzNKhh3Qjm-n6A3hb6IFAFOJRGnlUfdCy_almTTWVMO8f8zUVCoMyEkfkHo3ZUND-LfIq-WfsCha0Ilz8e08127HGYj5TK4o9YvHX-TWqycJ4csJe3ol9EbiXYEDvSdB3Vz9IruXIJId5BVSxxUhH1RZ6F5-hmQJgAXQx", "width": 540}], "place_id": "ChIJVVVVlazm8zkRtT8IAuAWv7A", "rating": 5, "reference": "ChIJVVVVlazm8zkRtT8IAuAWv7A", "scope": "GOOGLE", "types": ["bank", "finance", "point_of_interest", "establishment"], "user_ratings_total": 1, "vicinity": "Main Road, Mirzaganj"}], "status": "OK"}