{"html_attributions": [], "results": [{"business_status": "OPERATIONAL", "geometry": {"location": {"lat": 24.5149098, "lng": 86.1913644}, "viewport": {"northeast": {"lat": 24.5162026302915, "lng": 86.1926802802915}, "southwest": {"lat": 24.5135046697085, "lng": 86.18998231970849}}}, "icon": "https://maps.gstatic.com/mapfiles/place_api/icons/v1/png_71/bank-71.png", "icon_background_color": "#909CE1", "icon_mask_base_uri": "https://maps.gstatic.com/mapfiles/place_api/icons/v2/bank-intl_pinlet", "name": "Bank of India - Deori Branch", "place_id": "ChIJQ29sYmbe8zkRp_u6AS_hsQI", "rating": 3.5, "reference": "ChIJQ29sYmbe8zkRp_u6AS_hsQI", "scope": "GOOGLE", "types": ["bank", "finance", "point_of_interest", "establishment"], "user_ratings_total": 4, "vicinity": "G57R+XG9, Deori"}, {"business_status": "OPERATIONAL", "geometry": {"location": {"lat": 24.5146588, "lng": 86.1919753}, "viewport": {"northeast": {"lat": 24.5159878302915, "lng": 86.1933637802915}, "southwest": {"lat": 24.5132898697085, "lng": 86.1906658197085}}}, "icon": "https://maps.gstatic.com/mapfiles/place_api/icons/v1/png_71/bank-71.png", "icon_background_color": "#909CE1", "icon_mask_base_uri": "https://maps.gstatic.com/mapfiles/place_api/icons/v2/bank-intl_pinlet", "name": "Bank of Baroda, Deori", "place_id": "ChIJDY6nXmbe8zkRTCYkm7RxorM", "rating": 4, "reference": "ChIJDY6nXmbe8zkRTCYkm7RxorM", "scope": "GOOGLE", "types": ["bank", "finance", "point_of_interest", "establishment"], "user_ratings_total": 5, "vicinity": "G57R+VQ9, Deori"}, {"business_status": "OPERATIONAL", "geometry": {"location": {"lat": 24.50787, "lng": 86.19516999999999}, "viewport": {"northeast": {"lat": 24.5092462802915, "lng": 86.1964502802915}, "southwest": {"lat": 24.5065483197085, "lng": 86.1937523197085}}}, "icon": "https://maps.gstatic.com/mapfiles/place_api/icons/v1/png_71/bank-71.png", "icon_background_color": "#909CE1", "icon_mask_base_uri": "https://maps.gstatic.com/mapfiles/place_api/icons/v2/bank-intl_pinlet", "name": "Bank Of Baroda", "opening_hours": {"open_now": true}, "photos": [{"height": 288, "html_attributions": ["<a href=\"https://maps.google.com/maps/contrib/115831715425706464520\">Bank Of Baroda</a>"], "photo_reference": "Aap_uEB1mDcmIAlds-yIsVOuzrQkH4tQbjKRPGMwgopvNLRz-nwPnvO99m30n97Gx_7QjnOGfCZWlTF-5niDx6P7DXpo5P-bjidliWtPcoGCeNV662hkdmii4a4xnmcWMEV-2IaAuCTk1Qnrwsv78x3MLpPw2im0hiX-AGTR7sPM7ctsoNPc", "width": 512}], "place_id": "ChIJGQPT3Wne8zkRfrg0P-kGWDQ", "plus_code": {"compound_code": "G55W+43 Deori, Jharkhand, India", "global_code": "7MP8G55W+43"}, "reference": "ChIJGQPT3Wne8zkRfrg0P-kGWDQ", "scope": "GOOGLE", "types": ["bank", "finance", "point_of_interest", "establishment"], "vicinity": "Deori"}], "status": "OK"}