{"html_attributions": [], "results": [{"business_status": "OPERATIONAL", "geometry": {"location": {"lat": 24.879496, "lng": 86.2105577}, "viewport": {"northeast": {"lat": 24.88066443029151, "lng": 86.2123405302915}, "southwest": {"lat": 24.8779664697085, "lng": 86.20964256970849}}}, "icon": "https://maps.gstatic.com/mapfiles/place_api/icons/v1/png_71/bank-71.png", "icon_background_color": "#909CE1", "icon_mask_base_uri": "https://maps.gstatic.com/mapfiles/place_api/icons/v2/bank-intl_pinlet", "name": "BANK OF BARODA", "opening_hours": {"open_now": true}, "place_id": "ChIJD8oJAyIr8jkRbRTmVryZ93A", "reference": "ChIJD8oJAyIr8jkRbRTmVryZ93A", "scope": "GOOGLE", "types": ["bank", "finance", "point_of_interest", "establishment"], "vicinity": "V6H6+Q6V, Naudiha"}, {"business_status": "OPERATIONAL", "geometry": {"location": {"lat": 24.8707555, "lng": 86.2072184}, "viewport": {"northeast": {"lat": 24.8721439302915, "lng": 86.2085833302915}, "southwest": {"lat": 24.86944596970849, "lng": 86.2058853697085}}}, "icon": "https://maps.gstatic.com/mapfiles/place_api/icons/v1/png_71/bank-71.png", "icon_background_color": "#909CE1", "icon_mask_base_uri": "https://maps.gstatic.com/mapfiles/place_api/icons/v2/bank-intl_pinlet", "name": "SBI Customer Sarvice Point Khaira", "opening_hours": {"open_now": true}, "photos": [{"height": 1920, "html_attributions": ["<a href=\"https://maps.google.com/maps/contrib/105635253197356751039\">Deepak Kumar</a>"], "photo_reference": "Aap_uECKqG2aNmc1KRlT7O8KPr-DCRnu7qlcw8wWC0txGLNdlLGaKOKyrarEz9gSe62JhGRjao6wFrDQsIMiFFKIWDyKTZptQlpvZ0VSwmu4eAnIZ8HEwYf0Deh-TMBfW253_lJXqvgjGXxaclw2J4aj_MkwfMeybiEW2364ZK2pLRMnG1QH", "width": 2560}], "place_id": "ChIJWYH_ASUr8jkR4jiLNmwzZN8", "plus_code": {"compound_code": "V6C4+8V Khaira, Bihar, India", "global_code": "7MP8V6C4+8V"}, "rating": 4.3, "reference": "ChIJWYH_ASUr8jkR4jiLNmwzZN8", "scope": "GOOGLE", "types": ["bank", "finance", "point_of_interest", "establishment"], "user_ratings_total": 6, "vicinity": "Ward No.30, \u0916\u0948\u0930\u093e - \u092e\u093f\u0930\u091a\u093e - \u091a\u094c\u0921\u0940\u0939\u093e \u0930\u094b\u0921, Khaira"}, {"business_status": "OPERATIONAL", "geometry": {"location": {"lat": 24.8679119, "lng": 86.2076757}, "viewport": {"northeast": {"lat": 24.8693252302915, "lng": 86.20905463029149}, "southwest": {"lat": 24.8666272697085, "lng": 86.20635666970848}}}, "icon": "https://maps.gstatic.com/mapfiles/place_api/icons/v1/png_71/bank-71.png", "icon_background_color": "#909CE1", "icon_mask_base_uri": "https://maps.gstatic.com/mapfiles/place_api/icons/v2/bank-intl_pinlet", "name": "Canara Bank", "place_id": "ChIJaQLuACUr8jkRPnkr8AQmwIs", "plus_code": {"compound_code": "V695+53 Khaira, Bihar, India", "global_code": "7MP8V695+53"}, "rating": 3.8, "reference": "ChIJaQLuACUr8jkRPnkr8AQmwIs", "scope": "GOOGLE", "types": ["bank", "finance", "point_of_interest", "establishment"], "user_ratings_total": 4, "vicinity": "Patna, Khaira"}, {"business_status": "OPERATIONAL", "geometry": {"location": {"lat": 24.8716662, "lng": 86.2092528}, "viewport": {"northeast": {"lat": 24.8730177302915, "lng": 86.21058623029151}, "southwest": {"lat": 24.8703197697085, "lng": 86.20788826970849}}}, "icon": "https://maps.gstatic.com/mapfiles/place_api/icons/v1/png_71/bank-71.png", "icon_background_color": "#909CE1", "icon_mask_base_uri": "https://maps.gstatic.com/mapfiles/place_api/icons/v2/bank-intl_pinlet", "name": "RAMA CSC KHAIRA ADHAR KENDRA", "opening_hours": {"open_now": true}, "place_id": "ChIJbcwlSSQr8jkR-DN2wB_g1kw", "rating": 1, "reference": "ChIJbcwlSSQr8jkR-DN2wB_g1kw", "scope": "GOOGLE", "types": ["bank", "finance", "point_of_interest", "establishment"], "user_ratings_total": 1, "vicinity": "V6C5+MP6, Khaira"}, {"business_status": "OPERATIONAL", "geometry": {"location": {"lat": 24.8715348, "lng": 86.2071062}, "viewport": {"northeast": {"lat": 24.8728007802915, "lng": 86.2086278302915}, "southwest": {"lat": 24.8701028197085, "lng": 86.2059298697085}}}, "icon": "https://maps.gstatic.com/mapfiles/place_api/icons/v1/png_71/bank-71.png", "icon_background_color": "#909CE1", "icon_mask_base_uri": "https://maps.gstatic.com/mapfiles/place_api/icons/v2/bank-intl_pinlet", "name": "State Bank Of India Csp Garhi", "opening_hours": {"open_now": true}, "photos": [{"height": 555, "html_attributions": ["<a href=\"https://maps.google.com/maps/contrib/112433649692140565773\">rauky Kr</a>"], "photo_reference": "Aap_uECZ-eLiNaLInkmA3Kf22hjT_U5Q40ueYyIfRVdReNNvaHTH95P4u-Bkr29Ma3l1yLnMGhuBsCQlfr_o3p9sivVMZQ5P85cvb4JL9RDtF5TaUR2hFVooTvxilV0xEhVyt9akvm1G3GAFpgJ74oSByyVAX1zpv-ByNu7N9z_JSihuXUy6", "width": 483}], "place_id": "ChIJRUYILrsr8jkRuX0W1uubynY", "plus_code": {"compound_code": "V6C4+JR Khaira, Bihar, India", "global_code": "7MP8V6C4+JR"}, "reference": "ChIJRUYILrsr8jkRuX0W1uubynY", "scope": "GOOGLE", "types": ["bank", "finance", "point_of_interest", "establishment"], "vicinity": "Garhi, Khaira"}, {"business_status": "OPERATIONAL", "geometry": {"location": {"lat": 24.8715348, "lng": 86.2071062}, "viewport": {"northeast": {"lat": 24.8728007802915, "lng": 86.2086278302915}, "southwest": {"lat": 24.8701028197085, "lng": 86.2059298697085}}}, "icon": "https://maps.gstatic.com/mapfiles/place_api/icons/v1/png_71/bank-71.png", "icon_background_color": "#909CE1", "icon_mask_base_uri": "https://maps.gstatic.com/mapfiles/place_api/icons/v2/bank-intl_pinlet", "name": "Sbi Bodhwan Talab", "place_id": "ChIJa1cg5yQr8jkRzwS8p8OxQhg", "plus_code": {"compound_code": "V6C4+JR Jamui, Bihar, India", "global_code": "7MP8V6C4+JR"}, "rating": 2, "reference": "ChIJa1cg5yQr8jkRzwS8p8OxQhg", "scope": "GOOGLE", "types": ["bank", "finance", "point_of_interest", "establishment"], "user_ratings_total": 1, "vicinity": "near HDFC bank bodhwan talab road, Jamui"}, {"business_status": "OPERATIONAL", "geometry": {"location": {"lat": 24.8709211, "lng": 86.20824089999999}, "viewport": {"northeast": {"lat": 24.8722985802915, "lng": 86.20950268029151}, "southwest": {"lat": 24.8696006197085, "lng": 86.2068047197085}}}, "icon": "https://maps.gstatic.com/mapfiles/place_api/icons/v1/png_71/bank-71.png", "icon_background_color": "#909CE1", "icon_mask_base_uri": "https://maps.gstatic.com/mapfiles/place_api/icons/v2/bank-intl_pinlet", "name": "CANARA BANK - KHAIRA", "photos": [{"height": 2048, "html_attributions": ["<a href=\"https://maps.google.com/maps/contrib/110515697128951998379\">CANARA BANK - GENERAL BRANCH</a>"], "photo_reference": "Aap_uEBeUYJTiCmVZ5Eya1JSjBx3i2_h13ESHiJ8j-6TmCoiqDcQjW0vBM3Ue6Qj9TayRvMYLFclI_BftppXHuEKa0p2td1_BrLmo8Z2ZbXVIheNXCtkw11wRSFZYV5HjLsyChu1H6uy-NlJqkZO0pRnb6erbLne5HNHqjhCqUe2rWsT5s6b", "width": 1208}], "place_id": "ChIJJwI1jKkr8jkRuucpMQawDyY", "plus_code": {"compound_code": "V6C5+97 Khaira, Bihar, India", "global_code": "7MP8V6C5+97"}, "reference": "ChIJJwI1jKkr8jkRuucpMQawDyY", "scope": "GOOGLE", "types": ["bank", "finance", "point_of_interest", "establishment"], "vicinity": "BUILDING KHAIRA MAIN ROAD, Khaira"}, {"business_status": "OPERATIONAL", "geometry": {"location": {"lat": 24.8708386, "lng": 86.2075309}, "viewport": {"northeast": {"lat": 24.8721445302915, "lng": 86.2088624802915}, "southwest": {"lat": 24.86944656970849, "lng": 86.2061645197085}}}, "icon": "https://maps.gstatic.com/mapfiles/place_api/icons/v1/png_71/bank-71.png", "icon_background_color": "#909CE1", "icon_mask_base_uri": "https://maps.gstatic.com/mapfiles/place_api/icons/v2/bank-intl_pinlet", "name": "SBI CSP KHAIRA", "opening_hours": {"open_now": true}, "photos": [{"height": 512, "html_attributions": ["<a href=\"https://maps.google.com/maps/contrib/117524169329769653162\">SBI CSP KHAIRA</a>"], "photo_reference": "Aap_uEBNlmb--_s7B7sxIpYny-vMYMdd8KTFc48eD82oJxMQ6fAYgYHG-OC7bQTmWkAuf_chsXOcRLjK4vYwIuUY6KSynxnlhT7-wfoUxerikqfadIfl6a5lPbpL3kIlWYvHv98qO19JjbrR9Ufw8h_TGDSB1YPxKiFmFc_6Sn8RW3QShYii", "width": 1024}], "place_id": "ChIJ3b8KGkIr8jkRnbo1cnz4WEg", "plus_code": {"compound_code": "V6C5+82 Khaira, Bihar, India", "global_code": "7MP8V6C5+82"}, "rating": 5, "reference": "ChIJ3b8KGkIr8jkRnbo1cnz4WEg", "scope": "GOOGLE", "types": ["bank", "finance", "point_of_interest", "establishment"], "user_ratings_total": 1, "vicinity": "Khaira Police Station, Ward No. 13 Amin - Khaira Road Opposite to, Khaira"}], "status": "OK"}