{"html_attributions": [], "next_page_token": "Aap_uECIx3ckBAEzxuUtbejl1opj88lRiF4Ukrjsm9HN-cfBlBhFPariVsnMIpibBMWY1BqJpH82opavL424HJ9_RVKBNOgwlMNsDpFIZxbQr-HgTTn2ziNypfrZUTuVFsaJoly51gv2D0152hrL0Tp8Zllot0M4PJx2fc-oTXRVlQi9lTHT7ErXy9yFwHK7dDdfVsPbXfFs5UPjgNqfRRQqh_5ugVBy56Xk_ig1KOkPXrmCUP11Y3a8uiMDXzEBIjsXIeJ7AJd17AWF50IjFDpOdBtYhJ1hqdAjYbRspxr_8xB-PAmb6nmesobHs6fFq9-D8ht7c6YBuDMiPMD6wqQuGHJdmaPCs0E4bkk0KhfJPy8axJ6wPrwgE2TYg-OMEEum7XBFWIBSpV6uyIxujOXuoVqCSKgahlQFHycccKJeYh9XJy6I", "results": [{"business_status": "OPERATIONAL", "geometry": {"location": {"lat": 25.1341225, "lng": 85.85940959999999}, "viewport": {"northeast": {"lat": 25.1355222802915, "lng": 85.8607473302915}, "southwest": {"lat": 25.1328243197085, "lng": 85.85804936970848}}}, "icon": "https://maps.gstatic.com/mapfiles/place_api/icons/v1/png_71/bank-71.png", "icon_background_color": "#909CE1", "icon_mask_base_uri": "https://maps.gstatic.com/mapfiles/place_api/icons/v2/bank-intl_pinlet", "name": "SBI ATM", "opening_hours": {"open_now": true}, "place_id": "ChIJRZ8Up01B8jkRTgcS18bbSRc", "plus_code": {"compound_code": "4VM5+JQ Sheikhpura, Bihar, India", "global_code": "7MQ74VM5+JQ"}, "rating": 2.9, "reference": "ChIJRZ8Up01B8jkRTgcS18bbSRc", "scope": "GOOGLE", "types": ["bank", "atm", "finance", "point_of_interest", "establishment"], "user_ratings_total": 16, "vicinity": "Sheikhpura - Kusmaha Road, Sheikhpura"}, {"business_status": "OPERATIONAL", "geometry": {"location": {"lat": 25.13403199999999, "lng": 85.84044899999999}, "viewport": {"northeast": {"lat": 25.1353390802915, "lng": 85.8417066802915}, "southwest": {"lat": 25.1326411197085, "lng": 85.83900871970849}}}, "icon": "https://maps.gstatic.com/mapfiles/place_api/icons/v1/png_71/bank-71.png", "icon_background_color": "#909CE1", "icon_mask_base_uri": "https://maps.gstatic.com/mapfiles/place_api/icons/v2/bank-intl_pinlet", "name": "ICICI Bank Sheikhpura, Sheikhpura-Branch & ATM", "opening_hours": {"open_now": true}, "photos": [{"height": 4608, "html_attributions": ["<a href=\"https://maps.google.com/maps/contrib/115884335464386459277\">Sumit Kumar</a>"], "photo_reference": "Aap_uED1dGyApMM6KClOgnkCGdXeq0Ta9BD33PYTt-aNqYHFK6KqXzruPikDMbNYBBKy7OAX5i3cOUMciUHVDLHa5Vd0B7WTydY0kpVUCTO50b_pmk0FZE4ftb3XAWOGgKm02iULWAjE0SSkOZTOdspeLd8f_DOYf-uYGUKSKRpmPmdpmU-y", "width": 3456}], "place_id": "ChIJBzrMrflD8jkRPpppMF1bLX0", "plus_code": {"compound_code": "4RMR+J5 Sheikhpura, Bihar, India", "global_code": "7MQ74RMR+J5"}, "rating": 4.1, "reference": "ChIJBzrMrflD8jkRPpppMF1bLX0", "scope": "GOOGLE", "types": ["bank", "finance", "point_of_interest", "establishment"], "user_ratings_total": 20, "vicinity": "near Daal Kaun, Khandpar, near Daal Kaun, Sheikhpura"}, {"business_status": "OPERATIONAL", "geometry": {"location": {"lat": 25.1391897, "lng": 85.839203}, "viewport": {"northeast": {"lat": 25.1405441302915, "lng": 85.8405513802915}, "southwest": {"lat": 25.1378461697085, "lng": 85.8378534197085}}}, "icon": "https://maps.gstatic.com/mapfiles/place_api/icons/v1/png_71/bank-71.png", "icon_background_color": "#909CE1", "icon_mask_base_uri": "https://maps.gstatic.com/mapfiles/place_api/icons/v2/bank-intl_pinlet", "name": "State Bank of India", "place_id": "ChIJfU1jZPpD8jkREzQyQkLTWhA", "plus_code": {"compound_code": "4RQQ+MM Sheikhpura, Bihar, India", "global_code": "7MQ74RQQ+MM"}, "rating": 3.1, "reference": "ChIJfU1jZPpD8jkREzQyQkLTWhA", "scope": "GOOGLE", "types": ["bank", "finance", "point_of_interest", "establishment"], "user_ratings_total": 9, "vicinity": "Budhauli Katra Road, Sheikhpura"}, {"business_status": "OPERATIONAL", "geometry": {"location": {"lat": 25.1305908, "lng": 85.8420195}, "viewport": {"northeast": {"lat": 25.1319924802915, "lng": 85.84345438029152}, "southwest": {"lat": 25.12929451970849, "lng": 85.84075641970851}}}, "icon": "https://maps.gstatic.com/mapfiles/place_api/icons/v1/png_71/bank-71.png", "icon_background_color": "#909CE1", "icon_mask_base_uri": "https://maps.gstatic.com/mapfiles/place_api/icons/v2/bank-intl_pinlet", "name": "Bank Of India", "opening_hours": {"open_now": true}, "photos": [{"height": 1920, "html_attributions": ["<a href=\"https://maps.google.com/maps/contrib/109208499985375059130\">golu kumar</a>"], "photo_reference": "Aap_uEAs-Kim9j9SY_KMxQNL0Y2BD-Rooz7ysb4RkjMpO5jbAzOdx2FxeRG90EVxscGKpCLvkBI3mfG5NTQCLov8MCcxoftJT8tFu7Gyk-Ea19ilMg4xWC8Tk1hfT6nzJ2IcdjFjHHG_M67YURLAMi-p0WPUTKirLUVlhps5tRT5TKgcnszI", "width": 1080}], "place_id": "ChIJF7pYXAdE8jkRqvajZRp4ZnI", "rating": 4, "reference": "ChIJF7pYXAdE8jkRqvajZRp4ZnI", "scope": "GOOGLE", "types": ["bank", "finance", "point_of_interest", "establishment"], "user_ratings_total": 11, "vicinity": "4RJR+6RJ, Sheikhpura"}, {"business_status": "OPERATIONAL", "geometry": {"location": {"lat": 25.1410403, "lng": 85.8374261}, "viewport": {"northeast": {"lat": 25.1423477302915, "lng": 85.83879198029152}, "southwest": {"lat": 25.1396497697085, "lng": 85.8360940197085}}}, "icon": "https://maps.gstatic.com/mapfiles/place_api/icons/v1/png_71/bank-71.png", "icon_background_color": "#909CE1", "icon_mask_base_uri": "https://maps.gstatic.com/mapfiles/place_api/icons/v2/bank-intl_pinlet", "name": "SBI", "opening_hours": {"open_now": true}, "photos": [{"height": 3000, "html_attributions": ["<a href=\"https://maps.google.com/maps/contrib/116465709805863158659\">Sujit Kumar</a>"], "photo_reference": "Aap_uEDs_QGxVS81rviU7ysYGxk3hMVK4K4TIWMg8h4evbiKyrI9-ijX5Lo8JE35ZhoPAyk6zGBoIsyM_RXOuDKd8bw0u79t0COq3F7uzhnktWGwso7Om4pPpzgMmw1C3L_mVN8v_pTEuPccZpInrY24FWrJXAlcYiDhQLw1qjSxeRqNvo_N", "width": 4000}], "place_id": "ChIJ01jsAPBD8jkRexxy8_74I28", "plus_code": {"compound_code": "4RRP+CX Sheikhpura, Bihar, India", "global_code": "7MQ74RRP+CX"}, "rating": 3.5, "reference": "ChIJ01jsAPBD8jkRexxy8_74I28", "scope": "GOOGLE", "types": ["bank", "atm", "finance", "point_of_interest", "establishment"], "user_ratings_total": 24, "vicinity": "Sheikhpura"}, {"business_status": "OPERATIONAL", "geometry": {"location": {"lat": 25.1428283, "lng": 85.83770109999999}, "viewport": {"northeast": {"lat": 25.1441806802915, "lng": 85.8390938302915}, "southwest": {"lat": 25.1414827197085, "lng": 85.8363958697085}}}, "icon": "https://maps.gstatic.com/mapfiles/place_api/icons/v1/png_71/bank-71.png", "icon_background_color": "#909CE1", "icon_mask_base_uri": "https://maps.gstatic.com/mapfiles/place_api/icons/v2/bank-intl_pinlet", "name": "Central Bank Of India", "place_id": "ChIJjelF4-9D8jkRQgrnR9Fm7Ik", "plus_code": {"compound_code": "4RVQ+43 Sheikhpura, Bihar, India", "global_code": "7MQ74RVQ+43"}, "rating": 3, "reference": "ChIJjelF4-9D8jkRQgrnR9Fm7Ik", "scope": "GOOGLE", "types": ["bank", "finance", "point_of_interest", "establishment"], "user_ratings_total": 6, "vicinity": "District Court, Sheikhpura"}, {"business_status": "OPERATIONAL", "geometry": {"location": {"lat": 25.14169399999999, "lng": 85.862894}, "viewport": {"northeast": {"lat": 25.1430044302915, "lng": 85.86424943029151}, "southwest": {"lat": 25.1403064697085, "lng": 85.86155146970849}}}, "icon": "https://maps.gstatic.com/mapfiles/place_api/icons/v1/png_71/bank-71.png", "icon_background_color": "#909CE1", "icon_mask_base_uri": "https://maps.gstatic.com/mapfiles/place_api/icons/v2/bank-intl_pinlet", "name": "Bandhan Bank", "opening_hours": {"open_now": true}, "place_id": "ChIJJUFwP09B8jkRKoXQeKmcHMw", "rating": 3.8, "reference": "ChIJJUFwP09B8jkRKoXQeKmcHMw", "scope": "GOOGLE", "types": ["bank", "finance", "point_of_interest", "establishment"], "user_ratings_total": 5, "vicinity": "Chandnichawk,Vill: & P.O-Sheikhpura, Dist.Sheikhpura, Bihar, Patna, Sheikhpura"}, {"business_status": "OPERATIONAL", "geometry": {"location": {"lat": 25.1430566, "lng": 85.8376461}, "viewport": {"northeast": {"lat": 25.1444109802915, "lng": 85.83905538029153}, "southwest": {"lat": 25.1417130197085, "lng": 85.83635741970852}}}, "icon": "https://maps.gstatic.com/mapfiles/place_api/icons/v1/png_71/bank-71.png", "icon_background_color": "#909CE1", "icon_mask_base_uri": "https://maps.gstatic.com/mapfiles/place_api/icons/v2/bank-intl_pinlet", "name": "Bank of Baroda", "opening_hours": {"open_now": true}, "place_id": "ChIJi1fh5O9D8jkRP3jSlyroLbY", "plus_code": {"compound_code": "4RVQ+63 Sheikhpura, Bihar, India", "global_code": "7MQ74RVQ+63"}, "rating": 4.8, "reference": "ChIJi1fh5O9D8jkRP3jSlyroLbY", "scope": "GOOGLE", "types": ["bank", "atm", "finance", "point_of_interest", "establishment"], "user_ratings_total": 6, "vicinity": "near District Court, VIP Road, near District Court, Sheikhpura"}, {"business_status": "OPERATIONAL", "geometry": {"location": {"lat": 25.1431932, "lng": 85.83764339999999}, "viewport": {"northeast": {"lat": 25.1445499302915, "lng": 85.8390448802915}, "southwest": {"lat": 25.1418519697085, "lng": 85.83634691970849}}}, "icon": "https://maps.gstatic.com/mapfiles/place_api/icons/v1/png_71/bank-71.png", "icon_background_color": "#909CE1", "icon_mask_base_uri": "https://maps.gstatic.com/mapfiles/place_api/icons/v2/bank-intl_pinlet", "name": "Punjab National Bank", "opening_hours": {"open_now": true}, "photos": [{"height": 1920, "html_attributions": ["<a href=\"https://maps.google.com/maps/contrib/104366246083160899038\">Vijay kumar</a>"], "photo_reference": "Aap_uED6zjLrkVLk8GOkLuLZoqOn7aJMxAyFHyX0h2tuJ7eTKkrrqJVom6k3o6d8H9Xq8m1GXSmudVYZ3wUXdb7fDLMeZUcIUJ61W53ca7ZqqzkjQtV4ZBEn67QdEMxWlxTkE_07czmDWNU5CoYNQnN03sWfun0EhhfXtD3Bx17hYR_7DuVN", "width": 1080}], "place_id": "ChIJh6hu5e9D8jkRkRB175i_S28", "plus_code": {"compound_code": "4RVQ+73 Sheikhpura, Bihar, India", "global_code": "7MQ74RVQ+73"}, "rating": 3.3, "reference": "ChIJh6hu5e9D8jkRkRB175i_S28", "scope": "GOOGLE", "types": ["bank", "atm", "finance", "point_of_interest", "establishment"], "user_ratings_total": 16, "vicinity": "District Court, Sheikhpura"}, {"business_status": "OPERATIONAL", "geometry": {"location": {"lat": 25.13963, "lng": 85.84797999999999}, "viewport": {"northeast": {"lat": 25.14164733029151, "lng": 85.8491723802915}, "southwest": {"lat": 25.1389493697085, "lng": 85.8464744197085}}}, "icon": "https://maps.gstatic.com/mapfiles/place_api/icons/v1/png_71/atm-71.png", "icon_background_color": "#909CE1", "icon_mask_base_uri": "https://maps.gstatic.com/mapfiles/place_api/icons/v2/atm_pinlet", "name": "HDFC Bank ATM", "opening_hours": {"open_now": true}, "place_id": "ChIJgdvSnP1D8jkRzGsYw3IqYx0", "plus_code": {"compound_code": "4RQX+V5 Sheikhpura, Bihar, India", "global_code": "7MQ74RQX+V5"}, "rating": 3.3, "reference": "ChIJgdvSnP1D8jkRzGsYw3IqYx0", "scope": "GOOGLE", "types": ["atm", "bank", "finance", "point_of_interest", "establishment"], "user_ratings_total": 4, "vicinity": "Neeraj Handloom Chandani Chowk, Cinema Rd"}, {"business_status": "OPERATIONAL", "geometry": {"location": {"lat": 25.139639, "lng": 85.847985}, "viewport": {"northeast": {"lat": 25.1416524802915, "lng": 85.84917828029151}, "southwest": {"lat": 25.13895451970849, "lng": 85.84648031970849}}}, "icon": "https://maps.gstatic.com/mapfiles/place_api/icons/v1/png_71/bank-71.png", "icon_background_color": "#909CE1", "icon_mask_base_uri": "https://maps.gstatic.com/mapfiles/place_api/icons/v2/bank-intl_pinlet", "name": "HDFC Bank", "opening_hours": {"open_now": true}, "photos": [{"height": 563, "html_attributions": ["<a href=\"https://maps.google.com/maps/contrib/114368423873607486687\">HDFC Bank</a>"], "photo_reference": "Aap_uEDm5osxAX0d7z-6QdPciPWCOLkB1MqP2TcQ-9hOl68oVWARaGTTAy3H0YxuZOHiffb6ElTp18Y1iiWEDB8_hMMFD_v6uGqRIO1y3Xmo9L7Cwst-cn6Br_Zoxx6WbcU7FlsQRkGcTwsBp3Y4HVK4Ce86rbQsIgwoZtXWBAKpUVfkkC5N", "width": 1000}], "place_id": "ChIJnbYsg_1D8jkRxehdvyqgdpw", "plus_code": {"compound_code": "4RQX+V5 Sheikhpura, Bihar, India", "global_code": "7MQ74RQX+V5"}, "rating": 3.3, "reference": "ChIJnbYsg_1D8jkRxehdvyqgdpw", "scope": "GOOGLE", "types": ["bank", "finance", "point_of_interest", "establishment"], "user_ratings_total": 11, "vicinity": "Neeraj Handloom Chandani Chowk, Cinema Rd, Sheikhpura"}, {"business_status": "OPERATIONAL", "geometry": {"location": {"lat": 25.1416161, "lng": 85.8510506}, "viewport": {"northeast": {"lat": 25.14293363029151, "lng": 85.85239813029149}, "southwest": {"lat": 25.14023566970851, "lng": 85.84970016970848}}}, "icon": "https://maps.gstatic.com/mapfiles/place_api/icons/v1/png_71/bank-71.png", "icon_background_color": "#909CE1", "icon_mask_base_uri": "https://maps.gstatic.com/mapfiles/place_api/icons/v2/bank-intl_pinlet", "name": "Deepak Lic", "place_id": "ChIJj6rn2rtB8jkR2IfZz-8rnCQ", "plus_code": {"compound_code": "4VR2+JC Sheikhpura, Bihar, India", "global_code": "7MQ74VR2+JC"}, "rating": 3, "reference": "ChIJj6rn2rtB8jkR2IfZz-8rnCQ", "scope": "GOOGLE", "types": ["bank", "finance", "point_of_interest", "establishment"], "user_ratings_total": 1, "vicinity": "Budhauli Katra Road, Sheikhpura"}, {"business_status": "OPERATIONAL", "geometry": {"location": {"lat": 25.1318139, "lng": 85.84558559999999}, "viewport": {"northeast": {"lat": 25.1331114302915, "lng": 85.8469465802915}, "southwest": {"lat": 25.13041346970849, "lng": 85.8442486197085}}}, "icon": "https://maps.gstatic.com/mapfiles/place_api/icons/v1/png_71/bank-71.png", "icon_background_color": "#909CE1", "icon_mask_base_uri": "https://maps.gstatic.com/mapfiles/place_api/icons/v2/bank-intl_pinlet", "name": "State Bank of India - A.D.B Branch", "opening_hours": {"open_now": true}, "place_id": "ChIJgfVTcP9D8jkR0rn-cQhiDXE", "plus_code": {"compound_code": "4RJW+P6 Sheikhpura, Bihar, India", "global_code": "7MQ74RJW+P6"}, "rating": 4.4, "reference": "ChIJgfVTcP9D8jkR0rn-cQhiDXE", "scope": "GOOGLE", "types": ["bank", "finance", "point_of_interest", "establishment"], "user_ratings_total": 5, "vicinity": "Station Road,MakadumpurSheikhpura,"}, {"business_status": "OPERATIONAL", "geometry": {"location": {"lat": 25.1340375, "lng": 85.8405306}, "viewport": {"northeast": {"lat": 25.1353291302915, "lng": 85.84175458029151}, "southwest": {"lat": 25.13263116970849, "lng": 85.8390566197085}}}, "icon": "https://maps.gstatic.com/mapfiles/place_api/icons/v1/png_71/bank-71.png", "icon_background_color": "#909CE1", "icon_mask_base_uri": "https://maps.gstatic.com/mapfiles/place_api/icons/v2/bank-intl_pinlet", "name": "ICICI BANK ATM", "opening_hours": {"open_now": true}, "place_id": "ChIJ_zLN_tZD8jkR17KOldMoVbg", "plus_code": {"compound_code": "4RMR+J6 Sheikhpura, Bihar, India", "global_code": "7MQ74RMR+J6"}, "reference": "ChIJ_zLN_tZD8jkR17KOldMoVbg", "scope": "GOOGLE", "types": ["bank", "finance", "point_of_interest", "establishment"], "vicinity": "State, Khandpar, Near Daal Kaun, PO & PS, Dist, Sheikhpura"}, {"business_status": "OPERATIONAL", "geometry": {"location": {"lat": 25.1356512, "lng": 85.8394924}, "viewport": {"northeast": {"lat": 25.1370079802915, "lng": 85.8408257302915}, "southwest": {"lat": 25.1343100197085, "lng": 85.83812776970848}}}, "icon": "https://maps.gstatic.com/mapfiles/place_api/icons/v1/png_71/generic_business-71.png", "icon_background_color": "#7B9EB0", "icon_mask_base_uri": "https://maps.gstatic.com/mapfiles/place_api/icons/v2/generic_pinlet", "name": "Deshbandhu Enterprises", "opening_hours": {"open_now": true}, "photos": [{"height": 553, "html_attributions": ["<a href=\"https://maps.google.com/maps/contrib/100463278633769637973\">Deshbandhu Enterprises</a>"], "photo_reference": "Aap_uEC_YvhmVCxCHshCXrczFbc9mVGfIZb7VTr-fx46L_EyZpR267GKbYDN80mIoYcGaTZ8TNjfFlXDF4DqInhiOKQ5opIVxLqoUFbyj5skUzy7t-m2peJjb8UH9zePXEG5eqGNmJ5YXFpTgaYuLhL_WqJw6AByeY1hIlEotcACaNmO20DB", "width": 922}], "place_id": "ChIJre3l7PlD8jkRe18WXf5cApY", "plus_code": {"compound_code": "4RPQ+7Q Sheikhpura, Bihar, India", "global_code": "7MQ74RPQ+7Q"}, "rating": 4.2, "reference": "ChIJre3l7PlD8jkRe18WXf5cApY", "scope": "GOOGLE", "types": ["bank", "accounting", "finance", "point_of_interest", "establishment"], "user_ratings_total": 11, "vicinity": "Deshbandhu Enterprises, Common Service Center Railtel Internet Provider, Khandpar, Sheikhpura"}, {"business_status": "OPERATIONAL", "geometry": {"location": {"lat": 25.1310748, "lng": 85.8419578}, "viewport": {"northeast": {"lat": 25.1324484802915, "lng": 85.84332543029151}, "southwest": {"lat": 25.1297505197085, "lng": 85.84062746970851}}}, "icon": "https://maps.gstatic.com/mapfiles/place_api/icons/v1/png_71/bank-71.png", "icon_background_color": "#909CE1", "icon_mask_base_uri": "https://maps.gstatic.com/mapfiles/place_api/icons/v2/bank-intl_pinlet", "name": "Patel Chowk Gramin Bank( Dallu Chowk)", "opening_hours": {"open_now": true}, "photos": [{"height": 4032, "html_attributions": ["<a href=\"https://maps.google.com/maps/contrib/100856489042666451744\">Abhishek Anmol</a>"], "photo_reference": "Aap_uECyl1liczSiWxIJVcsS49POQxkTn2zRwy13RwwXJBqKyPNeF424_XWkvWAZwNPmcOidF6zcTTEqfB8g6o72acQW3jSaMOPYA6OggnDKDFnSBHv3PHcAy4g-QdKlMqDzRwGEDB5uKZ95oFypistv28rkVxyF0GKPca9XHwKxuK7CxGLt", "width": 3024}], "place_id": "ChIJXUWWnvhD8jkR8nlhp_J1R9E", "plus_code": {"compound_code": "4RJR+CQ Sheikhpura, Bihar, India", "global_code": "7MQ74RJR+CQ"}, "rating": 3.2, "reference": "ChIJXUWWnvhD8jkR8nlhp_J1R9E", "scope": "GOOGLE", "types": ["bank", "finance", "point_of_interest", "establishment"], "user_ratings_total": 6, "vicinity": "Dallu Chowk, Station Road, Sheikhpura"}, {"business_status": "OPERATIONAL", "geometry": {"location": {"lat": 25.131072, "lng": 85.841955}, "viewport": {"northeast": {"lat": 25.1323967802915, "lng": 85.8432856302915}, "southwest": {"lat": 25.1296988197085, "lng": 85.8405876697085}}}, "icon": "https://maps.gstatic.com/mapfiles/place_api/icons/v1/png_71/bank-71.png", "icon_background_color": "#909CE1", "icon_mask_base_uri": "https://maps.gstatic.com/mapfiles/place_api/icons/v2/bank-intl_pinlet", "name": "Allahabad Bank", "place_id": "ChIJxaqXnvhD8jkRM9Zor2wM56g", "plus_code": {"compound_code": "4RJR+CQ Sheikhpura, Bihar, India", "global_code": "7MQ74RJR+CQ"}, "reference": "ChIJxaqXnvhD8jkRM9Zor2wM56g", "scope": "GOOGLE", "types": ["bank", "finance", "point_of_interest", "establishment"], "vicinity": "Dallu Chowk, DITT, Sheikhpura"}, {"business_status": "OPERATIONAL", "geometry": {"location": {"lat": 25.1310449, "lng": 85.8419532}, "viewport": {"northeast": {"lat": 25.1323929802915, "lng": 85.8432877802915}, "southwest": {"lat": 25.1296950197085, "lng": 85.8405898197085}}}, "icon": "https://maps.gstatic.com/mapfiles/place_api/icons/v1/png_71/bank-71.png", "icon_background_color": "#909CE1", "icon_mask_base_uri": "https://maps.gstatic.com/mapfiles/place_api/icons/v2/bank-intl_pinlet", "name": "Bihar Gramin Bank", "place_id": "ChIJr0-QnvhD8jkRgRnXqi5yuJg", "plus_code": {"compound_code": "4RJR+CQ Sheikhpura, Bihar, India", "global_code": "7MQ74RJR+CQ"}, "rating": 5, "reference": "ChIJr0-QnvhD8jkRgRnXqi5yuJg", "scope": "GOOGLE", "types": ["bank", "finance", "point_of_interest", "establishment"], "user_ratings_total": 2, "vicinity": "Dallu Chowk, Station Road, Sheikhpura"}, {"business_status": "OPERATIONAL", "geometry": {"location": {"lat": 25.139161, "lng": 85.8388786}, "viewport": {"northeast": {"lat": 25.1405036802915, "lng": 85.84022603029149}, "southwest": {"lat": 25.1378057197085, "lng": 85.83752806970848}}}, "icon": "https://maps.gstatic.com/mapfiles/place_api/icons/v1/png_71/bank-71.png", "icon_background_color": "#909CE1", "icon_mask_base_uri": "https://maps.gstatic.com/mapfiles/place_api/icons/v2/bank-intl_pinlet", "name": "Axis Bank", "opening_hours": {"open_now": true}, "photos": [{"height": 1920, "html_attributions": ["<a href=\"https://maps.google.com/maps/contrib/111892927301189848110\">Abdur Rab</a>"], "photo_reference": "Aap_uEC-Efr6BLV120FxzZpVzr7NPsbkyNwByC0H3pnBCImN1rlhZGl0LbUHpWYkojsBhEb7aKHvOvMyC_ViF2FOT2fAX51Qft2plzXp3QBCgmK5sAB0CZVdy99xgKIE0_4cpi9N1ctBFyP7eOScmAPnpg7lteZ4R-p_3VcXIv78Lt2mDhMy", "width": 1080}], "place_id": "ChIJZXo7fDFD8jkRuedddI4W2hU", "plus_code": {"compound_code": "4RQQ+MH Sheikhpura, Bihar, India", "global_code": "7MQ74RQQ+MH"}, "rating": 3.3, "reference": "ChIJZXo7fDFD8jkRuedddI4W2hU", "scope": "GOOGLE", "types": ["bank", "atm", "finance", "point_of_interest", "establishment"], "user_ratings_total": 6, "vicinity": "Khasra No 481, 482 & 486, Kashi Complex Khata No 10, 298 & 340, VIP Road"}, {"business_status": "OPERATIONAL", "geometry": {"location": {"lat": 25.128854, "lng": 85.843485}, "viewport": {"northeast": {"lat": 25.1302190302915, "lng": 85.8448637802915}, "southwest": {"lat": 25.1275210697085, "lng": 85.8421658197085}}}, "icon": "https://maps.gstatic.com/mapfiles/place_api/icons/v1/png_71/bank-71.png", "icon_background_color": "#909CE1", "icon_mask_base_uri": "https://maps.gstatic.com/mapfiles/place_api/icons/v2/bank-intl_pinlet", "name": "Bank Of Baroda", "opening_hours": {"open_now": true}, "photos": [{"height": 288, "html_attributions": ["<a href=\"https://maps.google.com/maps/contrib/111084505092055858848\">Bank Of Baroda</a>"], "photo_reference": "Aap_uEA8q_eLC_7oSxiWdUCjzn8rMkVK2BYC1aL4H_KPPR8FPewoT-8pH3tF2AD3ZugitrX7xa2k4KaF-o7ZWC4MWc0Zl4ALIQfbJIHp8MUqVIEXxV6yXR9AWHRuQRFtKvChpcclDLzpbqr0BgvfrdGeipjo9rsKwtNg2Wq65yznduUqT79D", "width": 512}], "place_id": "ChIJFepnHQdE8jkRv-7cdm3ymOg", "plus_code": {"compound_code": "4RHV+G9 Sheikhpura, Bihar, India", "global_code": "7MQ74RHV+G9"}, "rating": 4.3, "reference": "ChIJFepnHQdE8jkRv-7cdm3ymOg", "scope": "GOOGLE", "types": ["bank", "finance", "point_of_interest", "establishment"], "user_ratings_total": 3, "vicinity": "CHANDNI CHOWK, CINEMA RD NR COLLECTORATE"}], "status": "OK"}