{"html_attributions": [], "results": [{"business_status": "OPERATIONAL", "geometry": {"location": {"lat": 24.9161131, "lng": 86.5921884}, "viewport": {"northeast": {"lat": 24.9175636802915, "lng": 86.5933586802915}, "southwest": {"lat": 24.9148657197085, "lng": 86.5906607197085}}}, "icon": "https://maps.gstatic.com/mapfiles/place_api/icons/v1/png_71/bank-71.png", "icon_background_color": "#909CE1", "icon_mask_base_uri": "https://maps.gstatic.com/mapfiles/place_api/icons/v2/bank-intl_pinlet", "name": "Belher", "opening_hours": {"open_now": true}, "photos": [{"height": 1080, "html_attributions": ["<a href=\"https://maps.google.com/maps/contrib/103497445558923782318\">kumar unnat bhagat</a>"], "photo_reference": "Aap_uEBNFn9V6AmjJmQeCaj1jQjH7Xj2iKokqYPUV3Y1BXMOvJhAEKAx23JG6zn0usPtMtkcZo8ie9Tg2Ez3Zg-Mf_5kNO0ujDedQjmBmmq4_McBCvKAJ2Hl4bLEj6jxd2nVmzd-BO8cRqE8WNGpAD6HvWKb3nTxRVoVWtDIsxoY6O_1vD0q", "width": 1920}], "place_id": "ChIJ7UHdps2h8TkRmNSpb3DYmac", "rating": 3.3, "reference": "ChIJ7UHdps2h8TkRmNSpb3DYmac", "scope": "GOOGLE", "types": ["bank", "finance", "point_of_interest", "establishment"], "user_ratings_total": 7, "vicinity": "WH8R+CVW, Tola Bhatta"}, {"business_status": "OPERATIONAL", "geometry": {"location": {"lat": 24.9202554, "lng": 86.59501949999999}, "viewport": {"northeast": {"lat": 24.9216203302915, "lng": 86.5963458802915}, "southwest": {"lat": 24.9189223697085, "lng": 86.59364791970847}}}, "icon": "https://maps.gstatic.com/mapfiles/place_api/icons/v1/png_71/bank-71.png", "icon_background_color": "#909CE1", "icon_mask_base_uri": "https://maps.gstatic.com/mapfiles/place_api/icons/v2/bank-intl_pinlet", "name": "UCO Bank", "opening_hours": {"open_now": true}, "place_id": "ChIJQdOZt86h8TkRsVRvfe9nwio", "plus_code": {"compound_code": "WHCW+42 Belhar, Bihar, India", "global_code": "7MP8WHCW+42"}, "rating": 4.2, "reference": "ChIJQdOZt86h8TkRsVRvfe9nwio", "scope": "GOOGLE", "types": ["bank", "finance", "point_of_interest", "establishment"], "user_ratings_total": 6, "vicinity": "Tola Bhatta, Belhar"}, {"business_status": "OPERATIONAL", "geometry": {"location": {"lat": 24.92258199999999, "lng": 86.59318549999999}, "viewport": {"northeast": {"lat": 24.9239350802915, "lng": 86.59453833029151}, "southwest": {"lat": 24.9212371197085, "lng": 86.59184036970849}}}, "icon": "https://maps.gstatic.com/mapfiles/place_api/icons/v1/png_71/bank-71.png", "icon_background_color": "#909CE1", "icon_mask_base_uri": "https://maps.gstatic.com/mapfiles/place_api/icons/v2/bank-intl_pinlet", "name": "Sbi Csp Belhar", "opening_hours": {"open_now": false}, "photos": [{"height": 720, "html_attributions": ["<a href=\"https://maps.google.com/maps/contrib/114809029755002848934\">pawan kumar</a>"], "photo_reference": "Aap_uECoDwbJuwBF-04zZlloPJJoDGXSO8Kgj5CaVv96OsYtjN5yGqGpprVoq_oFgU3Tbd4zrPxi-RHZ9RECs-IFmyDt2Kz5vXy_Z79CBhitOaUplat_5v_Q331wK8yUjvrV3KTVjHksQ-A7ZF3TSkR_mMiAuLAz8y1cgTgADSGnAUQAjiR4", "width": 768}], "place_id": "ChIJdWd4CM-h8TkRmw8OysJ8cb4", "plus_code": {"compound_code": "WHFV+27 Tola Pandna, Bihar, India", "global_code": "7MP8WHFV+27"}, "rating": 5, "reference": "ChIJdWd4CM-h8TkRmw8OysJ8cb4", "scope": "GOOGLE", "types": ["bank", "finance", "point_of_interest", "establishment"], "user_ratings_total": 3, "vicinity": "Tola Pandna"}, {"business_status": "OPERATIONAL", "geometry": {"location": {"lat": 24.9223857, "lng": 86.59471429999999}, "viewport": {"northeast": {"lat": 24.9237213302915, "lng": 86.5961393802915}, "southwest": {"lat": 24.9210233697085, "lng": 86.59344141970848}}}, "icon": "https://maps.gstatic.com/mapfiles/place_api/icons/v1/png_71/bank-71.png", "icon_background_color": "#909CE1", "icon_mask_base_uri": "https://maps.gstatic.com/mapfiles/place_api/icons/v2/bank-intl_pinlet", "name": "gramin bank", "photos": [{"height": 2304, "html_attributions": ["<a href=\"https://maps.google.com/maps/contrib/103497445558923782318\">kumar unnat bhagat</a>"], "photo_reference": "Aap_uEAM7nq5FPv8qUWK61k_MtJyiyKG0P-ZJ_jLP8lyhWYPb7ynELvcnFu2R_BlUKxuLl8SxKG23zXnl_m0fUjnGdB39EdFOIUjC4gmwhqCdtPmzIuI5XLeAJ5tf3H1RA8PbFYm4X_rB0VVKXIfkjEVxSvExnlNF9yDdGusYAoO3yvATVFB", "width": 4096}], "place_id": "ChIJDz7fmsOh8TkREBE-JjCV7G8", "plus_code": {"compound_code": "WHCV+XV Belhar, Bihar, India", "global_code": "7MP8WHCV+XV"}, "rating": 4.2, "reference": "ChIJDz7fmsOh8TkREBE-JjCV7G8", "scope": "GOOGLE", "types": ["bank", "finance", "point_of_interest", "establishment"], "user_ratings_total": 9, "vicinity": "Gramin Bank, tola belhar,near sitla maa temple,813202, Deoghar Road, Belhar"}], "status": "OK"}