{"html_attributions": [], "results": [{"business_status": "OPERATIONAL", "geometry": {"location": {"lat": 24.6189829, "lng": 85.8882017}, "viewport": {"northeast": {"lat": 24.6203435802915, "lng": 85.88955518029152}, "southwest": {"lat": 24.61764561970849, "lng": 85.8868572197085}}}, "icon": "https://maps.gstatic.com/mapfiles/place_api/icons/v1/png_71/bank-71.png", "icon_background_color": "#909CE1", "icon_mask_base_uri": "https://maps.gstatic.com/mapfiles/place_api/icons/v2/bank-intl_pinlet", "name": "Allahabad Bank", "opening_hours": {"open_now": true}, "photos": [{"height": 4160, "html_attributions": ["<a href=\"https://maps.google.com/maps/contrib/103905449360293709036\">Aniket Shaw</a>"], "photo_reference": "Aap_uECyjj8r7iPZ2B5pOrUNjgjfoT6fDdMk34bWn-7QCbF8cpXanQq2gS6syO3lK8qHYFVAKLCHoj1HOV7RQ36kOXnnxXrsFLyz6WDK-KXpLbOa0D7_CaH0c9o_2TDmoEnaMhOVCkrpq0yIBnWlcNMbrqWlYKakuO0Ltzg-SGfKfofzyjuu", "width": 3120}], "place_id": "ChIJ-5UK6Ky58zkRxMmjwHuIIAg", "plus_code": {"compound_code": "JV9Q+H7 Gawan, Jharkhand, India", "global_code": "7MP7JV9Q+H7"}, "rating": 3, "reference": "ChIJ-5UK6Ky58zkRxMmjwHuIIAg", "scope": "GOOGLE", "types": ["bank", "atm", "finance", "point_of_interest", "establishment"], "user_ratings_total": 19, "vicinity": "Malda Main Road, Gawan"}, {"business_status": "OPERATIONAL", "geometry": {"location": {"lat": 24.6190498, "lng": 85.8882115}, "viewport": {"northeast": {"lat": 24.6204171302915, "lng": 85.8895184302915}, "southwest": {"lat": 24.6177191697085, "lng": 85.8868204697085}}}, "icon": "https://maps.gstatic.com/mapfiles/place_api/icons/v1/png_71/bank-71.png", "icon_background_color": "#909CE1", "icon_mask_base_uri": "https://maps.gstatic.com/mapfiles/place_api/icons/v2/bank-intl_pinlet", "name": "Allahabad Bank", "opening_hours": {"open_now": true}, "place_id": "ChIJc6np56y58zkRFXaprekYcWY", "plus_code": {"compound_code": "JV9Q+J7 Malda, Jharkhand, India", "global_code": "7MP7JV9Q+J7"}, "rating": 3.8, "reference": "ChIJc6np56y58zkRFXaprekYcWY", "scope": "GOOGLE", "types": ["bank", "atm", "finance", "point_of_interest", "establishment"], "user_ratings_total": 4, "vicinity": "Bank road, Malda"}, {"business_status": "OPERATIONAL", "geometry": {"location": {"lat": 24.6181788, "lng": 85.8857191}, "viewport": {"northeast": {"lat": 24.6194974802915, "lng": 85.8870546302915}, "southwest": {"lat": 24.6167995197085, "lng": 85.8843566697085}}}, "icon": "https://maps.gstatic.com/mapfiles/place_api/icons/v1/png_71/bank-71.png", "icon_background_color": "#909CE1", "icon_mask_base_uri": "https://maps.gstatic.com/mapfiles/place_api/icons/v2/bank-intl_pinlet", "name": "B.C.Allahabad Bank malda", "opening_hours": {"open_now": true}, "photos": [{"height": 1080, "html_attributions": ["<a href=\"https://maps.google.com/maps/contrib/110274606918731316371\">Sandeep Kumar</a>"], "photo_reference": "Aap_uEBRu4eEG5cc3eBJ1PCfiHF8_yZfYZvsIGdnAGrVICGddExZk2fOoHE93rKsWOU8a4ZOYyjdfrAAKpRgkP0uwGAWxIsqJ2i-B4kT-5o_1lg8DRvAYMit42_2Ku1NRMkLlZ-l3z7PUgMSJXJKsB6tWSNtGlukMRqMhJOsfH5b1E3d4E3C", "width": 1920}], "place_id": "ChIJ6ztkOqC58zkRmggpJCaDnzs", "plus_code": {"compound_code": "JV9P+77 Malda, Jharkhand, India", "global_code": "7MP7JV9P+77"}, "rating": 5, "reference": "ChIJ6ztkOqC58zkRmggpJCaDnzs", "scope": "GOOGLE", "types": ["bank", "finance", "point_of_interest", "establishment"], "user_ratings_total": 1, "vicinity": "Malda"}, {"business_status": "OPERATIONAL", "geometry": {"location": {"lat": 24.614185, "lng": 85.90234}, "viewport": {"northeast": {"lat": 24.6158522802915, "lng": 85.90370998029151}, "southwest": {"lat": 24.6131543197085, "lng": 85.90101201970849}}}, "icon": "https://maps.gstatic.com/mapfiles/place_api/icons/v1/png_71/bank-71.png", "icon_background_color": "#909CE1", "icon_mask_base_uri": "https://maps.gstatic.com/mapfiles/place_api/icons/v2/bank-intl_pinlet", "name": "INDIAN BANK", "place_id": "ChIJIQAAAFm48zkRiZriO6FHKR0", "plus_code": {"compound_code": "JW72+MW Patna, Jharkhand, India", "global_code": "7MP7JW72+MW"}, "rating": 1, "reference": "ChIJIQAAAFm48zkRiZriO6FHKR0", "scope": "GOOGLE", "types": ["bank", "atm", "finance", "point_of_interest", "establishment"], "user_ratings_total": 1, "vicinity": "in front of C M R FACTORY, FIRST FLOOR,KALI MANDA ROAD, in front of C M R FACTORY"}], "status": "OK"}