{"html_attributions": [], "results": [{"business_status": "OPERATIONAL", "geometry": {"location": {"lat": 24.9379424, "lng": 86.21817329999999}, "viewport": {"northeast": {"lat": 24.9393027302915, "lng": 86.21941148029151}, "southwest": {"lat": 24.9366047697085, "lng": 86.21671351970849}}}, "icon": "https://maps.gstatic.com/mapfiles/place_api/icons/v1/png_71/hospital-71.png", "icon_background_color": "#F88181", "icon_mask_base_uri": "https://maps.gstatic.com/mapfiles/place_api/icons/v2/hospital-H_pinlet", "name": "PATNA CLINIC", "opening_hours": {"open_now": true}, "photos": [{"height": 4032, "html_attributions": ["<a href=\"https://maps.google.com/maps/contrib/115685499836108308819\">Sanny Komal</a>"], "photo_reference": "Aap_uEAGv4hMOs_6ZKM5WGh4JV5mS7fo9mij_oKV0vAT0tOJYQasz3DFe-yfLmh6CMcEbZyPYu_pzckjMcWmJL6IkeEBWnjdIqawrupcYCZcbFa9VwlZUSPGh0dv09MSOeTd2fkNgdOXhKaqUCwfWqpU2Z5R5tjq2oujcx-JvKfrAbSKQe8e", "width": 3024}], "place_id": "ChIJlRfE9DIq8jkR-g4sAvTYi-A", "rating": 2.8, "reference": "ChIJlRfE9DIq8jkR-g4sAvTYi-A", "scope": "GOOGLE", "types": ["hospital", "health", "point_of_interest", "establishment"], "user_ratings_total": 4, "vicinity": "W6Q9+57F, Patliputra Colony, Jamui"}, {"business_status": "OPERATIONAL", "geometry": {"location": {"lat": 24.937806, "lng": 86.2297902}, "viewport": {"northeast": {"lat": 24.9391926802915, "lng": 86.2310064302915}, "southwest": {"lat": 24.9364947197085, "lng": 86.2283084697085}}}, "icon": "https://maps.gstatic.com/mapfiles/place_api/icons/v1/png_71/hospital-71.png", "icon_background_color": "#F88181", "icon_mask_base_uri": "https://maps.gstatic.com/mapfiles/place_api/icons/v2/hospital-H_pinlet", "name": "Maa Jagdamba Clinic, Jamui", "opening_hours": {"open_now": false}, "photos": [{"height": 1032, "html_attributions": ["<a href=\"https://maps.google.com/maps/contrib/112444306258777693952\">Maa Jagdamba Clinic, Jamui</a>"], "photo_reference": "Aap_uEDIaZmO_oBEyY5-1vcGEFwCqAMmUeyTvFWs862Bn6p77jwRRgwqzSxthWH60LVYoPhdsQv-3nbr0dIUq-R69V8xzWS-za0CcWRM3DmyoP46xeXtNFbHq2FA7AcEe1CJblcVmN_WQy2OlqgvC3apujxhX3LzyFevufdfBznNdBY5Dev3", "width": 774}], "place_id": "ChIJ3_JK5yMq8jkRntyzxu1BpI8", "plus_code": {"compound_code": "W6QH+4W Jamui, Bihar, India", "global_code": "7MP8W6QH+4W"}, "rating": 4.1, "reference": "ChIJ3_JK5yMq8jkRntyzxu1BpI8", "scope": "GOOGLE", "types": ["hospital", "health", "point_of_interest", "establishment"], "user_ratings_total": 22, "vicinity": "Shastri Colony ,Station Road, Jamui, Jamui"}, {"business_status": "OPERATIONAL", "geometry": {"location": {"lat": 24.9396681, "lng": 86.23042679999999}, "viewport": {"northeast": {"lat": 24.9410547802915, "lng": 86.2316397302915}, "southwest": {"lat": 24.9383568197085, "lng": 86.2289417697085}}}, "icon": "https://maps.gstatic.com/mapfiles/place_api/icons/v1/png_71/hospital-71.png", "icon_background_color": "#F88181", "icon_mask_base_uri": "https://maps.gstatic.com/mapfiles/place_api/icons/v2/hospital-H_pinlet", "name": "Saurav X~Ray, Maa Jugdamba Clinic", "opening_hours": {"open_now": true}, "place_id": "ChIJsSRlTTsq8jkR6EoJYJS8acQ", "plus_code": {"compound_code": "W6QJ+V5 Jamui, Bihar, India", "global_code": "7MP8W6QJ+V5"}, "rating": 5, "reference": "ChIJsSRlTTsq8jkR6EoJYJS8acQ", "scope": "GOOGLE", "types": ["hospital", "health", "point_of_interest", "establishment"], "user_ratings_total": 1, "vicinity": "station road, Shastri Colony"}, {"business_status": "OPERATIONAL", "geometry": {"location": {"lat": 24.9355488, "lng": 86.22704189999999}, "viewport": {"northeast": {"lat": 24.9368988802915, "lng": 86.2283911302915}, "southwest": {"lat": 24.9342009197085, "lng": 86.22569316970849}}}, "icon": "https://maps.gstatic.com/mapfiles/place_api/icons/v1/png_71/generic_business-71.png", "icon_background_color": "#7B9EB0", "icon_mask_base_uri": "https://maps.gstatic.com/mapfiles/place_api/icons/v2/generic_pinlet", "name": "JAMUI STONE CLINIC ( Dr Nagendra Kumar )", "opening_hours": {"open_now": true}, "place_id": "ChIJd7mJNYQr8jkRxSffK3ZzL-g", "plus_code": {"compound_code": "W6PG+6R Jamui, Bihar, India", "global_code": "7MP8W6PG+6R"}, "rating": 5, "reference": "ChIJd7mJNYQr8jkRxSffK3ZzL-g", "scope": "GOOGLE", "types": ["hospital", "health", "point_of_interest", "establishment"], "user_ratings_total": 6, "vicinity": "in front of Park, Near Jhajha Bus Stand, in front of Park, Jamui"}, {"business_status": "OPERATIONAL", "geometry": {"location": {"lat": 24.9337336, "lng": 86.2268507}, "viewport": {"northeast": {"lat": 24.9350094302915, "lng": 86.22817623029151}, "southwest": {"lat": 24.9323114697085, "lng": 86.2254782697085}}}, "icon": "https://maps.gstatic.com/mapfiles/place_api/icons/v1/png_71/hospital-71.png", "icon_background_color": "#F88181", "icon_mask_base_uri": "https://maps.gstatic.com/mapfiles/place_api/icons/v2/hospital-H_pinlet", "name": "Dr Anjani Sinha", "photos": [{"height": 4224, "html_attributions": ["<a href=\"https://maps.google.com/maps/contrib/103162877062480619782\">Abhinav Straw</a>"], "photo_reference": "Aap_uED3xp1MyEPvM8FTcljO02i5EedkmBAkpmyS8uXfoHl9by79AlzE0ZtXeYD7bkiumKm4JRGsLlwI8k16dL_aBc8noYB0JYN6_2DfHxzFAGMKYZTeZBOzriOk7P64M8gVgCPpvR3ga9o9XoqRIKPKITLUm-_unbQkpPxvE5-cZ-lxLKqC", "width": 2368}], "place_id": "ChIJRY8h3u8r8jkRUoH1Sryz2BI", "plus_code": {"compound_code": "W6MG+FP Jamui, Bihar, India", "global_code": "7MP8W6MG+FP"}, "rating": 2.5, "reference": "ChIJRY8h3u8r8jkRUoH1Sryz2BI", "scope": "GOOGLE", "types": ["hospital", "health", "point_of_interest", "establishment"], "user_ratings_total": 6, "vicinity": "Anand Vihar Colony"}, {"business_status": "OPERATIONAL", "geometry": {"location": {"lat": 24.93942699999999, "lng": 86.2244676}, "viewport": {"northeast": {"lat": 24.9407484802915, "lng": 86.22580118029151}, "southwest": {"lat": 24.9380505197085, "lng": 86.2231032197085}}}, "icon": "https://maps.gstatic.com/mapfiles/place_api/icons/v1/png_71/hospital-71.png", "icon_background_color": "#F88181", "icon_mask_base_uri": "https://maps.gstatic.com/mapfiles/place_api/icons/v2/hospital-H_pinlet", "name": "Archana Medico", "photos": [{"height": 2048, "html_attributions": ["<a href=\"https://maps.google.com/maps/contrib/105577493684865078711\">Archana Medico</a>"], "photo_reference": "Aap_uEAneAjgXarm2Smc2yiQBWWdfmQDEaHnBzxt1XHbyK6iWMfnzMaVuUrmO3CYn0etS6wMIUfA2zhP5tSyGcH51cKztv3BKnmPS8NbvloHQiNVbWgzeIEdnclPJ-F2xolUzGkHFaohUva3-8I0Iy6rOGy_uwUE3SYTRgCbo9BaGNIfoX2s", "width": 1819}], "place_id": "ChIJ8bU8oE8q8jkR-zyvI8HcZcw", "plus_code": {"compound_code": "W6QF+QQ Jamui, Bihar, India", "global_code": "7MP8W6QF+QQ"}, "rating": 5, "reference": "ChIJ8bU8oE8q8jkR-zyvI8HcZcw", "scope": "GOOGLE", "types": ["hospital", "health", "point_of_interest", "establishment"], "user_ratings_total": 4, "vicinity": "At - Sirchand Nawada, KKM College Road, Jamui, Near Primary School, Sirchand Nawada, Jamui"}, {"business_status": "OPERATIONAL", "geometry": {"location": {"lat": 24.9323642, "lng": 86.22803590000001}, "viewport": {"northeast": {"lat": 24.93383628029151, "lng": 86.2294235302915}, "southwest": {"lat": 24.9311383197085, "lng": 86.22672556970849}}}, "icon": "https://maps.gstatic.com/mapfiles/place_api/icons/v1/png_71/hospital-71.png", "icon_background_color": "#F88181", "icon_mask_base_uri": "https://maps.gstatic.com/mapfiles/place_api/icons/v2/hospital-H_pinlet", "name": "Dr. Nibha Sinha Clinic", "opening_hours": {"open_now": true}, "photos": [{"height": 2560, "html_attributions": ["<a href=\"https://maps.google.com/maps/contrib/116133137614276249880\">Deepak kumar</a>"], "photo_reference": "Aap_uECsL_a9JMNwQCMRbIUjF8-9Z7u1U0igaCuUhTCYz4WFLs0DYKPfkOAZwfgCfOIo0IvDPBNT_yKeSJK_m76W4yN-ZbTeQhn2DpJQZ22a02GgTQexnH66AEIbsCcpxn4EaLiukQwTZ46O4FxYfUS2Kh8pYMCqSu9nuWRMNCqjtGBxAcib", "width": 1920}], "place_id": "ChIJ1XBwmDkq8jkRFGTa1VI_qZM", "plus_code": {"compound_code": "W6JH+W6 Jamui, Bihar, India", "global_code": "7MP8W6JH+W6"}, "rating": 4.5, "reference": "ChIJ1XBwmDkq8jkRFGTa1VI_qZM", "scope": "GOOGLE", "types": ["hospital", "health", "point_of_interest", "establishment"], "user_ratings_total": 2, "vicinity": "Near Jamui, Bihar, Doctor Bhapkar Marg, Basant Bahar, Aurangabad"}, {"business_status": "OPERATIONAL", "geometry": {"location": {"lat": 24.931583, "lng": 86.22471689999999}, "viewport": {"northeast": {"lat": 24.9329346802915, "lng": 86.2260572302915}, "southwest": {"lat": 24.9302367197085, "lng": 86.2233592697085}}}, "icon": "https://maps.gstatic.com/mapfiles/place_api/icons/v1/png_71/hospital-71.png", "icon_background_color": "#F88181", "icon_mask_base_uri": "https://maps.gstatic.com/mapfiles/place_api/icons/v2/hospital-H_pinlet", "name": "Max Care Road", "place_id": "ChIJ4eN3O5Mr8jkRTRA7FXPm6sw", "plus_code": {"compound_code": "W6JF+JV Jamui, Bihar, India", "global_code": "7MP8W6JF+JV"}, "rating": 3.5, "reference": "ChIJ4eN3O5Mr8jkRTRA7FXPm6sw", "scope": "GOOGLE", "types": ["hospital", "health", "point_of_interest", "establishment"], "user_ratings_total": 4, "vicinity": "Near Lic Road New Bypass, Road, Jamui"}, {"business_status": "OPERATIONAL", "geometry": {"location": {"lat": 24.9315933, "lng": 86.2237981}, "viewport": {"northeast": {"lat": 24.9329419802915, "lng": 86.22514853029152}, "southwest": {"lat": 24.9302440197085, "lng": 86.22245056970851}}}, "icon": "https://maps.gstatic.com/mapfiles/place_api/icons/v1/png_71/hospital-71.png", "icon_background_color": "#F88181", "icon_mask_base_uri": "https://maps.gstatic.com/mapfiles/place_api/icons/v2/hospital-H_pinlet", "name": "R K Haddi Asptal", "opening_hours": {"open_now": true}, "photos": [{"height": 1920, "html_attributions": ["<a href=\"https://maps.google.com/maps/contrib/118079896278259488220\">Ajeet Varma</a>"], "photo_reference": "Aap_uEABVByULU6DjLjbBd12H_QPbUuhXuW3REotOuNWvwk-KBdU4vaA-Vw9i38ESSVULYSBz78zpG_WifSVkNX_fiVzAaJcSc4JtpBJY4r1SwGy6NxqgyMW9OixlosA9KXmQrt8VQd9yimBN5wOUz8XUrL2naW1wd65mYzOFs2ETKXj41pV", "width": 1080}], "place_id": "ChIJs1NgGzcq8jkR_hlSZz-nUB4", "plus_code": {"compound_code": "W6JF+JG Jamui, Bihar, India", "global_code": "7MP8W6JF+JG"}, "rating": 4.4, "reference": "ChIJs1NgGzcq8jkR_hlSZz-nUB4", "scope": "GOOGLE", "types": ["hospital", "health", "point_of_interest", "establishment"], "user_ratings_total": 10, "vicinity": "near LIC Office, Bypass Road Mahisori, near LIC Office, Jamui"}, {"business_status": "OPERATIONAL", "geometry": {"location": {"lat": 24.932205, "lng": 86.2225079}, "viewport": {"northeast": {"lat": 24.9334424802915, "lng": 86.22382453029151}, "southwest": {"lat": 24.9307445197085, "lng": 86.22112656970849}}}, "icon": "https://maps.gstatic.com/mapfiles/place_api/icons/v1/png_71/hospital-71.png", "icon_background_color": "#F88181", "icon_mask_base_uri": "https://maps.gstatic.com/mapfiles/place_api/icons/v2/hospital-H_pinlet", "name": "Dr. Lalit Singh Clinic", "opening_hours": {"open_now": true}, "place_id": "ChIJIUn-wTYq8jkRBdL6EElb2vc", "rating": 2.9, "reference": "ChIJIUn-wTYq8jkRBdL6EElb2vc", "scope": "GOOGLE", "types": ["hospital", "health", "point_of_interest", "establishment"], "user_ratings_total": 17, "vicinity": "W6JF+V2J, Jamui"}, {"business_status": "OPERATIONAL", "geometry": {"location": {"lat": 24.927766, "lng": 86.23034059999999}, "viewport": {"northeast": {"lat": 24.9291261302915, "lng": 86.2316543802915}, "southwest": {"lat": 24.92642816970849, "lng": 86.22895641970848}}}, "icon": "https://maps.gstatic.com/mapfiles/place_api/icons/v1/png_71/hospital-71.png", "icon_background_color": "#F88181", "icon_mask_base_uri": "https://maps.gstatic.com/mapfiles/place_api/icons/v2/hospital-H_pinlet", "name": "Bhartiya clinic", "opening_hours": {"open_now": true}, "place_id": "ChIJt8lgIlAr8jkRzDfMOswtC_E", "rating": 5, "reference": "ChIJt8lgIlAr8jkRzDfMOswtC_E", "scope": "GOOGLE", "types": ["hospital", "health", "point_of_interest", "establishment"], "user_ratings_total": 1, "vicinity": "W6HJ+444, Kalyanpur, Jamui"}, {"business_status": "OPERATIONAL", "geometry": {"location": {"lat": 24.9326352, "lng": 86.220044}, "viewport": {"northeast": {"lat": 24.9339535802915, "lng": 86.2213835802915}, "southwest": {"lat": 24.9312556197085, "lng": 86.2186856197085}}}, "icon": "https://maps.gstatic.com/mapfiles/place_api/icons/v1/png_71/hospital-71.png", "icon_background_color": "#F88181", "icon_mask_base_uri": "https://maps.gstatic.com/mapfiles/place_api/icons/v2/hospital-H_pinlet", "name": "Dr. Manju Chauhan Clinic", "opening_hours": {"open_now": true}, "photos": [{"height": 1920, "html_attributions": ["<a href=\"https://maps.google.com/maps/contrib/109497451513605472369\">Dharmendra kumar</a>"], "photo_reference": "Aap_uEDdkZoLRJZcX4Gje_2iHR85WT_jIlz3VkM57iDbaI5FanOEH9bQjNSB5QZCB7E3ajIASyElbSo4Ae7dgJ8FTYLAR5vmzAKNw-zHCE7Wt5YDWu56sC7Fm7tUdOx03EyIBnWFkYZlOZ0p1_c_CTHei7u2cc2n0wsbYsEyxLJX0ZocaJa6", "width": 1080}], "place_id": "ChIJi7ZtETQq8jkRNjMnANWPpBo", "plus_code": {"compound_code": "W6MC+32 Jamui, Bihar, India", "global_code": "7MP8W6MC+32"}, "rating": 3.8, "reference": "ChIJi7ZtETQq8jkRNjMnANWPpBo", "scope": "GOOGLE", "types": ["hospital", "health", "point_of_interest", "establishment"], "user_ratings_total": 19, "vicinity": "Patliputra Colony, Jamui"}, {"business_status": "OPERATIONAL", "geometry": {"location": {"lat": 24.9325647, "lng": 86.21962510000002}, "viewport": {"northeast": {"lat": 24.93396473029151, "lng": 86.22098923029152}, "southwest": {"lat": 24.9312667697085, "lng": 86.21829126970852}}}, "icon": "https://maps.gstatic.com/mapfiles/place_api/icons/v1/png_71/hospital-71.png", "icon_background_color": "#F88181", "icon_mask_base_uri": "https://maps.gstatic.com/mapfiles/place_api/icons/v2/hospital-H_pinlet", "name": "Dr S N Jha Niwas", "place_id": "ChIJx6YUFxwr8jkR8b2N_qRGBI4", "plus_code": {"compound_code": "W6M9+2V Jamui, Bihar, India", "global_code": "7MP8W6M9+2V"}, "rating": 5, "reference": "ChIJx6YUFxwr8jkR8b2N_qRGBI4", "scope": "GOOGLE", "types": ["hospital", "health", "point_of_interest", "establishment"], "user_ratings_total": 1, "vicinity": "National Highway 333, Jamui"}, {"business_status": "OPERATIONAL", "geometry": {"location": {"lat": 24.9337309, "lng": 86.2187247}, "viewport": {"northeast": {"lat": 24.9350821302915, "lng": 86.2200820302915}, "southwest": {"lat": 24.9323841697085, "lng": 86.21738406970849}}}, "icon": "https://maps.gstatic.com/mapfiles/place_api/icons/v1/png_71/hospital-71.png", "icon_background_color": "#F88181", "icon_mask_base_uri": "https://maps.gstatic.com/mapfiles/place_api/icons/v2/hospital-H_pinlet", "name": "Dr Balendra Kr Hospital", "place_id": "ChIJ78UthzMq8jkRV76rcMG4a8Q", "reference": "ChIJ78UthzMq8jkRV76rcMG4a8Q", "scope": "GOOGLE", "types": ["hospital", "health", "point_of_interest", "establishment"], "vicinity": "W6M9+FFX, Jamui"}, {"business_status": "OPERATIONAL", "geometry": {"location": {"lat": 24.933719, "lng": 86.2186737}, "viewport": {"northeast": {"lat": 24.9350806302915, "lng": 86.22006863029151}, "southwest": {"lat": 24.9323826697085, "lng": 86.2173706697085}}}, "icon": "https://maps.gstatic.com/mapfiles/place_api/icons/v1/png_71/hospital-71.png", "icon_background_color": "#F88181", "icon_mask_base_uri": "https://maps.gstatic.com/mapfiles/place_api/icons/v2/hospital-H_pinlet", "name": "JeavanTea Store", "place_id": "ChIJg93PgDMq8jkR5CVWSbSCpEw", "plus_code": {"compound_code": "W6M9+FF Jamui, Bihar, India", "global_code": "7MP8W6M9+FF"}, "reference": "ChIJg93PgDMq8jkR5CVWSbSCpEw", "scope": "GOOGLE", "types": ["hospital", "health", "point_of_interest", "establishment"], "vicinity": "Jamui - Lakhisarai State Highway, Krishnapatti, Jamui"}, {"business_status": "OPERATIONAL", "geometry": {"location": {"lat": 24.9336722, "lng": 86.2185792}, "viewport": {"northeast": {"lat": 24.9350476802915, "lng": 86.22002458029151}, "southwest": {"lat": 24.9323497197085, "lng": 86.21732661970849}}}, "icon": "https://maps.gstatic.com/mapfiles/place_api/icons/v1/png_71/hospital-71.png", "icon_background_color": "#F88181", "icon_mask_base_uri": "https://maps.gstatic.com/mapfiles/place_api/icons/v2/hospital-H_pinlet", "name": "\u0921\u0949 \u092c\u0932\u0935\u0947\u0902\u0926\u094d\u0930 \u0915\u094d\u0932\u0940\u0928\u093f\u0915", "opening_hours": {"open_now": true}, "place_id": "ChIJuTxnuWwr8jkROp0_hf0ayZU", "reference": "ChIJuTxnuWwr8jkROp0_hf0ayZU", "scope": "GOOGLE", "types": ["hospital", "health", "point_of_interest", "establishment"], "vicinity": "W6M9+FC8, Jamui"}, {"business_status": "OPERATIONAL", "geometry": {"location": {"lat": 24.9275286, "lng": 86.2252977}, "viewport": {"northeast": {"lat": 24.92886918029151, "lng": 86.2266721302915}, "southwest": {"lat": 24.9261712197085, "lng": 86.22397416970848}}}, "icon": "https://maps.gstatic.com/mapfiles/place_api/icons/v1/png_71/hospital-71.png", "icon_background_color": "#F88181", "icon_mask_base_uri": "https://maps.gstatic.com/mapfiles/place_api/icons/v2/hospital-H_pinlet", "name": "Godawari Nursing Home", "place_id": "ChIJj6Up75sr8jkR1eri20v9azA", "rating": 1, "reference": "ChIJj6Up75sr8jkR1eri20v9azA", "scope": "GOOGLE", "types": ["hospital", "health", "point_of_interest", "establishment"], "user_ratings_total": 1, "vicinity": "W6HG+247, Krishnapatti, Jamui"}, {"business_status": "OPERATIONAL", "geometry": {"location": {"lat": 24.9324144, "lng": 86.21897039999999}, "viewport": {"northeast": {"lat": 24.9337933802915, "lng": 86.22043093029151}, "southwest": {"lat": 24.9310954197085, "lng": 86.21773296970849}}}, "icon": "https://maps.gstatic.com/mapfiles/place_api/icons/v1/png_71/hospital-71.png", "icon_background_color": "#F88181", "icon_mask_base_uri": "https://maps.gstatic.com/mapfiles/place_api/icons/v2/hospital-H_pinlet", "name": "Dr s n jh", "opening_hours": {"open_now": false}, "photos": [{"height": 2250, "html_attributions": ["<a href=\"https://maps.google.com/maps/contrib/116639110931294106177\">pankaj kumar</a>"], "photo_reference": "Aap_uEB0IHEYGEpRNhKnT3y1twpZlEhz5e9coR6grWw7FS3qUCyNC0hBM-xcCNOa7Mp_ImxUmdMRcKIJLFiP2F6mspFnw8or6ZLJYQPpnAMdy3qQC4v52UGzpyMmXLwll6VZGByz-r1Jie4shKUFCGxExCsxSPRRQc1zoCH221lTqNDhDiql", "width": 4000}], "place_id": "ChIJabrv1HQr8jkR6jqOg2xNdj4", "rating": 5, "reference": "ChIJabrv1HQr8jkR6jqOg2xNdj4", "scope": "GOOGLE", "types": ["hospital", "health", "point_of_interest", "establishment"], "user_ratings_total": 1, "vicinity": "W6J9+XH9, Jamui"}, {"business_status": "OPERATIONAL", "geometry": {"location": {"lat": 24.9262494, "lng": 86.2266531}, "viewport": {"northeast": {"lat": 24.9275974802915, "lng": 86.2280006302915}, "southwest": {"lat": 24.9248995197085, "lng": 86.22530266970848}}}, "icon": "https://maps.gstatic.com/mapfiles/place_api/icons/v1/png_71/hospital-71.png", "icon_background_color": "#F88181", "icon_mask_base_uri": "https://maps.gstatic.com/mapfiles/place_api/icons/v2/hospital-H_pinlet", "name": "DR.GAURAV KUMAR, R.K.M SEWA SADAN", "opening_hours": {"open_now": false}, "photos": [{"height": 2752, "html_attributions": ["<a href=\"https://maps.google.com/maps/contrib/104507879516755215803\">gaurav kumar</a>"], "photo_reference": "Aap_uED7Q9d4zcXp8XvjqhsdnJncuEpA140e_vsxkQM0JBLEQiGHY0QyfWSKU7hpPRw-ZXrKg0NIcgI5HHSVlgUzD1WehhGp7ukg0-2QD42CngOz6u-IbFU1FwJ2NqkVnuc2Ef02oObqZnOTEHyMRfmCAo0Q5IUE9PhD8pUlttUDiw-Tqa6C", "width": 5664}], "place_id": "ChIJyeYD2Ogr8jkRmZgzgj_J0bc", "plus_code": {"compound_code": "W6GG+FM Jamui, Bihar, India", "global_code": "7MP8W6GG+FM"}, "rating": 5, "reference": "ChIJyeYD2Ogr8jkRmZgzgj_J0bc", "scope": "GOOGLE", "types": ["hospital", "health", "point_of_interest", "establishment"], "user_ratings_total": 6, "vicinity": "Kalyanpur, Jamui"}, {"business_status": "OPERATIONAL", "geometry": {"location": {"lat": 24.9262659, "lng": 86.2265406}, "viewport": {"northeast": {"lat": 24.9276532302915, "lng": 86.22791583029151}, "southwest": {"lat": 24.9249552697085, "lng": 86.2252178697085}}}, "icon": "https://maps.gstatic.com/mapfiles/place_api/icons/v1/png_71/hospital-71.png", "icon_background_color": "#F88181", "icon_mask_base_uri": "https://maps.gstatic.com/mapfiles/place_api/icons/v2/hospital-H_pinlet", "name": "Dhanvantari Aushadhalaya", "photos": [{"height": 1080, "html_attributions": ["<a href=\"https://maps.google.com/maps/contrib/118263840738895426449\">Suman Sourabh</a>"], "photo_reference": "Aap_uEAh8F_vqszRWz0EpO6roLaZCGpP2zrTLK-MqIHuguXxpcd7cRp5Ax4e1slnqtRQ4ZYUUhy_6pnmtAk4ohrypdz_pNUw3P0_l8Vg5Dv6oHNqT6WpqhZBFz2Fcd-FbTJitf7REbwDWYS3OsTre4vLkmRpbnCRiqhsfRgddRN1Xu0XbnjA", "width": 1920}], "place_id": "ChIJg3dmotIr8jkR62B6HOPIyQo", "rating": 5, "reference": "ChIJg3dmotIr8jkR62B6HOPIyQo", "scope": "GOOGLE", "types": ["hospital", "health", "point_of_interest", "establishment"], "user_ratings_total": 7, "vicinity": "W6GG+GJ3, Janak Singh Colony, Jamui"}], "status": "OK"}