{"html_attributions": [], "results": [{"business_status": "OPERATIONAL", "geometry": {"location": {"lat": 24.68747029999999, "lng": 86.5545506}, "viewport": {"northeast": {"lat": 24.6887783302915, "lng": 86.55590118029151}, "southwest": {"lat": 24.6860803697085, "lng": 86.5532032197085}}}, "icon": "https://maps.gstatic.com/mapfiles/place_api/icons/v1/png_71/hospital-71.png", "icon_background_color": "#F88181", "icon_mask_base_uri": "https://maps.gstatic.com/mapfiles/place_api/icons/v2/hospital-H_pinlet", "name": "Matri Vrinda chikitsa kendra", "place_id": "ChIJMYb5kk9z8TkRVQShJN9Q7WU", "plus_code": {"compound_code": "MHP3+XR Telwa Bazar, Bihar, India", "global_code": "7MP8MHP3+XR"}, "reference": "ChIJMYb5kk9z8TkRVQShJN9Q7WU", "scope": "GOOGLE", "types": ["hospital", "health", "point_of_interest", "establishment"], "vicinity": "Telwa Bazar"}, {"business_status": "OPERATIONAL", "geometry": {"location": {"lat": 24.6874228, "lng": 86.5557771}, "viewport": {"northeast": {"lat": 24.68862273029151, "lng": 86.5570675802915}, "southwest": {"lat": 24.6859247697085, "lng": 86.5543696197085}}}, "icon": "https://maps.gstatic.com/mapfiles/place_api/icons/v1/png_71/hospital-71.png", "icon_background_color": "#F88181", "icon_mask_base_uri": "https://maps.gstatic.com/mapfiles/place_api/icons/v2/hospital-H_pinlet", "name": "Homeio clinic", "place_id": "ChIJvd12wrVz8TkRFxChTCnpqQ8", "reference": "ChIJvd12wrVz8TkRFxChTCnpqQ8", "scope": "GOOGLE", "types": ["hospital", "health", "point_of_interest", "establishment"], "vicinity": "MHP4+X86, Telwa Bazar"}, {"business_status": "OPERATIONAL", "geometry": {"location": {"lat": 24.688722, "lng": 86.55570159999999}, "viewport": {"northeast": {"lat": 24.69004588029151, "lng": 86.5570909302915}, "southwest": {"lat": 24.6873479197085, "lng": 86.55439296970849}}}, "icon": "https://maps.gstatic.com/mapfiles/place_api/icons/v1/png_71/hospital-71.png", "icon_background_color": "#F88181", "icon_mask_base_uri": "https://maps.gstatic.com/mapfiles/place_api/icons/v2/hospital-H_pinlet", "name": "New medicals", "place_id": "ChIJBYQ2yyhz8TkR7fy8UtI9ylA", "reference": "ChIJBYQ2yyhz8TkR7fy8UtI9ylA", "scope": "GOOGLE", "types": ["hospital", "health", "point_of_interest", "establishment"], "vicinity": "MHQ4+F7P, Telwa Bazar"}, {"business_status": "OPERATIONAL", "geometry": {"location": {"lat": 24.6900587, "lng": 86.5532994}, "viewport": {"northeast": {"lat": 24.69143178029151, "lng": 86.55465063029152}, "southwest": {"lat": 24.6887338197085, "lng": 86.5519526697085}}}, "icon": "https://maps.gstatic.com/mapfiles/place_api/icons/v1/png_71/hospital-71.png", "icon_background_color": "#F88181", "icon_mask_base_uri": "https://maps.gstatic.com/mapfiles/place_api/icons/v2/hospital-H_pinlet", "name": "Prathmik upchar kendra, telwa bazar", "place_id": "ChIJBzl9jehz8TkRMhoBFieKHfI", "reference": "ChIJBzl9jehz8TkRMhoBFieKHfI", "scope": "GOOGLE", "types": ["hospital", "health", "point_of_interest", "establishment"], "vicinity": "MHR3+28F, Tola Siantanr"}], "status": "OK"}