{"html_attributions": [], "results": [{"business_status": "OPERATIONAL", "geometry": {"location": {"lat": 25.0166178, "lng": 86.0493884}, "viewport": {"northeast": {"lat": 25.0179308302915, "lng": 86.05072838029152}, "southwest": {"lat": 25.01523286970849, "lng": 86.0480304197085}}}, "icon": "https://maps.gstatic.com/mapfiles/place_api/icons/v1/png_71/hospital-71.png", "icon_background_color": "#F88181", "icon_mask_base_uri": "https://maps.gstatic.com/mapfiles/place_api/icons/v2/hospital-H_pinlet", "name": "Dr. Vijay", "opening_hours": {"open_now": false}, "place_id": "ChIJn4XDhIIx8jkRUqkfzR390PE", "plus_code": {"compound_code": "228X+JQ Halsi, Bihar, India", "global_code": "7MQ8228X+JQ"}, "rating": 3, "reference": "ChIJn4XDhIIx8jkRUqkfzR390PE", "scope": "GOOGLE", "types": ["hospital", "health", "point_of_interest", "establishment"], "user_ratings_total": 1, "vicinity": "Premdiha, Halsi"}, {"business_status": "OPERATIONAL", "geometry": {"location": {"lat": 25.0238777, "lng": 86.0515503}, "viewport": {"northeast": {"lat": 25.0252545802915, "lng": 86.05289948029152}, "southwest": {"lat": 25.0225566197085, "lng": 86.05020151970851}}}, "icon": "https://maps.gstatic.com/mapfiles/place_api/icons/v1/png_71/hospital-71.png", "icon_background_color": "#F88181", "icon_mask_base_uri": "https://maps.gstatic.com/mapfiles/place_api/icons/v2/hospital-H_pinlet", "name": "Vikash Medical Store", "opening_hours": {"open_now": true}, "place_id": "ChIJ7xGcGtAx8jkRSSTiKlLDe0o", "reference": "ChIJ7xGcGtAx8jkRSSTiKlLDe0o", "scope": "GOOGLE", "types": ["hospital", "health", "point_of_interest", "establishment"], "vicinity": "23F2+HJ3, Halsi"}, {"business_status": "OPERATIONAL", "geometry": {"location": {"lat": 25.0239278, "lng": 86.04786179999999}, "viewport": {"northeast": {"lat": 25.0254210802915, "lng": 86.04930963029149}, "southwest": {"lat": 25.02272311970849, "lng": 86.04661166970848}}}, "icon": "https://maps.gstatic.com/mapfiles/place_api/icons/v1/png_71/hospital-71.png", "icon_background_color": "#F88181", "icon_mask_base_uri": "https://maps.gstatic.com/mapfiles/place_api/icons/v2/hospital-H_pinlet", "name": "\u092a\u0902\u0915\u091c \u0939\u094b\u092e\u094d\u092f\u094b\u092a\u0948\u0925\u093f\u0915 \u0915\u094d\u0932\u093f\u0928\u093f\u0915", "opening_hours": {"open_now": false}, "place_id": "ChIJGU2tHVcx8jkR-Bt4K7kkv3A", "plus_code": {"compound_code": "22FX+H4 Halsi, Bihar, India", "global_code": "7MQ822FX+H4"}, "reference": "ChIJGU2tHVcx8jkR-Bt4K7kkv3A", "scope": "GOOGLE", "types": ["hospital", "health", "point_of_interest", "establishment"], "vicinity": "Ambedkar chwak, Halsi"}, {"business_status": "OPERATIONAL", "geometry": {"location": {"lat": 25.0239278, "lng": 86.0478617}, "viewport": {"northeast": {"lat": 25.0254211302915, "lng": 86.04930958029149}, "southwest": {"lat": 25.0227231697085, "lng": 86.04661161970849}}}, "icon": "https://maps.gstatic.com/mapfiles/place_api/icons/v1/png_71/hospital-71.png", "icon_background_color": "#F88181", "icon_mask_base_uri": "https://maps.gstatic.com/mapfiles/place_api/icons/v2/hospital-H_pinlet", "name": "BUNIYAD KENDRA,HASI,LAKHISARAI,MUNGER,BHAR", "opening_hours": {"open_now": false}, "photos": [{"height": 4160, "html_attributions": ["<a href=\"https://maps.google.com/maps/contrib/113442665869202088027\">Rajesh Singh PaTeL</a>"], "photo_reference": "Aap_uEC2x8qMr-qyvHvIGfjsQ6Me7lWLDrurRj9V11Ag6-S6WLhRqdOBGAdWtDGFpP4Kqn0k_rJZ4CJUIXQ2OApARDoExllzW8MkZksytQ9YsZmqFfiOb4Ll4NRjsel_qkvH8SvAX8XaOSmkmAhc1VHmu9PwDLWSkS40N3EBjS-DmVmmJGfY", "width": 3120}], "place_id": "ChIJF9vU2uAx8jkRKdU7_22wrvM", "rating": 4.7, "reference": "ChIJF9vU2uAx8jkRKdU7_22wrvM", "scope": "GOOGLE", "types": ["hospital", "health", "point_of_interest", "establishment"], "user_ratings_total": 3, "vicinity": "22FX+H4H, AT+po+Ps, Halsi"}, {"business_status": "OPERATIONAL", "geometry": {"location": {"lat": 25.0281549, "lng": 86.051784}, "viewport": {"northeast": {"lat": 25.0295170802915, "lng": 86.05305743029152}, "southwest": {"lat": 25.0268191197085, "lng": 86.0503594697085}}}, "icon": "https://maps.gstatic.com/mapfiles/place_api/icons/v1/png_71/hospital-71.png", "icon_background_color": "#F88181", "icon_mask_base_uri": "https://maps.gstatic.com/mapfiles/place_api/icons/v2/hospital-H_pinlet", "name": "Muskan Medical Store Halsi", "place_id": "ChIJ4WJ6qUAx8jkRCEQXMH4UL38", "plus_code": {"compound_code": "23H2+7P Halsi, Bihar, India", "global_code": "7MQ823H2+7P"}, "rating": 1, "reference": "ChIJ4WJ6qUAx8jkRCEQXMH4UL38", "scope": "GOOGLE", "types": ["hospital", "health", "point_of_interest", "establishment"], "user_ratings_total": 1, "vicinity": "Nawada-Sikandara-Lakhisarai Road, Halsi"}, {"business_status": "OPERATIONAL", "geometry": {"location": {"lat": 25.028322, "lng": 86.0517689}, "viewport": {"northeast": {"lat": 25.0296799302915, "lng": 86.05306678029152}, "southwest": {"lat": 25.02698196970849, "lng": 86.0503688197085}}}, "icon": "https://maps.gstatic.com/mapfiles/place_api/icons/v1/png_71/hospital-71.png", "icon_background_color": "#F88181", "icon_mask_base_uri": "https://maps.gstatic.com/mapfiles/place_api/icons/v2/hospital-H_pinlet", "name": "\u092e\u0941\u0938\u094d\u0915\u093e\u0928 \u092e\u0947\u0921\u093f\u0915\u0932 \u0938\u094d\u091f\u094b\u0930", "opening_hours": {"open_now": true}, "place_id": "ChIJhcq02gQx8jkRt3ylSdez5Ts", "plus_code": {"compound_code": "23H2+8P Halsi, Bihar, India", "global_code": "7MQ823H2+8P"}, "reference": "ChIJhcq02gQx8jkRt3ylSdez5Ts", "scope": "GOOGLE", "types": ["hospital", "health", "point_of_interest", "establishment"], "vicinity": "Nawada-Sikandara-Lakhisarai Road, Halsi"}, {"business_status": "OPERATIONAL", "geometry": {"location": {"lat": 25.0299115, "lng": 86.04907659999999}, "viewport": {"northeast": {"lat": 25.0312624802915, "lng": 86.05027058029151}, "southwest": {"lat": 25.0285645197085, "lng": 86.04757261970849}}}, "icon": "https://maps.gstatic.com/mapfiles/place_api/icons/v1/png_71/hospital-71.png", "icon_background_color": "#F88181", "icon_mask_base_uri": "https://maps.gstatic.com/mapfiles/place_api/icons/v2/hospital-H_pinlet", "name": "Primary Health Center, Halsi", "place_id": "ChIJGZ7mH4Yw8jkRLXJdHSh1XL4", "rating": 5, "reference": "ChIJGZ7mH4Yw8jkRLXJdHSh1XL4", "scope": "GOOGLE", "types": ["hospital", "health", "point_of_interest", "establishment"], "user_ratings_total": 2, "vicinity": "22HX+XJ8, Halsi"}, {"business_status": "OPERATIONAL", "geometry": {"location": {"lat": 25.029944, "lng": 86.0489844}, "viewport": {"northeast": {"lat": 25.0312943802915, "lng": 86.05022468029149}, "southwest": {"lat": 25.02859641970849, "lng": 86.04752671970849}}}, "icon": "https://maps.gstatic.com/mapfiles/place_api/icons/v1/png_71/hospital-71.png", "icon_background_color": "#F88181", "icon_mask_base_uri": "https://maps.gstatic.com/mapfiles/place_api/icons/v2/hospital-H_pinlet", "name": "Hospital", "place_id": "ChIJHZLMH4Yw8jkRbUTg9tsZbEk", "rating": 5, "reference": "ChIJHZLMH4Yw8jkRbUTg9tsZbEk", "scope": "GOOGLE", "types": ["hospital", "health", "point_of_interest", "establishment"], "user_ratings_total": 5, "vicinity": "22HX+XHH, Halsi"}], "status": "OK"}