{"html_attributions": [], "results": [{"business_status": "OPERATIONAL", "geometry": {"location": {"lat": 27.0803285, "lng": 80.28728149999999}, "viewport": {"northeast": {"lat": 27.0816473302915, "lng": 80.2884132302915}, "southwest": {"lat": 27.0789493697085, "lng": 80.28571526970849}}}, "icon": "https://maps.gstatic.com/mapfiles/place_api/icons/v1/png_71/shopping-71.png", "icon_background_color": "#4B96F3", "icon_mask_base_uri": "https://maps.gstatic.com/mapfiles/place_api/icons/v2/shoppingcart_pinlet", "name": "Dilshad cosmaitic", "photos": [{"height": 1080, "html_attributions": ["<a href=\"https://maps.google.com/maps/contrib/105104000723436557680\">Mo Dilshad</a>"], "photo_reference": "Aap_uEBlGS7LxZ6yW5JNgCk3b_5Nt7AMtq8rEEU8Iy-n9BsYOPu22L5IA0InUi17hPJZ8m19-DAnn8k9zDjrGYeZeH2GBIbtL74WVrV2IbD2ycEALAlO7jhQP81pgpLLNPVHqtpmh4Fr7zh82pmix1Mfz4vCVvXDzZ07Mt_WPQ_YGsjWvDtX", "width": 1920}], "place_id": "ChIJBd9c66iRnjkRBuC8aR0VSlQ", "reference": "ChIJBd9c66iRnjkRBuC8aR0VSlQ", "scope": "GOOGLE", "types": ["supermarket", "grocery_or_supermarket", "food", "point_of_interest", "store", "establishment"], "vicinity": "37JP+4WM, Gausganj"}, {"business_status": "OPERATIONAL", "geometry": {"location": {"lat": 27.0802163, "lng": 80.28719149999999}, "viewport": {"northeast": {"lat": 27.08154143029151, "lng": 80.2883770802915}, "southwest": {"lat": 27.0788434697085, "lng": 80.28567911970849}}}, "icon": "https://maps.gstatic.com/mapfiles/place_api/icons/v1/png_71/shopping-71.png", "icon_background_color": "#4B96F3", "icon_mask_base_uri": "https://maps.gstatic.com/mapfiles/place_api/icons/v2/shoppingcart_pinlet", "name": "Sameer cosmetic", "place_id": "ChIJDU1IF_eRnjkRsk52MW8z2do", "rating": 4, "reference": "ChIJDU1IF_eRnjkRsk52MW8z2do", "scope": "GOOGLE", "types": ["supermarket", "grocery_or_supermarket", "food", "point_of_interest", "store", "establishment"], "user_ratings_total": 1, "vicinity": "37JP+3VP, Gausganj"}, {"business_status": "OPERATIONAL", "geometry": {"location": {"lat": 27.0795617, "lng": 80.2920895}, "viewport": {"northeast": {"lat": 27.0808589802915, "lng": 80.29343933029149}, "southwest": {"lat": 27.0781610197085, "lng": 80.29074136970848}}}, "icon": "https://maps.gstatic.com/mapfiles/place_api/icons/v1/png_71/shopping-71.png", "icon_background_color": "#4B96F3", "icon_mask_base_uri": "https://maps.gstatic.com/mapfiles/place_api/icons/v2/shoppingcart_pinlet", "name": "Patel chocker bhandar", "opening_hours": {"open_now": true}, "photos": [{"height": 1080, "html_attributions": ["<a href=\"https://maps.google.com/maps/contrib/105232499316998596321\">R\u00ees\u00ef\u00f1g Br\u00f8th\u00ear&#39;s</a>"], "photo_reference": "Aap_uED2H3zsPwN0Z-AVQFqxnahZws41I9K-2ijmBQYDFnu-VTxTvxc6YoEMXVv00KZ9ii3CQ5r-nAweT21RZ6abqfU81WEUuxaLYyiMKOniwsJ0Qz7Mjlwy0FFA3qkmPyGmrPQ3iMzMxMTJkDDgRiyeMD25uF_PZA8_Qw2aqgziowxdeEG7", "width": 1920}], "place_id": "ChIJEc8LZ7yRnjkR5SoEKGG-p4U", "rating": 5, "reference": "ChIJEc8LZ7yRnjkR5SoEKGG-p4U", "scope": "GOOGLE", "types": ["supermarket", "grocery_or_supermarket", "food", "point_of_interest", "store", "establishment"], "user_ratings_total": 1, "vicinity": "37HR+RRG, Gausganj"}], "status": "OK"}