{"html_attributions": [], "results": [{"business_status": "OPERATIONAL", "geometry": {"location": {"lat": 27.0159253, "lng": 79.7455956}, "viewport": {"northeast": {"lat": 27.0171491302915, "lng": 79.7471257802915}, "southwest": {"lat": 27.0144511697085, "lng": 79.74442781970849}}}, "icon": "https://maps.gstatic.com/mapfiles/place_api/icons/v1/png_71/shopping-71.png", "icon_background_color": "#4B96F3", "icon_mask_base_uri": "https://maps.gstatic.com/mapfiles/place_api/icons/v2/shoppingcart_pinlet", "name": "Ravendra Telecom Sataura Bajar", "place_id": "ChIJZ4dxyOptnjkRVTytrwqHuf4", "reference": "ChIJZ4dxyOptnjkRVTytrwqHuf4", "scope": "GOOGLE", "types": ["supermarket", "grocery_or_supermarket", "food", "point_of_interest", "store", "establishment"], "vicinity": "2P8W+96H, Satoura"}, {"business_status": "OPERATIONAL", "geometry": {"location": {"lat": 27.0153485, "lng": 79.7457745}, "viewport": {"northeast": {"lat": 27.0167191802915, "lng": 79.7470920302915}, "southwest": {"lat": 27.0140212197085, "lng": 79.74439406970849}}}, "icon": "https://maps.gstatic.com/mapfiles/place_api/icons/v1/png_71/shopping-71.png", "icon_background_color": "#4B96F3", "icon_mask_base_uri": "https://maps.gstatic.com/mapfiles/place_api/icons/v2/shoppingcart_pinlet", "name": "Tomar market sataura", "place_id": "ChIJP4gsOsZtnjkRS_s8hiblIMA", "plus_code": {"compound_code": "2P8W+48 Sujan Sarai, Uttar Pradesh, India", "global_code": "7JVX2P8W+48"}, "rating": 2.3, "reference": "ChIJP4gsOsZtnjkRS_s8hiblIMA", "scope": "GOOGLE", "types": ["supermarket", "grocery_or_supermarket", "food", "point_of_interest", "store", "establishment"], "user_ratings_total": 4, "vicinity": "Gursahaiganj - Jalaun Road, Sujan Sarai"}, {"business_status": "OPERATIONAL", "geometry": {"location": {"lat": 27.0129552, "lng": 79.7490377}, "viewport": {"northeast": {"lat": 27.0142939802915, "lng": 79.75041853029151}, "southwest": {"lat": 27.0115960197085, "lng": 79.7477205697085}}}, "icon": "https://maps.gstatic.com/mapfiles/place_api/icons/v1/png_71/shopping-71.png", "icon_background_color": "#4B96F3", "icon_mask_base_uri": "https://maps.gstatic.com/mapfiles/place_api/icons/v2/shoppingcart_pinlet", "name": "nirmala dreding company", "place_id": "ChIJv97AwFFtnjkRcT1adsK28qI", "plus_code": {"compound_code": "2P7X+5J Satoura, Uttar Pradesh, India", "global_code": "7JVX2P7X+5J"}, "rating": 4, "reference": "ChIJv97AwFFtnjkRcT1adsK28qI", "scope": "GOOGLE", "types": ["supermarket", "grocery_or_supermarket", "food", "point_of_interest", "store", "establishment"], "user_ratings_total": 3, "vicinity": "Unnamed Road, Satoura"}, {"business_status": "OPERATIONAL", "geometry": {"location": {"lat": 27.0120801, "lng": 79.74246289999999}, "viewport": {"northeast": {"lat": 27.0135166802915, "lng": 79.7438744802915}, "southwest": {"lat": 27.0108187197085, "lng": 79.74117651970849}}}, "icon": "https://maps.gstatic.com/mapfiles/place_api/icons/v1/png_71/shopping-71.png", "icon_background_color": "#4B96F3", "icon_mask_base_uri": "https://maps.gstatic.com/mapfiles/place_api/icons/v2/shoppingcart_pinlet", "name": "KAMRAN MARKET", "place_id": "ChIJj1UBBjVtnjkR1hJG3PbKHrE", "rating": 3.4, "reference": "ChIJj1UBBjVtnjkR1hJG3PbKHrE", "scope": "GOOGLE", "types": ["supermarket", "grocery_or_supermarket", "food", "point_of_interest", "store", "establishment"], "user_ratings_total": 16, "vicinity": "2P6R+RXP, Satoura"}], "status": "OK"}