{"html_attributions": [], "results": [{"business_status": "OPERATIONAL", "geometry": {"location": {"lat": 27.4289729, "lng": 80.52567739999999}, "viewport": {"northeast": {"lat": 27.4302650802915, "lng": 80.5270022302915}, "southwest": {"lat": 27.4275671197085, "lng": 80.5243042697085}}}, "icon": "https://maps.gstatic.com/mapfiles/place_api/icons/v1/png_71/shopping-71.png", "icon_background_color": "#4B96F3", "icon_mask_base_uri": "https://maps.gstatic.com/mapfiles/place_api/icons/v2/shoppingcart_pinlet", "name": "Ansar Traders", "photos": [{"height": 1920, "html_attributions": ["<a href=\"https://maps.google.com/maps/contrib/109693110193552592703\">Ainulhaq Ansari</a>"], "photo_reference": "Aap_uEDPYyWbaAIkewhSIm_kqii-FnNh7fn5yGHm9ML15qlS7XcsMn9LLa-3EMHw1fs2RKG6IbzrnyOrQbQZZ_SLaLuLOlybOqj2a0UUYBYnDNjzxkjBMT5DUvdqp2Uig40yIKjxYkbmoT1odq0mMwrCGUzt2aVlTwxh8JLZAh05FwlJC25_", "width": 1088}], "place_id": "ChIJc4B2oLncnjkRup_j1HXdogc", "plus_code": {"compound_code": "CGHG+H7 Misrikh-cum-Neemsar, Uttar Pradesh, India", "global_code": "7MV2CGHG+H7"}, "rating": 3, "reference": "ChIJc4B2oLncnjkRup_j1HXdogc", "scope": "GOOGLE", "types": ["supermarket", "grocery_or_supermarket", "food", "point_of_interest", "store", "establishment"], "user_ratings_total": 1, "vicinity": "Nabiganj - Jasmai Road, Misrikh-cum-Neemsar"}, {"business_status": "OPERATIONAL", "geometry": {"location": {"lat": 27.4289994, "lng": 80.5254463}, "viewport": {"northeast": {"lat": 27.4303138302915, "lng": 80.52678058029151}, "southwest": {"lat": 27.4276158697085, "lng": 80.5240826197085}}}, "icon": "https://maps.gstatic.com/mapfiles/place_api/icons/v1/png_71/shopping-71.png", "icon_background_color": "#4B96F3", "icon_mask_base_uri": "https://maps.gstatic.com/mapfiles/place_api/icons/v2/shoppingcart_pinlet", "name": "\u0905\u091c\u092f \u0915\u0941\u092e\u093e\u0930 \u091a\u094c\u092c\u0947", "photos": [{"height": 2752, "html_attributions": ["<a href=\"https://maps.google.com/maps/contrib/100180681423639468558\">Ajay Kumar Choubey</a>"], "photo_reference": "Aap_uEDGvivqwho4rPBq9RZq1xmt2vJlCkYdRMynveILc3gh9WtxEOviT35M6PGdXsxw4HEHpvAbQmWXGzwtgotBL_k5dWBy9Q3GHWI5R2OW16hSvCN9xox6jqK_Q9LCwRgHhxAuc4-KcGhpMClzaPZcoeah60qVjCtGHHFSDXvZS4sEtz99", "width": 2752}], "place_id": "ChIJHWMvk3HdnjkRMK-CdgQOIws", "plus_code": {"compound_code": "CGHG+H5 korouna, Uttar Pradesh, India", "global_code": "7MV2CGHG+H5"}, "reference": "ChIJHWMvk3HdnjkRMK-CdgQOIws", "scope": "GOOGLE", "types": ["supermarket", "grocery_or_supermarket", "food", "point_of_interest", "store", "establishment"], "vicinity": "Unnamed Road, korouna"}, {"business_status": "OPERATIONAL", "geometry": {"location": {"lat": 27.4292761, "lng": 80.5299541}, "viewport": {"northeast": {"lat": 27.4306223802915, "lng": 80.53130788029151}, "southwest": {"lat": 27.4279244197085, "lng": 80.5286099197085}}}, "icon": "https://maps.gstatic.com/mapfiles/place_api/icons/v1/png_71/shopping-71.png", "icon_background_color": "#4B96F3", "icon_mask_base_uri": "https://maps.gstatic.com/mapfiles/place_api/icons/v2/shoppingcart_pinlet", "name": "Shivam Maurya", "place_id": "ChIJ85a_ou3dnjkRrfk_5stjqyM", "plus_code": {"compound_code": "CGHH+PX korouna, Uttar Pradesh, India", "global_code": "7MV2CGHH+PX"}, "reference": "ChIJ85a_ou3dnjkRrfk_5stjqyM", "scope": "GOOGLE", "types": ["supermarket", "grocery_or_supermarket", "food", "point_of_interest", "store", "establishment"], "vicinity": "Mishrikh tirth"}, {"business_status": "OPERATIONAL", "geometry": {"location": {"lat": 27.4292761, "lng": 80.5299541}, "viewport": {"northeast": {"lat": 27.4306223802915, "lng": 80.53130788029151}, "southwest": {"lat": 27.4279244197085, "lng": 80.5286099197085}}}, "icon": "https://maps.gstatic.com/mapfiles/place_api/icons/v1/png_71/shopping-71.png", "icon_background_color": "#4B96F3", "icon_mask_base_uri": "https://maps.gstatic.com/mapfiles/place_api/icons/v2/shoppingcart_pinlet", "name": "Priya form online centre", "place_id": "ChIJE21sKindnjkRDSM-smtJcUo", "reference": "ChIJE21sKindnjkRDSM-smtJcUo", "scope": "GOOGLE", "types": ["supermarket", "grocery_or_supermarket", "food", "point_of_interest", "store", "establishment"], "vicinity": "CGHH+PX8, Misrikh-cum-Neemsar"}], "status": "OK"}