{"html_attributions": [], "results": [{"business_status": "OPERATIONAL", "geometry": {"location": {"lat": 27.5288957, "lng": 79.8456958}, "viewport": {"northeast": {"lat": 27.5302269802915, "lng": 79.8470623802915}, "southwest": {"lat": 27.5275290197085, "lng": 79.84436441970848}}}, "icon": "https://maps.gstatic.com/mapfiles/place_api/icons/v1/png_71/shopping-71.png", "icon_background_color": "#4B96F3", "icon_mask_base_uri": "https://maps.gstatic.com/mapfiles/place_api/icons/v2/shoppingcart_pinlet", "name": "Niyazi beauty parlour", "place_id": "ChIJgYX-eilNnjkRM2u_A4agV_Y", "plus_code": {"compound_code": "GRHW+H7 Pali, Uttar Pradesh, India", "global_code": "7JVXGRHW+H7"}, "rating": 5, "reference": "ChIJgYX-eilNnjkRM2u_A4agV_Y", "scope": "GOOGLE", "types": ["supermarket", "grocery_or_supermarket", "food", "point_of_interest", "store", "establishment"], "user_ratings_total": 2, "vicinity": "N.B.Babu Khan Janta Degree College, Pali"}, {"business_status": "OPERATIONAL", "geometry": {"location": {"lat": 27.5311241, "lng": 79.8377637}, "viewport": {"northeast": {"lat": 27.5323368302915, "lng": 79.8390917302915}, "southwest": {"lat": 27.5296388697085, "lng": 79.8363937697085}}}, "icon": "https://maps.gstatic.com/mapfiles/place_api/icons/v1/png_71/shopping-71.png", "icon_background_color": "#4B96F3", "icon_mask_base_uri": "https://maps.gstatic.com/mapfiles/place_api/icons/v2/shoppingcart_pinlet", "name": "SABRI AUTO SALES PALI", "photos": [{"height": 1040, "html_attributions": ["<a href=\"https://maps.google.com/maps/contrib/109283855961541850045\">Shiva yadav</a>"], "photo_reference": "Aap_uECFqfj_XDNyQt3hZmDOSP2sOGQcRLlWOy2lhx1uIL9cMmgnnz0uXaWhMxag-jjmD6T6FDe1ZhruqGrHd-gB0IKrMspgM4zV1PbAF9eMDKGqshmjYV9EYMbSraQ-X92Pa0DMhknr4jRPs46FbGjhHLwNNZ0yTTOdlyasWF-O7tr4a2Q4", "width": 588}], "place_id": "ChIJI5dxVKJMnjkRi7LukH-AzEw", "rating": 5, "reference": "ChIJI5dxVKJMnjkRi7LukH-AzEw", "scope": "GOOGLE", "types": ["supermarket", "grocery_or_supermarket", "food", "point_of_interest", "store", "establishment"], "user_ratings_total": 3, "vicinity": "GRJQ+C4R, Sarai Saif Sisala"}, {"business_status": "OPERATIONAL", "geometry": {"location": {"lat": 27.5325714, "lng": 79.8397396}, "viewport": {"northeast": {"lat": 27.5338945802915, "lng": 79.84114763029152}, "southwest": {"lat": 27.5311966197085, "lng": 79.83844966970851}}}, "icon": "https://maps.gstatic.com/mapfiles/place_api/icons/v1/png_71/shopping-71.png", "icon_background_color": "#4B96F3", "icon_mask_base_uri": "https://maps.gstatic.com/mapfiles/place_api/icons/v2/shoppingcart_pinlet", "name": "jai maa plywood & hardware", "photos": [{"height": 2592, "html_attributions": ["<a href=\"https://maps.google.com/maps/contrib/104640733842438139859\">Balram Sharma</a>"], "photo_reference": "Aap_uEDhoSvbTh3vZ27o_g7hfzeXRGVpY171aquBod1PKSKdGCKDJFdDWEaavsDpS2QiOVTlzwObGToymmVtoqjZ9cZFHSAvzuxzUdBIIdl94x4ir2wvLq5y9BGkOkpBxb-MCHBaJCltI4RGBStLfX-L8kFHsoFoYXgUxq_JXxUfhpyttMIj", "width": 1944}], "place_id": "ChIJsSVesSZNnjkRoWn4qz6r840", "reference": "ChIJsSVesSZNnjkRoWn4qz6r840", "scope": "GOOGLE", "types": ["supermarket", "grocery_or_supermarket", "food", "point_of_interest", "store", "establishment"], "vicinity": "GRMQ+2VH, Pali"}], "status": "OK"}