{"html_attributions": [], "results": [{"business_status": "OPERATIONAL", "geometry": {"location": {"lat": 27.535132, "lng": 79.84187039999999}, "viewport": {"northeast": {"lat": 27.5365265802915, "lng": 79.8431392802915}, "southwest": {"lat": 27.5338286197085, "lng": 79.84044131970849}}}, "icon": "https://maps.gstatic.com/mapfiles/place_api/icons/v1/png_71/shopping-71.png", "icon_background_color": "#4B96F3", "icon_mask_base_uri": "https://maps.gstatic.com/mapfiles/place_api/icons/v2/shoppingcart_pinlet", "name": "Shivangi janaral stors", "place_id": "ChIJs-3QoMNNnjkR2Z4wj2R9K10", "plus_code": {"compound_code": "GRPR+3P Pali, Uttar Pradesh, India", "global_code": "7JVXGRPR+3P"}, "reference": "ChIJs-3QoMNNnjkR2Z4wj2R9K10", "scope": "GOOGLE", "types": ["supermarket", "grocery_or_supermarket", "food", "point_of_interest", "store", "establishment"], "vicinity": "Rupapur - Pali Road, Pali"}, {"business_status": "OPERATIONAL", "geometry": {"location": {"lat": 27.5348146, "lng": 79.84160229999999}, "viewport": {"northeast": {"lat": 27.53618443029151, "lng": 79.8429146302915}, "southwest": {"lat": 27.53348646970851, "lng": 79.8402166697085}}}, "icon": "https://maps.gstatic.com/mapfiles/place_api/icons/v1/png_71/shopping-71.png", "icon_background_color": "#4B96F3", "icon_mask_base_uri": "https://maps.gstatic.com/mapfiles/place_api/icons/v2/shoppingcart_pinlet", "name": "Shukla Market", "place_id": "ChIJgyzcWbtMnjkR3lscXLvb48k", "plus_code": {"compound_code": "GRMR+WJ Pali, Uttar Pradesh, India", "global_code": "7JVXGRMR+WJ"}, "rating": 3.3, "reference": "ChIJgyzcWbtMnjkR3lscXLvb48k", "scope": "GOOGLE", "types": ["supermarket", "grocery_or_supermarket", "food", "point_of_interest", "store", "establishment"], "user_ratings_total": 3, "vicinity": "Rupapur - Pali Road, Pali"}, {"business_status": "OPERATIONAL", "geometry": {"location": {"lat": 27.5450619, "lng": 79.85617839999999}, "viewport": {"northeast": {"lat": 27.5464108802915, "lng": 79.85752738029149}, "southwest": {"lat": 27.5437129197085, "lng": 79.85482941970848}}}, "icon": "https://maps.gstatic.com/mapfiles/place_api/icons/v1/png_71/shopping-71.png", "icon_background_color": "#4B96F3", "icon_mask_base_uri": "https://maps.gstatic.com/mapfiles/place_api/icons/v2/shoppingcart_pinlet", "name": "Thakur Pan Bhandar", "place_id": "ChIJc4dBZP9NnjkR15DpIuKfNyM", "plus_code": {"compound_code": "GVW4+2F Gutka Mau Pansala, Uttar Pradesh, India", "global_code": "7JVXGVW4+2F"}, "rating": 3, "reference": "ChIJc4dBZP9NnjkR15DpIuKfNyM", "scope": "GOOGLE", "types": ["supermarket", "grocery_or_supermarket", "food", "point_of_interest", "store", "establishment"], "user_ratings_total": 1, "vicinity": "Pali - Shahabad Road, Gutka Mau Pansala"}, {"business_status": "OPERATIONAL", "geometry": {"location": {"lat": 27.5325714, "lng": 79.8397396}, "viewport": {"northeast": {"lat": 27.5338945802915, "lng": 79.84114763029152}, "southwest": {"lat": 27.5311966197085, "lng": 79.83844966970851}}}, "icon": "https://maps.gstatic.com/mapfiles/place_api/icons/v1/png_71/shopping-71.png", "icon_background_color": "#4B96F3", "icon_mask_base_uri": "https://maps.gstatic.com/mapfiles/place_api/icons/v2/shoppingcart_pinlet", "name": "jai maa plywood & hardware", "photos": [{"height": 2592, "html_attributions": ["<a href=\"https://maps.google.com/maps/contrib/104640733842438139859\">Balram Sharma</a>"], "photo_reference": "Aap_uED1dm_hz6CZV-_x3fXFZi8D8w3WacCzPXzr6-n1pe4yMJLmxwg-_CDXxbKAzqspSHAxPMFHl0-FgG_teHUOJagOJImbAoomfW-D-d2MzYeqqhjrtr0Oa7eHVezANCSkVtTxGm4ro3kN7Y-jm-L6w1w_YCcUlyrmpMvQlf9pNXZIQ1MI", "width": 1944}], "place_id": "ChIJsSVesSZNnjkRoWn4qz6r840", "reference": "ChIJsSVesSZNnjkRoWn4qz6r840", "scope": "GOOGLE", "types": ["supermarket", "grocery_or_supermarket", "food", "point_of_interest", "store", "establishment"], "vicinity": "GRMQ+2VH, Pali"}], "status": "OK"}