{"html_attributions": [], "results": [{"business_status": "OPERATIONAL", "geometry": {"location": {"lat": 27.0203851, "lng": 79.89338359999999}, "viewport": {"northeast": {"lat": 27.0216761302915, "lng": 79.8948174802915}, "southwest": {"lat": 27.0189781697085, "lng": 79.89211951970849}}}, "icon": "https://maps.gstatic.com/mapfiles/place_api/icons/v1/png_71/shopping-71.png", "icon_background_color": "#4B96F3", "icon_mask_base_uri": "https://maps.gstatic.com/mapfiles/place_api/icons/v2/shoppingcart_pinlet", "name": "Cell Town", "opening_hours": {"open_now": false}, "photos": [{"height": 2204, "html_attributions": ["<a href=\"https://maps.google.com/maps/contrib/103312184127365430982\">Rakesh Sharma</a>"], "photo_reference": "Aap_uECisLDIPzcILIDgUW7i6PsA_hai4719YiaDSRjIqiexCTGI5Xgcr9TcMlWikLfwBSP9RDfQ0aRK4nq1ymzNobUrt_8ylUeKgjyDrNcwIg65_P5tCuvqMRmh5KPsNrGphZHl0fkeq_UOVpZeHjii1T9_jK9uiKheNDKeP5PNUEmxHvdj", "width": 1903}], "place_id": "ChIJJ3znxONvnjkR2s8nSgpHfng", "plus_code": {"compound_code": "2VCV+59 Kannauj, Uttar Pradesh, India", "global_code": "7JVX2VCV+59"}, "rating": 4.7, "reference": "ChIJJ3znxONvnjkR2s8nSgpHfng", "scope": "GOOGLE", "types": ["grocery_or_supermarket", "supermarket", "food", "point_of_interest", "store", "establishment"], "user_ratings_total": 6, "vicinity": "phoolamati mandir chauraha, Makrand Nagar, Kannauj"}, {"business_status": "OPERATIONAL", "geometry": {"location": {"lat": 27.015815, "lng": 79.8900464}, "viewport": {"northeast": {"lat": 27.0171473302915, "lng": 79.89142133029151}, "southwest": {"lat": 27.01444936970849, "lng": 79.8887233697085}}}, "icon": "https://maps.gstatic.com/mapfiles/place_api/icons/v1/png_71/generic_business-71.png", "icon_background_color": "#7B9EB0", "icon_mask_base_uri": "https://maps.gstatic.com/mapfiles/place_api/icons/v2/generic_pinlet", "name": "Ajeet Anaya traders", "opening_hours": {"open_now": true}, "photos": [{"height": 810, "html_attributions": ["<a href=\"https://maps.google.com/maps/contrib/101959841040949507044\">Ajeet Anaya traders</a>"], "photo_reference": "Aap_uEAOMgnYBw_zXMXR0wkGlpozMOl5CJU3skJgxsINEBqo_kG8pFFVDRBSksXfRgVbyP6DCIXKaN_sHBX3roZZlDcaZfrRn5zVpR700JLHaxXAN7_CVYL4snLOiRon1a6itqwfI_kBstUIzIgJZ1RVOA6LmVfdm4QufPTk9h_V6BVsUL1f", "width": 1440}], "place_id": "ChIJ_dnJEbhvnjkR1AYNBhaox6c", "plus_code": {"compound_code": "2V8R+82 Sharifapur, Uttar Pradesh, India", "global_code": "7JVX2V8R+82"}, "rating": 4, "reference": "ChIJ_dnJEbhvnjkR1AYNBhaox6c", "scope": "GOOGLE", "types": ["bakery", "supermarket", "grocery_or_supermarket", "food", "point_of_interest", "store", "establishment"], "user_ratings_total": 3, "vicinity": "Dukes biscuit wholesale rate, Sharifpur"}, {"business_status": "OPERATIONAL", "geometry": {"location": {"lat": 27.0143739, "lng": 79.8894473}, "viewport": {"northeast": {"lat": 27.0157958302915, "lng": 79.8907396302915}, "southwest": {"lat": 27.0130978697085, "lng": 79.88804166970849}}}, "icon": "https://maps.gstatic.com/mapfiles/place_api/icons/v1/png_71/shopping-71.png", "icon_background_color": "#4B96F3", "icon_mask_base_uri": "https://maps.gstatic.com/mapfiles/place_api/icons/v2/shoppingcart_pinlet", "name": "Snoop kumar", "place_id": "ChIJi_fa4ZdvnjkRKxkNGC41mTw", "plus_code": {"compound_code": "2V7Q+PQ Askrm Purava, Uttar Pradesh, India", "global_code": "7JVX2V7Q+PQ"}, "reference": "ChIJi_fa4ZdvnjkRKxkNGC41mTw", "scope": "GOOGLE", "types": ["supermarket", "grocery_or_supermarket", "food", "point_of_interest", "store", "establishment"], "vicinity": "Unnamed Road, Askrm Purava"}, {"business_status": "OPERATIONAL", "geometry": {"location": {"lat": 27.0222118, "lng": 79.8993685}, "viewport": {"northeast": {"lat": 27.0235283802915, "lng": 79.9006985802915}, "southwest": {"lat": 27.0208304197085, "lng": 79.8980006197085}}}, "icon": "https://maps.gstatic.com/mapfiles/place_api/icons/v1/png_71/shopping-71.png", "icon_background_color": "#4B96F3", "icon_mask_base_uri": "https://maps.gstatic.com/mapfiles/place_api/icons/v2/shoppingcart_pinlet", "name": "Sandhya Pal Market", "opening_hours": {"open_now": true}, "photos": [{"height": 2448, "html_attributions": ["<a href=\"https://maps.google.com/maps/contrib/113527030052103489127\">Saurabh Pal</a>"], "photo_reference": "Aap_uECrs4p30vU-xi1nT1hhNOpcezBo3iOwyVyZchSX5FYMJECOCUblXKeA5b2Z3Ns6VS2XrnWgtNWyLMXGvJyIEsxmeJipKLmn7F4hJPoVGsJvbr15V1d_ggBIgm7VuNlbtWXpYXbN-94Ygc1GVWORZC-KDRPLUZgn0PkhCVsbjnIWzLZc", "width": 3264}], "place_id": "ChIJseiFJpVvnjkRE98irpG9C0k", "rating": 3.2, "reference": "ChIJseiFJpVvnjkRE98irpG9C0k", "scope": "GOOGLE", "types": ["supermarket", "grocery_or_supermarket", "food", "point_of_interest", "store", "establishment"], "user_ratings_total": 10, "vicinity": "2VCX+VPQ, Nasrapur"}], "status": "OK"}