{"html_attributions": [], "results": [{"business_status": "OPERATIONAL", "geometry": {"location": {"lat": 27.021042, "lng": 79.91031}, "viewport": {"northeast": {"lat": 27.0224447302915, "lng": 79.9117009802915}, "southwest": {"lat": 27.0197467697085, "lng": 79.90900301970849}}}, "icon": "https://maps.gstatic.com/mapfiles/place_api/icons/v1/png_71/shopping-71.png", "icon_background_color": "#4B96F3", "icon_mask_base_uri": "https://maps.gstatic.com/mapfiles/place_api/icons/v2/shoppingcart_pinlet", "name": "Angel Style Zone", "place_id": "ChIJ1R1y2_JvnjkRhGIwPhtMuiw", "rating": 3.8, "reference": "ChIJ1R1y2_JvnjkRhGIwPhtMuiw", "scope": "GOOGLE", "types": ["supermarket", "grocery_or_supermarket", "food", "point_of_interest", "store", "establishment"], "user_ratings_total": 5, "vicinity": "2WC6+C47, Ahamadpur Ra"}, {"business_status": "OPERATIONAL", "geometry": {"location": {"lat": 27.0268863, "lng": 79.9110197}, "viewport": {"northeast": {"lat": 27.0282384302915, "lng": 79.91236693029148}, "southwest": {"lat": 27.0255404697085, "lng": 79.90966896970848}}}, "icon": "https://maps.gstatic.com/mapfiles/place_api/icons/v1/png_71/shopping-71.png", "icon_background_color": "#4B96F3", "icon_mask_base_uri": "https://maps.gstatic.com/mapfiles/place_api/icons/v2/shoppingcart_pinlet", "name": "Sanatinath Electronics and Furniturs", "opening_hours": {"open_now": false}, "photos": [{"height": 1080, "html_attributions": ["<a href=\"https://maps.google.com/maps/contrib/117156298929104401577\">Vimal kumar</a>"], "photo_reference": "Aap_uEA4PEBeFlc4UEZf3UTeqvKBBnoWXatpScH4VtRM_nom4A16LhJR5rcscGAOl8JGRWgpF4wugmiVWkpS6Kbj0NgfhZTzOGFWpOtib9Kp9tMiKbSybKvUrbftbLd9o5mburcWA0KsEzu4JvJ_RKOHAtovdFTGflLbhnMyM1qkR4xbivhP", "width": 1920}], "place_id": "ChIJOyhyM7JvnjkRRN8THTvpogE", "plus_code": {"compound_code": "2WG6+QC Kannauj, Uttar Pradesh, India", "global_code": "7JVX2WG6+QC"}, "rating": 5, "reference": "ChIJOyhyM7JvnjkRRN8THTvpogE", "scope": "GOOGLE", "types": ["supermarket", "grocery_or_supermarket", "food", "point_of_interest", "store", "establishment"], "user_ratings_total": 1, "vicinity": "Ahamadpur, Tirwa Road, Kannauj"}, {"business_status": "OPERATIONAL", "geometry": {"location": {"lat": 27.0222118, "lng": 79.8993685}, "viewport": {"northeast": {"lat": 27.0235283802915, "lng": 79.9006985802915}, "southwest": {"lat": 27.0208304197085, "lng": 79.8980006197085}}}, "icon": "https://maps.gstatic.com/mapfiles/place_api/icons/v1/png_71/shopping-71.png", "icon_background_color": "#4B96F3", "icon_mask_base_uri": "https://maps.gstatic.com/mapfiles/place_api/icons/v2/shoppingcart_pinlet", "name": "Sandhya Pal Market", "opening_hours": {"open_now": true}, "photos": [{"height": 2448, "html_attributions": ["<a href=\"https://maps.google.com/maps/contrib/113527030052103489127\">Saurabh Pal</a>"], "photo_reference": "Aap_uEDORKWmjffYLz5dJAHp8iuEghfki0NMUqQiOLDEKCRiZtSk2AIA6SPtyC1csodT3_KYhI1kxEFpTx0b4z_hseqmBpILK03EZMiuqjusRLhpk1S6lFPSzpxkNTYwT7ZP4RP4UOuD7vjMjruyW4AnRvhUkMLmFxnl_V7Z0JyGcsqTtpp1", "width": 3264}], "place_id": "ChIJseiFJpVvnjkRE98irpG9C0k", "rating": 3.2, "reference": "ChIJseiFJpVvnjkRE98irpG9C0k", "scope": "GOOGLE", "types": ["supermarket", "grocery_or_supermarket", "food", "point_of_interest", "store", "establishment"], "user_ratings_total": 10, "vicinity": "2VCX+VPQ, Nasrapur"}, {"business_status": "OPERATIONAL", "geometry": {"location": {"lat": 27.0259778, "lng": 79.91585169999999}, "viewport": {"northeast": {"lat": 27.0273289302915, "lng": 79.9172697802915}, "southwest": {"lat": 27.0246309697085, "lng": 79.9145718197085}}}, "icon": "https://maps.gstatic.com/mapfiles/place_api/icons/v1/png_71/shopping-71.png", "icon_background_color": "#4B96F3", "icon_mask_base_uri": "https://maps.gstatic.com/mapfiles/place_api/icons/v2/shoppingcart_pinlet", "name": "Ardh sainik canteen, kannauj", "opening_hours": {"open_now": false}, "photos": [{"height": 720, "html_attributions": ["<a href=\"https://maps.google.com/maps/contrib/109774947112210272304\">Ashwini Singh</a>"], "photo_reference": "Aap_uEBlak4uiSQtweovDYf6Qcb9ovQ8OpZLtFaBrW84k_P-NjB3gPrugrZVSv0_sJaBlS0UUsdWZAmD3y4dvR1rzvm8uGhHY75dYydl3ZX7UTDWSmiyzWcyX4GybKH6-8tHtYY-O9qwkKlnD5W2Xgp1XDKEXRxSt-vOsOiOciv5FOGeYaOS", "width": 1280}], "place_id": "ChIJ3a0dE2pvnjkRoOawNX4urgY", "plus_code": {"compound_code": "2WG8+98 Ahamadpur Ra, Uttar Pradesh, India", "global_code": "7JVX2WG8+98"}, "rating": 5, "reference": "ChIJ3a0dE2pvnjkRoOawNX4urgY", "scope": "GOOGLE", "types": ["supermarket", "grocery_or_supermarket", "food", "point_of_interest", "store", "establishment"], "user_ratings_total": 3, "vicinity": "Manpur Road, Ahamadpur Ra"}, {"business_status": "OPERATIONAL", "geometry": {"location": {"lat": 27.0203851, "lng": 79.89338359999999}, "viewport": {"northeast": {"lat": 27.0216761302915, "lng": 79.8948174802915}, "southwest": {"lat": 27.0189781697085, "lng": 79.89211951970849}}}, "icon": "https://maps.gstatic.com/mapfiles/place_api/icons/v1/png_71/shopping-71.png", "icon_background_color": "#4B96F3", "icon_mask_base_uri": "https://maps.gstatic.com/mapfiles/place_api/icons/v2/shoppingcart_pinlet", "name": "Cell Town", "opening_hours": {"open_now": false}, "photos": [{"height": 2204, "html_attributions": ["<a href=\"https://maps.google.com/maps/contrib/103312184127365430982\">Rakesh Sharma</a>"], "photo_reference": "Aap_uEB5EbcAZq9ydpOz0evFJypiYI7mbs3lAQO2RN2w1f75jCkpHklmXAcD8xovB9G42abtATWSlvJXVfXUkA1ESnsE6eTVK63sDcx6q0scSrwyqzKxPRpjRLcGy-0n-aiRc8zzGU3_CayQVixlDdy0A0mv8TMOqM0IBC0sizFLuaD5vBR0", "width": 1903}], "place_id": "ChIJJ3znxONvnjkR2s8nSgpHfng", "plus_code": {"compound_code": "2VCV+59 Kannauj, Uttar Pradesh, India", "global_code": "7JVX2VCV+59"}, "rating": 4.7, "reference": "ChIJJ3znxONvnjkR2s8nSgpHfng", "scope": "GOOGLE", "types": ["grocery_or_supermarket", "supermarket", "food", "point_of_interest", "store", "establishment"], "user_ratings_total": 6, "vicinity": "phoolamati mandir chauraha, Makrand Nagar, Kannauj"}], "status": "OK"}