{"html_attributions": [], "results": [{"business_status": "OPERATIONAL", "geometry": {"location": {"lat": 27.4051072, "lng": 80.12177489999999}, "viewport": {"northeast": {"lat": 27.4064840802915, "lng": 80.1231402802915}, "southwest": {"lat": 27.4037861197085, "lng": 80.12044231970849}}}, "icon": "https://maps.gstatic.com/mapfiles/place_api/icons/v1/png_71/civic_building-71.png", "icon_background_color": "#7B9EB0", "icon_mask_base_uri": "https://maps.gstatic.com/mapfiles/place_api/icons/v2/civic-bldg_pinlet", "name": "Chowki pihani chungi", "place_id": "ChIJ38GS_FX5njkRLtVayV3dv-o", "reference": "ChIJ38GS_FX5njkRLtVayV3dv-o", "scope": "GOOGLE", "types": ["police", "point_of_interest", "establishment"], "vicinity": "C44C+2PR, Azadnagar, Hardoi"}, {"business_status": "OPERATIONAL", "geometry": {"location": {"lat": 27.3958127, "lng": 80.1233366}, "viewport": {"northeast": {"lat": 27.3972077802915, "lng": 80.1247669802915}, "southwest": {"lat": 27.3945098197085, "lng": 80.12206901970849}}}, "icon": "https://maps.gstatic.com/mapfiles/place_api/icons/v1/png_71/civic_building-71.png", "icon_background_color": "#7B9EB0", "icon_mask_base_uri": "https://maps.gstatic.com/mapfiles/place_api/icons/v2/civic-bldg_pinlet", "name": "Kotwali Shahar Janpad Hardoi", "opening_hours": {"open_now": true}, "photos": [{"height": 4160, "html_attributions": ["<a href=\"https://maps.google.com/maps/contrib/105498005269831294676\">Rasal Sharma</a>"], "photo_reference": "Aap_uECDJTNyK4F_acc2P3rMVKr3shI-eQseTxwhEK8WGNGNIDgPyhVB-8vEyA4z1FDZltTKgv9gR70M4fJWF-qA9m3r7_DLUkgnXJr1QgiXKtE897yD0VqZBNCuCcQHGH46ahFMkvPjm5OdV6U4RYjCif2B2CxwZfJyAuD_znUKCehPY7jJ", "width": 3120}], "place_id": "ChIJAbm4AiP4njkRaEKa4QoYrMQ", "plus_code": {"compound_code": "94WF+88 Hardoi, Uttar Pradesh, India", "global_code": "7MV294WF+88"}, "rating": 4, "reference": "ChIJAbm4AiP4njkRaEKa4QoYrMQ", "scope": "GOOGLE", "types": ["police", "point_of_interest", "establishment"], "user_ratings_total": 63, "vicinity": "Hardoi Road, Hardoi"}, {"business_status": "OPERATIONAL", "geometry": {"location": {"lat": 27.397433, "lng": 80.13456750000002}, "viewport": {"northeast": {"lat": 27.3990515802915, "lng": 80.13584293029153}, "southwest": {"lat": 27.3963536197085, "lng": 80.13314496970852}}}, "icon": "https://maps.gstatic.com/mapfiles/place_api/icons/v1/png_71/civic_building-71.png", "icon_background_color": "#7B9EB0", "icon_mask_base_uri": "https://maps.gstatic.com/mapfiles/place_api/icons/v2/civic-bldg_pinlet", "name": "SP Office Hardoi", "opening_hours": {"open_now": false}, "photos": [{"height": 1080, "html_attributions": ["<a href=\"https://maps.google.com/maps/contrib/103298931918821448557\">Avaneesh kumar</a>"], "photo_reference": "Aap_uECVIJ7aBvafWAhf5kBKdDU_BGe5SNXPoEss2ejFVVNwivBWJT2kky6St5-1eMbxZzyZqBbcGt_0VprZk-GOjGOzEg0PGtz8drdIqpfYT3qTFykscot0liBylPBik51us7Z_s6jeuxn7gor7VtSlpX1Ll8sbCOjv1gwCUDeVak9fSj_K", "width": 1920}], "place_id": "ChIJhaT58RP5njkRwj98q3UQ-y8", "rating": 3.4, "reference": "ChIJhaT58RP5njkRwj98q3UQ-y8", "scope": "GOOGLE", "types": ["police", "local_government_office", "point_of_interest", "establishment"], "user_ratings_total": 8, "vicinity": "94WM+XRG, Hardoi"}, {"business_status": "OPERATIONAL", "geometry": {"location": {"lat": 27.3977643, "lng": 80.13523789999999}, "viewport": {"northeast": {"lat": 27.3991001302915, "lng": 80.1365299302915}, "southwest": {"lat": 27.3964021697085, "lng": 80.1338319697085}}}, "icon": "https://maps.gstatic.com/mapfiles/place_api/icons/v1/png_71/civic_building-71.png", "icon_background_color": "#7B9EB0", "icon_mask_base_uri": "https://maps.gstatic.com/mapfiles/place_api/icons/v2/civic-bldg_pinlet", "name": "\u092e\u0939\u093f\u0932\u093e \u0925\u093e\u0928\u093e", "place_id": "ChIJQcmrMC74njkR9eKsTe7R1vQ", "rating": 4.4, "reference": "ChIJQcmrMC74njkR9eKsTe7R1vQ", "scope": "GOOGLE", "types": ["police", "point_of_interest", "establishment"], "user_ratings_total": 5, "vicinity": "94XP+435, Hardoi"}, {"business_status": "OPERATIONAL", "geometry": {"location": {"lat": 27.393821, "lng": 80.12420159999999}, "viewport": {"northeast": {"lat": 27.39515078029151, "lng": 80.1256811302915}, "southwest": {"lat": 27.3924528197085, "lng": 80.12298316970849}}}, "icon": "https://maps.gstatic.com/mapfiles/place_api/icons/v1/png_71/civic_building-71.png", "icon_background_color": "#7B9EB0", "icon_mask_base_uri": "https://maps.gstatic.com/mapfiles/place_api/icons/v2/civic-bldg_pinlet", "name": "Police Chowki Sadar", "place_id": "ChIJL1zCuCP4njkR9U6Lwk0zAN8", "rating": 3.8, "reference": "ChIJL1zCuCP4njkR9U6Lwk0zAN8", "scope": "GOOGLE", "types": ["police", "point_of_interest", "establishment"], "user_ratings_total": 9, "vicinity": "94VF+GMG, Hardoi"}, {"business_status": "CLOSED_TEMPORARILY", "geometry": {"location": {"lat": 27.3993226, "lng": 80.13737789999999}, "viewport": {"northeast": {"lat": 27.4005191802915, "lng": 80.13868853029149}, "southwest": {"lat": 27.3978212197085, "lng": 80.13599056970848}}}, "icon": "https://maps.gstatic.com/mapfiles/place_api/icons/v1/png_71/school-71.png", "icon_background_color": "#7B9EB0", "icon_mask_base_uri": "https://maps.gstatic.com/mapfiles/place_api/icons/v2/school_pinlet", "name": "Reserve Police Line", "permanently_closed": true, "photos": [{"height": 2304, "html_attributions": ["<a href=\"https://maps.google.com/maps/contrib/107930029472642460981\">Gopal Dwivedi</a>"], "photo_reference": "Aap_uEAybzVsB4u8ccgiiNwhb6OaYvUrp_9psVpV2qM3UcZ4JEoY7kTwbXAgVLZzinxT_jTSBzHQaKjAXcUJVE_oBxs5BJzdS2RHxHsqjPHepbSjPEaS5MVnFGLCuhksSQfW7apX4W1bUuCNMgurVvYY5C7ovlNRa_Ij6CmP4ezIwx2ygIzB", "width": 4096}], "place_id": "ChIJg8osATL4njkRVNMNnGUlTRg", "rating": 4.2, "reference": "ChIJg8osATL4njkRVNMNnGUlTRg", "scope": "GOOGLE", "types": ["police", "point_of_interest", "establishment"], "user_ratings_total": 14, "vicinity": "94XP+PXC, Aneg Behta"}, {"business_status": "OPERATIONAL", "geometry": {"location": {"lat": 27.3919433, "lng": 80.12399710000001}, "viewport": {"northeast": {"lat": 27.3932843302915, "lng": 80.12539148029151}, "southwest": {"lat": 27.3905863697085, "lng": 80.1226935197085}}}, "icon": "https://maps.gstatic.com/mapfiles/place_api/icons/v1/png_71/civic_building-71.png", "icon_background_color": "#7B9EB0", "icon_mask_base_uri": "https://maps.gstatic.com/mapfiles/place_api/icons/v2/civic-bldg_pinlet", "name": "BADA CHAURAHA BARRIER POLICE", "place_id": "ChIJ45ZFgan5njkRW83RunjTKww", "plus_code": {"compound_code": "94RF+QH Hardoi, Uttar Pradesh, India", "global_code": "7MV294RF+QH"}, "reference": "ChIJ45ZFgan5njkRW83RunjTKww", "scope": "GOOGLE", "types": ["police", "point_of_interest", "establishment"], "vicinity": "Hardoi - Kanpur Road, Hardoi"}, {"business_status": "OPERATIONAL", "geometry": {"location": {"lat": 27.4015054, "lng": 80.1388458}, "viewport": {"northeast": {"lat": 27.4031955802915, "lng": 80.14022423029151}, "southwest": {"lat": 27.4004976197085, "lng": 80.1375262697085}}}, "icon": "https://maps.gstatic.com/mapfiles/place_api/icons/v1/png_71/civic_building-71.png", "icon_background_color": "#7B9EB0", "icon_mask_base_uri": "https://maps.gstatic.com/mapfiles/place_api/icons/v2/civic-bldg_pinlet", "name": "UP 100 Office", "place_id": "ChIJJU-ayVT5njkRdXO1XLPZwvQ", "reference": "ChIJJU-ayVT5njkRdXO1XLPZwvQ", "scope": "GOOGLE", "types": ["police", "point_of_interest", "establishment"], "vicinity": "C42Q+JG5, Aneg Behta"}, {"business_status": "OPERATIONAL", "geometry": {"location": {"lat": 27.3968933, "lng": 80.1394577}, "viewport": {"northeast": {"lat": 27.3982491802915, "lng": 80.1407720302915}, "southwest": {"lat": 27.3955512197085, "lng": 80.1380740697085}}}, "icon": "https://maps.gstatic.com/mapfiles/place_api/icons/v1/png_71/civic_building-71.png", "icon_background_color": "#7B9EB0", "icon_mask_base_uri": "https://maps.gstatic.com/mapfiles/place_api/icons/v2/civic-bldg_pinlet", "name": "Sivangi", "place_id": "ChIJ0cY98VT5njkRJnf2CRF4ZdM", "plus_code": {"compound_code": "94WQ+QQ Hardoi, Uttar Pradesh, India", "global_code": "7MV294WQ+QQ"}, "reference": "ChIJ0cY98VT5njkRJnf2CRF4ZdM", "scope": "GOOGLE", "types": ["police", "point_of_interest", "establishment"], "vicinity": "192 B, Civil Lines, Avas Vikas Colony, Hardoi"}, {"business_status": "CLOSED_TEMPORARILY", "geometry": {"location": {"lat": 27.398696, "lng": 80.1406341}, "viewport": {"northeast": {"lat": 27.4000513802915, "lng": 80.1419347802915}, "southwest": {"lat": 27.3973534197085, "lng": 80.13923681970849}}}, "icon": "https://maps.gstatic.com/mapfiles/place_api/icons/v1/png_71/school-71.png", "icon_background_color": "#7B9EB0", "icon_mask_base_uri": "https://maps.gstatic.com/mapfiles/place_api/icons/v2/school_pinlet", "name": "Reserve Police Lines", "permanently_closed": true, "photos": [{"height": 2590, "html_attributions": ["<a href=\"https://maps.google.com/maps/contrib/112819395252090803132\">Shreyansh singh</a>"], "photo_reference": "Aap_uEBLbGHGYH5OIxKqgLuH8hKF4kSqhAM-Z-VYaBlEoX7lJOLZQr_dQtj8W9bXMRoLIeaja0KFagiZ3AZo3_nlTsQanO0yc_zZ3CEmSaTBA5NeiHY-tBGQjsXbmrSDKSiMf7x4rbdhGvJtaSaLQOf34ENIzLFjBgX1ymfXcCJ2QyHjjcgD", "width": 3254}], "place_id": "ChIJ73PKaC34njkReCpYZEYG5aI", "plus_code": {"compound_code": "94XR+F7 Maholiya Sheopar, Uttar Pradesh, India", "global_code": "7MV294XR+F7"}, "rating": 3.5, "reference": "ChIJ73PKaC34njkReCpYZEYG5aI", "scope": "GOOGLE", "types": ["police", "point_of_interest", "establishment"], "user_ratings_total": 10, "vicinity": "near jindpir, Chauraha, Sikri"}, {"geometry": {"location": {"lat": 27.3959309, "lng": 80.1230557}, "viewport": {"northeast": {"lat": 27.39735372438553, "lng": 80.12443282661437}, "southwest": {"lat": 27.39465576380252, "lng": 80.12173486603136}}}, "icon": "https://maps.gstatic.com/mapfiles/place_api/icons/v1/png_71/civic_building-71.png", "icon_background_color": "#7B9EB0", "icon_mask_base_uri": "https://maps.gstatic.com/mapfiles/place_api/icons/v2/civic-bldg_pinlet", "name": "Thana Kotwali Sehar", "place_id": "ChIJC1E2_SL4njkRVsUGoRwBrrg", "reference": "ChIJC1E2_SL4njkRVsUGoRwBrrg", "scope": "GOOGLE", "types": ["premise", "police", "point_of_interest", "establishment"], "vicinity": "Subhash Nagar"}, {"geometry": {"location": {"lat": 27.4012611, "lng": 80.13797360000001}, "viewport": {"northeast": {"lat": 27.4022404455839, "lng": 80.14113383612082}, "southwest": {"lat": 27.3986655557461, "lng": 80.13576352789667}}}, "icon": "https://maps.gstatic.com/mapfiles/place_api/icons/v1/png_71/school-71.png", "icon_background_color": "#7B9EB0", "icon_mask_base_uri": "https://maps.gstatic.com/mapfiles/place_api/icons/v2/school_pinlet", "name": "Police lines", "place_id": "ChIJyxPIFTL4njkRRzEjKS28VuQ", "reference": "ChIJyxPIFTL4njkRRzEjKS28VuQ", "scope": "GOOGLE", "types": ["premise", "police", "point_of_interest", "establishment"], "vicinity": "Hardoi"}], "status": "OK"}