{"html_attributions": [], "results": [{"business_status": "OPERATIONAL", "geometry": {"location": {"lat": 26.30975949999999, "lng": 89.765074}, "viewport": {"northeast": {"lat": 26.3111088802915, "lng": 89.7664156302915}, "southwest": {"lat": 26.30841091970849, "lng": 89.76371766970848}}}, "icon": "https://maps.gstatic.com/mapfiles/place_api/icons/v1/png_71/bank-71.png", "icon_background_color": "#909CE1", "icon_mask_base_uri": "https://maps.gstatic.com/mapfiles/place_api/icons/v2/bank-intl_pinlet", "name": "Sagolia Assam More", "photos": [{"height": 1920, "html_attributions": ["<a href=\"https://maps.google.com/maps/contrib/117532029499020381716\">Esahoque Mondal</a>"], "photo_reference": "Aap_uEDP_Nh1WgC7p3mcbiV59GJmErCIVWmRf_IpQGT7NZW6W-A3FCpTekljb8IKemEEHatBJP9BwWb-3u0K98BsSnaxqgOBhyp86M6yEaEOTtIbWv0pBTyJcIs8bPp660TCvnx3qv7FhuIofDNNSufRSCbIE4lY32ynWzL38eraywHGctoo", "width": 1080}], "place_id": "ChIJN6bi072N4jkR8gZqUyDNdOE", "plus_code": {"compound_code": "8Q58+W2 Chhotoguma, Assam, India", "global_code": "7MRF8Q58+W2"}, "rating": 5, "reference": "ChIJN6bi072N4jkR8gZqUyDNdOE", "scope": "GOOGLE", "types": ["bank", "finance", "point_of_interest", "establishment"], "user_ratings_total": 2, "vicinity": "Deshbandhu Para Road, Assam More, Chhotoguma"}, {"business_status": "OPERATIONAL", "geometry": {"location": {"lat": 26.309773, "lng": 89.76524069999999}, "viewport": {"northeast": {"lat": 26.3111257302915, "lng": 89.7665209302915}, "southwest": {"lat": 26.3084277697085, "lng": 89.76382296970849}}}, "icon": "https://maps.gstatic.com/mapfiles/place_api/icons/v1/png_71/bank-71.png", "icon_background_color": "#909CE1", "icon_mask_base_uri": "https://maps.gstatic.com/mapfiles/place_api/icons/v2/bank-intl_pinlet", "name": "Mony invest", "place_id": "ChIJ1SFFRg2N4jkRplxriqXzZMg", "plus_code": {"compound_code": "8Q58+W3 Chagolia Pt.II, Assam, India", "global_code": "7MRF8Q58+W3"}, "reference": "ChIJ1SFFRg2N4jkRplxriqXzZMg", "scope": "GOOGLE", "types": ["bank", "finance", "point_of_interest", "establishment"], "vicinity": ""}, {"business_status": "OPERATIONAL", "geometry": {"location": {"lat": 26.309773, "lng": 89.76524069999999}, "viewport": {"northeast": {"lat": 26.3111257302915, "lng": 89.7665209302915}, "southwest": {"lat": 26.3084277697085, "lng": 89.76382296970849}}}, "icon": "https://maps.gstatic.com/mapfiles/place_api/icons/v1/png_71/bank-71.png", "icon_background_color": "#909CE1", "icon_mask_base_uri": "https://maps.gstatic.com/mapfiles/place_api/icons/v2/bank-intl_pinlet", "name": "State Bank of India - Sagolia Assam More Branch", "opening_hours": {"open_now": true}, "photos": [{"height": 3472, "html_attributions": ["<a href=\"https://maps.google.com/maps/contrib/115471614027380496833\">Kuldip Das</a>"], "photo_reference": "Aap_uEBZ9L9Ys7C8CyLQnNRMT0ma-A6RbR8jeskC2emT8L-OT1xLKJmE2Zx_e_PzxqiRtEqciigq_mGoHK05L6FlsBR4yhZLKPrHaLSjqw3SdL_L0j1wFU-duYHuurWjopOPCFSzGu9GK-qN4qQhlBSNXhGupQmFV4Vj33vzbXiJZ-ZL6h-b", "width": 4640}], "place_id": "ChIJUaOHixCM4jkRvoXy9Nh8R7A", "plus_code": {"compound_code": "8Q58+W3 Chhotoguma, Assam, India", "global_code": "7MRF8Q58+W3"}, "rating": 3.8, "reference": "ChIJUaOHixCM4jkRvoXy9Nh8R7A", "scope": "GOOGLE", "types": ["atm", "bank", "finance", "point_of_interest", "establishment"], "user_ratings_total": 22, "vicinity": "Assam More, Chhotoguma"}], "status": "OK"}