{"html_attributions": [], "results": [{"business_status": "OPERATIONAL", "geometry": {"location": {"lat": 26.048006, "lng": 90.1980956}, "viewport": {"northeast": {"lat": 26.0493507302915, "lng": 90.19944223029151}, "southwest": {"lat": 26.04665276970849, "lng": 90.19674426970849}}}, "icon": "https://maps.gstatic.com/mapfiles/place_api/icons/v1/png_71/generic_business-71.png", "icon_background_color": "#7B9EB0", "icon_mask_base_uri": "https://maps.gstatic.com/mapfiles/place_api/icons/v2/generic_pinlet", "name": "Mehbub Multi Complex", "opening_hours": {"open_now": true}, "photos": [{"height": 3472, "html_attributions": ["<a href=\"https://maps.google.com/maps/contrib/104855059600266972434\">Mehbub Multi Complex</a>"], "photo_reference": "Aap_uEDT6W68URFzQAtb3c6LfcNfkDN84YxZhzxf6-a_T3YcIaFrCNRuPcG_RlPoASuiXntIP2AmQoP-8N3sIldlQphk_aWuzQ1ofizTG8gIh3vGwo9Da9mg5ukl8j3mgq8vPATXp_X5KYsa_Z5FIO-LGjXaDeRBEvMPv7D_dzp5-tUwl8iA", "width": 4624}], "place_id": "ChIJs1wypnltWDcRX3RUA9GnMk4", "plus_code": {"compound_code": "25XX+66 Kodamtola, Assam, India", "global_code": "7MRG25XX+66"}, "rating": 4.7, "reference": "ChIJs1wypnltWDcRX3RUA9GnMk4", "scope": "GOOGLE", "types": ["bank", "finance", "electronics_store", "point_of_interest", "store", "establishment"], "user_ratings_total": 15, "vicinity": "Lakhipur - Jaleswar Road, Kodamtola"}, {"business_status": "OPERATIONAL", "geometry": {"location": {"lat": 26.048565, "lng": 90.1971457}, "viewport": {"northeast": {"lat": 26.0499029302915, "lng": 90.19848803029149}, "southwest": {"lat": 26.0472049697085, "lng": 90.19579006970848}}}, "icon": "https://maps.gstatic.com/mapfiles/place_api/icons/v1/png_71/bank-71.png", "icon_background_color": "#909CE1", "icon_mask_base_uri": "https://maps.gstatic.com/mapfiles/place_api/icons/v2/bank-intl_pinlet", "name": "SBI /CSP", "opening_hours": {"open_now": true}, "photos": [{"height": 2448, "html_attributions": ["<a href=\"https://maps.google.com/maps/contrib/105915121029880608594\">Vlogger Harun</a>"], "photo_reference": "Aap_uEB16HBQIP0VyQJbj_jY9EX-Zg_QUS_UPrOikPrCh_K9mUjmnFOnfDKnKlhTZ9d0QUj-152-IXjRq_pjxN4bI3yYdX1Gs0sz0wwRJnYZ1zscl9i8gNXXhr1taaiVXC6-Mw0Yv6h8h035N43FtKFY3SASu6eTchl_no-hyG0sfBMCt-Z_", "width": 3264}], "place_id": "ChIJv5kVFs5sWDcRhoN8gwEzg4g", "plus_code": {"compound_code": "25XW+CV Kodamtola, Assam, India", "global_code": "7MRG25XW+CV"}, "rating": 3, "reference": "ChIJv5kVFs5sWDcRhoN8gwEzg4g", "scope": "GOOGLE", "types": ["bank", "finance", "point_of_interest", "establishment"], "user_ratings_total": 2, "vicinity": "Lakhipur - Jaleswar Road, Kodamtola"}, {"business_status": "OPERATIONAL", "geometry": {"location": {"lat": 26.0491373, "lng": 90.19622269999999}, "viewport": {"northeast": {"lat": 26.0504862802915, "lng": 90.1975716802915}, "southwest": {"lat": 26.04778831970849, "lng": 90.1948737197085}}}, "icon": "https://maps.gstatic.com/mapfiles/place_api/icons/v1/png_71/bank-71.png", "icon_background_color": "#909CE1", "icon_mask_base_uri": "https://maps.gstatic.com/mapfiles/place_api/icons/v2/bank-intl_pinlet", "name": "UCO BANK", "opening_hours": {"open_now": true}, "place_id": "ChIJAQAA2zITWDcRaa6x_lDrh5U", "plus_code": {"compound_code": "25XW+MF Jaleswar Bill, Assam, India", "global_code": "7MRG25XW+MF"}, "rating": 4.4, "reference": "ChIJAQAA2zITWDcRaa6x_lDrh5U", "scope": "GOOGLE", "types": ["bank", "finance", "point_of_interest", "establishment"], "user_ratings_total": 5, "vicinity": "Unnamed Road, Jaleswar Bill"}], "status": "OK"}