{"html_attributions": [], "results": [{"business_status": "OPERATIONAL", "geometry": {"location": {"lat": 26.23062119999999, "lng": 90.2374134}, "viewport": {"northeast": {"lat": 26.2320535302915, "lng": 90.2387480302915}, "southwest": {"lat": 26.2293555697085, "lng": 90.23605006970848}}}, "icon": "https://maps.gstatic.com/mapfiles/place_api/icons/v1/png_71/bank-71.png", "icon_background_color": "#909CE1", "icon_mask_base_uri": "https://maps.gstatic.com/mapfiles/place_api/icons/v2/bank-intl_pinlet", "name": "United Bank of India", "opening_hours": {"open_now": true}, "photos": [{"height": 3096, "html_attributions": ["<a href=\"https://maps.google.com/maps/contrib/108793780069087405301\">INDEPENDENT CHANNEL</a>"], "photo_reference": "Aap_uEATmD3w05Rn05s-BDTBn3wqxFoC2c8AL17DIoORRRXhci0EeABYOjzgjhSF20RpoYepOHETBCu3Ld0ZoEFEPjRgbmlnnxpN_pGIU6OHCM0uLv9tgyYNyJP2YZS1FKqCc4GcFrkyQb-KQozeq8ZwPd716ncqxEfXRuI6gk4m-xk-75N-", "width": 4128}], "place_id": "ChIJK6mk8B1mWDcRTpan22769Fw", "plus_code": {"compound_code": "66JP+6X Bilasipara, Assam, India", "global_code": "7MRG66JP+6X"}, "rating": 3.3, "reference": "ChIJK6mk8B1mWDcRTpan22769Fw", "scope": "GOOGLE", "types": ["bank", "finance", "point_of_interest", "establishment"], "user_ratings_total": 9, "vicinity": "Bilasipara Main Road, Bilasipara"}, {"business_status": "OPERATIONAL", "geometry": {"location": {"lat": 26.230722, "lng": 90.2345914}, "viewport": {"northeast": {"lat": 26.2320259302915, "lng": 90.23595043029151}, "southwest": {"lat": 26.2293279697085, "lng": 90.23325246970849}}}, "icon": "https://maps.gstatic.com/mapfiles/place_api/icons/v1/png_71/bank-71.png", "icon_background_color": "#909CE1", "icon_mask_base_uri": "https://maps.gstatic.com/mapfiles/place_api/icons/v2/bank-intl_pinlet", "name": "UCO Bank", "opening_hours": {"open_now": true}, "photos": [{"height": 3456, "html_attributions": ["<a href=\"https://maps.google.com/maps/contrib/115665836993547143474\">Lets Talk</a>"], "photo_reference": "Aap_uEAvxBddWo9KeJA8yf9UaeEZ7Y2bWt2rEqR7Ycg9GBP3UZPVNkOa90Cz7dSjinpLO34Y--KlqC_LCkQzM3kiejyVCxMdoWJK0g0Ag2XIQa65EPNexrv4C6_L_7Glz1vhJN8-GrkbXOLGhewPjWLHSQcCx4A5qYZsxa7l7fT2wZ_1YA8_", "width": 4608}], "place_id": "ChIJXVLKWx1mWDcR8Eza2Vzs3us", "plus_code": {"compound_code": "66JM+7R Bilasipara, Assam, India", "global_code": "7MRG66JM+7R"}, "rating": 4.5, "reference": "ChIJXVLKWx1mWDcR8Eza2Vzs3us", "scope": "GOOGLE", "types": ["bank", "finance", "point_of_interest", "establishment"], "user_ratings_total": 4, "vicinity": "Bilasipara"}, {"business_status": "OPERATIONAL", "geometry": {"location": {"lat": 26.2315418, "lng": 90.24181589999999}, "viewport": {"northeast": {"lat": 26.2328816802915, "lng": 90.2432114802915}, "southwest": {"lat": 26.2301837197085, "lng": 90.24051351970849}}}, "icon": "https://maps.gstatic.com/mapfiles/place_api/icons/v1/png_71/bank-71.png", "icon_background_color": "#909CE1", "icon_mask_base_uri": "https://maps.gstatic.com/mapfiles/place_api/icons/v2/bank-intl_pinlet", "name": "United Bank Of India", "opening_hours": {"open_now": true}, "place_id": "ChIJhyMnwR9mWDcRX0RpaQLkrMM", "plus_code": {"compound_code": "66JR+JP Bilasipara, Assam, India", "global_code": "7MRG66JR+JP"}, "rating": 2, "reference": "ChIJhyMnwR9mWDcRX0RpaQLkrMM", "scope": "GOOGLE", "types": ["bank", "finance", "point_of_interest", "establishment"], "user_ratings_total": 2, "vicinity": "Purani Bazar, Bilasipara"}, {"business_status": "OPERATIONAL", "geometry": {"location": {"lat": 26.2309709, "lng": 90.23687579999999}, "viewport": {"northeast": {"lat": 26.2323162802915, "lng": 90.2382848302915}, "southwest": {"lat": 26.2296183197085, "lng": 90.2355868697085}}}, "icon": "https://maps.gstatic.com/mapfiles/place_api/icons/v1/png_71/bank-71.png", "icon_background_color": "#909CE1", "icon_mask_base_uri": "https://maps.gstatic.com/mapfiles/place_api/icons/v2/bank-intl_pinlet", "name": "Assam Garmin Vikash Bank", "opening_hours": {"open_now": true}, "place_id": "ChIJs2zZjx1mWDcRIszelnVoDPM", "plus_code": {"compound_code": "66JP+9Q Bilasipara, Assam, India", "global_code": "7MRG66JP+9Q"}, "rating": 5, "reference": "ChIJs2zZjx1mWDcRIszelnVoDPM", "scope": "GOOGLE", "types": ["bank", "finance", "point_of_interest", "establishment"], "user_ratings_total": 2, "vicinity": "Bilasipara"}, {"business_status": "OPERATIONAL", "geometry": {"location": {"lat": 26.2305571, "lng": 90.23611919999999}, "viewport": {"northeast": {"lat": 26.2318980802915, "lng": 90.23752028029149}, "southwest": {"lat": 26.22920011970849, "lng": 90.23482231970848}}}, "icon": "https://maps.gstatic.com/mapfiles/place_api/icons/v1/png_71/bank-71.png", "icon_background_color": "#909CE1", "icon_mask_base_uri": "https://maps.gstatic.com/mapfiles/place_api/icons/v2/bank-intl_pinlet", "name": "Noor.comunication", "place_id": "ChIJGyz4XzhnWDcRbSiZN9dsl-U", "plus_code": {"compound_code": "66JP+6C Bilasipara, Assam, India", "global_code": "7MRG66JP+6C"}, "reference": "ChIJGyz4XzhnWDcRbSiZN9dsl-U", "scope": "GOOGLE", "types": ["bank", "finance", "point_of_interest", "establishment"], "vicinity": "Masjid Road, Bilasipara"}], "status": "OK"}