{"html_attributions": [], "results": [{"business_status": "OPERATIONAL", "geometry": {"location": {"lat": 26.276289, "lng": 90.446513}, "viewport": {"northeast": {"lat": 26.27765323029151, "lng": 90.4477503802915}, "southwest": {"lat": 26.2749552697085, "lng": 90.44505241970849}}}, "icon": "https://maps.gstatic.com/mapfiles/place_api/icons/v1/png_71/bank-71.png", "icon_background_color": "#909CE1", "icon_mask_base_uri": "https://maps.gstatic.com/mapfiles/place_api/icons/v2/bank-intl_pinlet", "name": "Assam Gramin Vikash Bank", "opening_hours": {"open_now": true}, "photos": [{"height": 3000, "html_attributions": ["<a href=\"https://maps.google.com/maps/contrib/104665197547519947335\">Ekramul Sarkar</a>"], "photo_reference": "Aap_uEDxXECmYB8VLxNPI0FR4Mg3BWhHdu8BZZtNp4HZVP5OT4S1A-_PIZ9kKjFLe_G-okwPG8fuknvm_1qGLcXKz1htmYrEO0wN0J8gyJKAwy0qQFypdGWBiz2G2xqfR3yMFtabZP63qoBvcz65I2WASR6ZD_ioeYEL_P-JR2WTkL9ZRx1x", "width": 4000}], "place_id": "ChIJ89ZkuoBaWDcRbfycsGDZwH4", "plus_code": {"compound_code": "7CGW+GJ Chapar, Assam, India", "global_code": "7MRG7CGW+GJ"}, "rating": 4.3, "reference": "ChIJ89ZkuoBaWDcRbfycsGDZwH4", "scope": "GOOGLE", "types": ["bank", "finance", "point_of_interest", "establishment"], "user_ratings_total": 11, "vicinity": "National Highway 17, Chapar"}, {"business_status": "OPERATIONAL", "geometry": {"location": {"lat": 26.2823694, "lng": 90.44722949999999}, "viewport": {"northeast": {"lat": 26.2837090302915, "lng": 90.4486447302915}, "southwest": {"lat": 26.2810110697085, "lng": 90.4459467697085}}}, "icon": "https://maps.gstatic.com/mapfiles/place_api/icons/v1/png_71/bank-71.png", "icon_background_color": "#909CE1", "icon_mask_base_uri": "https://maps.gstatic.com/mapfiles/place_api/icons/v2/bank-intl_pinlet", "name": "Sun-Shine L&C. Co-op S.LTD.", "opening_hours": {"open_now": true}, "place_id": "ChIJqbk0zn5aWDcRJqmYhELUGyU", "plus_code": {"compound_code": "7CJW+WV Chapar, Assam, India", "global_code": "7MRG7CJW+WV"}, "rating": 4.8, "reference": "ChIJqbk0zn5aWDcRJqmYhELUGyU", "scope": "GOOGLE", "types": ["bank", "finance", "point_of_interest", "establishment"], "user_ratings_total": 4, "vicinity": "National Highway 17, Rowmari, Chapar"}, {"business_status": "OPERATIONAL", "geometry": {"location": {"lat": 26.2731079, "lng": 90.44418089999999}, "viewport": {"northeast": {"lat": 26.2744308302915, "lng": 90.4455222302915}, "southwest": {"lat": 26.2717328697085, "lng": 90.44282426970848}}}, "icon": "https://maps.gstatic.com/mapfiles/place_api/icons/v1/png_71/bank-71.png", "icon_background_color": "#909CE1", "icon_mask_base_uri": "https://maps.gstatic.com/mapfiles/place_api/icons/v2/bank-intl_pinlet", "name": "CSP, UCO Bank", "opening_hours": {"open_now": true}, "place_id": "ChIJ50V8HOFbWDcR3cze2wHcJ7I", "plus_code": {"compound_code": "7CFV+6M Chapar, Assam, India", "global_code": "7MRG7CFV+6M"}, "reference": "ChIJ50V8HOFbWDcR3cze2wHcJ7I", "scope": "GOOGLE", "types": ["bank", "finance", "point_of_interest", "establishment"], "vicinity": "Young Club Road, Kazipara, Chapar"}, {"business_status": "OPERATIONAL", "geometry": {"location": {"lat": 26.2725, "lng": 90.44420769999999}, "viewport": {"northeast": {"lat": 26.2738015302915, "lng": 90.4456305802915}, "southwest": {"lat": 26.2711035697085, "lng": 90.4429326197085}}}, "icon": "https://maps.gstatic.com/mapfiles/place_api/icons/v1/png_71/bank-71.png", "icon_background_color": "#909CE1", "icon_mask_base_uri": "https://maps.gstatic.com/mapfiles/place_api/icons/v2/bank-intl_pinlet", "name": "UCO Bank, Chapar", "opening_hours": {"open_now": true}, "photos": [{"height": 2340, "html_attributions": ["<a href=\"https://maps.google.com/maps/contrib/118292071416008725233\">Maniruddin Mansuri</a>"], "photo_reference": "Aap_uEBz36dK6jCJv1ITyAkKGyVi_FW08uzb50cBgp-4l3ik-DvbmSf2Wh2YJgeph5yc3ctvYVGn0R7837fTmb8qfUP1mjw4FPsaOVMLyXSBv1Wk0kkWc3kADK_SfXemBUClRRMFvPLkHj4U-Tj-hbS6bIt0IRQtnOldD4mS00p38xdxOzdU", "width": 4160}], "place_id": "ChIJ7abM6oZaWDcRo4SZ3p2IXSc", "plus_code": {"compound_code": "7CCV+XM Chapar, Assam, India", "global_code": "7MRG7CCV+XM"}, "rating": 3.9, "reference": "ChIJ7abM6oZaWDcRo4SZ3p2IXSc", "scope": "GOOGLE", "types": ["bank", "finance", "point_of_interest", "establishment"], "user_ratings_total": 17, "vicinity": "Owasis Complex, NH17, Kazipara, Chapar"}, {"business_status": "OPERATIONAL", "geometry": {"location": {"lat": 26.2694545, "lng": 90.44205389999999}, "viewport": {"northeast": {"lat": 26.27080503029151, "lng": 90.44333568029151}, "southwest": {"lat": 26.2681070697085, "lng": 90.4406377197085}}}, "icon": "https://maps.gstatic.com/mapfiles/place_api/icons/v1/png_71/bank-71.png", "icon_background_color": "#909CE1", "icon_mask_base_uri": "https://maps.gstatic.com/mapfiles/place_api/icons/v2/bank-intl_pinlet", "name": "Bandhan Bank - Chapar Branch", "opening_hours": {"open_now": true}, "place_id": "ChIJt3A1voVaWDcR1ZuPFIiPWX4", "rating": 3.4, "reference": "ChIJt3A1voVaWDcR1ZuPFIiPWX4", "scope": "GOOGLE", "types": ["bank", "finance", "point_of_interest", "establishment"], "user_ratings_total": 7, "vicinity": "7C9R+QRM, Azad Nagar, Kazipara, Chapar"}], "status": "OK"}