{"html_attributions": [], "results": [{"business_status": "OPERATIONAL", "geometry": {"location": {"lat": 26.0237364, "lng": 89.9719427}, "viewport": {"northeast": {"lat": 26.0251834802915, "lng": 89.9732646802915}, "southwest": {"lat": 26.0224855197085, "lng": 89.9705667197085}}}, "icon": "https://maps.gstatic.com/mapfiles/place_api/icons/v1/png_71/civic_building-71.png", "icon_background_color": "#7B9EB0", "icon_mask_base_uri": "https://maps.gstatic.com/mapfiles/place_api/icons/v2/civic-bldg_pinlet", "name": "District Agriculture Office", "opening_hours": {"open_now": false}, "photos": [{"height": 3096, "html_attributions": ["<a href=\"https://maps.google.com/maps/contrib/115482743244922693905\">Rafiqul Hoque</a>"], "photo_reference": "Aap_uEBg4nkbq_mFc2X58LcYS1tUOr9mVtUsvu-Xpcmn7A2m7AF3JqxipHKzF3td4HzoJnrFZOOr1F9DFKZAtFEwzDelWR6y_N2cfKM_27SOsOTGe_wLQKGyMQuIPQSgD7Zw3IP8qwGEHFK8GPa7kIAkCTkpLf-eeU8RMLmSC2kEhLWPAJPG", "width": 4128}], "place_id": "ChIJG6pTVTeg4jkRBBwWpUY5ZHo", "plus_code": {"compound_code": "2XFC+FQ Dhubri, Assam, India", "global_code": "7MRF2XFC+FQ"}, "rating": 4.1, "reference": "ChIJG6pTVTeg4jkRBBwWpUY5ZHo", "scope": "GOOGLE", "types": ["local_government_office", "point_of_interest", "establishment"], "user_ratings_total": 9, "vicinity": "College Road, Silghagri, Santi Nagar, Dhubri"}, {"business_status": "OPERATIONAL", "geometry": {"location": {"lat": 26.0241209, "lng": 89.9697487}, "viewport": {"northeast": {"lat": 26.0254803802915, "lng": 89.9710943802915}, "southwest": {"lat": 26.02278241970849, "lng": 89.9683964197085}}}, "icon": "https://maps.gstatic.com/mapfiles/place_api/icons/v1/png_71/civic_building-71.png", "icon_background_color": "#7B9EB0", "icon_mask_base_uri": "https://maps.gstatic.com/mapfiles/place_api/icons/v2/civic-bldg_pinlet", "name": "Dept Of Biotechnology, B.N college", "place_id": "ChIJaZU_1jCg4jkRU7n8eMj_K0o", "rating": 5, "reference": "ChIJaZU_1jCg4jkRU7n8eMj_K0o", "scope": "GOOGLE", "types": ["local_government_office", "point_of_interest", "establishment"], "user_ratings_total": 1, "vicinity": "2XF9+JVX, College Nagar, Dhubri"}, {"business_status": "CLOSED_TEMPORARILY", "geometry": {"location": {"lat": 26.0260542, "lng": 89.97034819999999}, "viewport": {"northeast": {"lat": 26.0274235302915, "lng": 89.9717776802915}, "southwest": {"lat": 26.0247255697085, "lng": 89.96907971970847}}}, "icon": "https://maps.gstatic.com/mapfiles/place_api/icons/v1/png_71/civic_building-71.png", "icon_background_color": "#7B9EB0", "icon_mask_base_uri": "https://maps.gstatic.com/mapfiles/place_api/icons/v2/civic-bldg_pinlet", "name": "NCC Office", "permanently_closed": true, "place_id": "ChIJj2Jf8DCg4jkRsZiX7QL3sdQ", "rating": 3.3, "reference": "ChIJj2Jf8DCg4jkRsZiX7QL3sdQ", "scope": "GOOGLE", "types": ["local_government_office", "point_of_interest", "establishment"], "user_ratings_total": 3, "vicinity": "2XGC+C4H, College Nagar, Dhubri"}, {"business_status": "OPERATIONAL", "geometry": {"location": {"lat": 26.0284701, "lng": 89.96840689999999}, "viewport": {"northeast": {"lat": 26.0298504302915, "lng": 89.9695812802915}, "southwest": {"lat": 26.0271524697085, "lng": 89.96688331970849}}}, "icon": "https://maps.gstatic.com/mapfiles/place_api/icons/v1/png_71/civic_building-71.png", "icon_background_color": "#7B9EB0", "icon_mask_base_uri": "https://maps.gstatic.com/mapfiles/place_api/icons/v2/civic-bldg_pinlet", "name": "Public Health Office,Dhubri", "opening_hours": {"open_now": false}, "photos": [{"height": 660, "html_attributions": ["<a href=\"https://maps.google.com/maps/contrib/110207327319136163175\">Moniruzzaman Hazarika</a>"], "photo_reference": "Aap_uEB0OYw76bo0BHUkHRzRuYla1Gtee-toFLgQO3-Kq-u3bP8F5qi-9FVsXgGLjj2N5qXSGxE28h1-Tp2vU6d9ztG05fAmXQTcSg7Rkibv6I4fOAasLbjd8uYfmSa_vDoYHL6vrNj0SEGcW7ugPIPzDFJBfUaRHHxnJaw6glU9uye_aoC0", "width": 1000}], "place_id": "ChIJN5CI6TGg4jkRVbPy356oVts", "plus_code": {"compound_code": "2XH9+99 Dhubri, Assam, India", "global_code": "7MRF2XH9+99"}, "rating": 1.5, "reference": "ChIJN5CI6TGg4jkRVbPy356oVts", "scope": "GOOGLE", "types": ["local_government_office", "health", "point_of_interest", "establishment"], "user_ratings_total": 2, "vicinity": "College Nagar, Dhubri"}, {"business_status": "OPERATIONAL", "geometry": {"location": {"lat": 26.01420599999999, "lng": 89.965531}, "viewport": {"northeast": {"lat": 26.0155642302915, "lng": 89.96682373029151}, "southwest": {"lat": 26.01286626970849, "lng": 89.9641257697085}}}, "icon": "https://maps.gstatic.com/mapfiles/place_api/icons/v1/png_71/civic_building-71.png", "icon_background_color": "#7B9EB0", "icon_mask_base_uri": "https://maps.gstatic.com/mapfiles/place_api/icons/v2/civic-bldg_pinlet", "name": "www.officialjobportal.in", "photos": [{"height": 1950, "html_attributions": ["<a href=\"https://maps.google.com/maps/contrib/113890922353678684574\">www.officialjobportal.in</a>"], "photo_reference": "Aap_uEB1qNEhJsnPRAP_pjzsY3yNFWUi9Y_GW0QwtkhIDrhToWI6YNNT2C_U-3fVfZ5PFIfH1Dyka2JFS52mop0Nc6HkfmWDw8u4OCUYG5FMdfF12zXwTcBzp2RFjjtlRKVBJESjbsYxyGprn2EYFgw6Weg232vEX_NCwUFFucxqoeFZjzxk", "width": 1858}], "place_id": "ChIJwYXJr0ug4jkRhKzLav38j5g", "plus_code": {"compound_code": "2X78+M6 Dhubri, Assam, India", "global_code": "7MRF2X78+M6"}, "rating": 5, "reference": "ChIJwYXJr0ug4jkRhKzLav38j5g", "scope": "GOOGLE", "types": ["local_government_office", "point_of_interest", "establishment"], "user_ratings_total": 1, "vicinity": "Vill, Assam Match Company Road, Bagulamari, Dhubri"}, {"business_status": "OPERATIONAL", "geometry": {"location": {"lat": 26.0206981, "lng": 89.9743462}, "viewport": {"northeast": {"lat": 26.0219512302915, "lng": 89.97580808029151}, "southwest": {"lat": 26.01925326970849, "lng": 89.97311011970851}}}, "icon": "https://maps.gstatic.com/mapfiles/place_api/icons/v1/png_71/civic_building-71.png", "icon_background_color": "#7B9EB0", "icon_mask_base_uri": "https://maps.gstatic.com/mapfiles/place_api/icons/v2/civic-bldg_pinlet", "name": "ABVP office Dhubri", "place_id": "ChIJR5YuLIKh4jkRxNN8RWxf1EE", "plus_code": {"compound_code": "2XCF+7P Dhubri, Assam, India", "global_code": "7MRF2XCF+7P"}, "rating": 5, "reference": "ChIJR5YuLIKh4jkRxNN8RWxf1EE", "scope": "GOOGLE", "types": ["local_government_office", "point_of_interest", "establishment"], "user_ratings_total": 2, "vicinity": "Pound Road, Paulpara, Dhubri"}, {"business_status": "OPERATIONAL", "geometry": {"location": {"lat": 26.0141703, "lng": 89.9582095}, "viewport": {"northeast": {"lat": 26.01552248029151, "lng": 89.95960428029152}, "southwest": {"lat": 26.0128245197085, "lng": 89.9569063197085}}}, "icon": "https://maps.gstatic.com/mapfiles/place_api/icons/v1/png_71/civic_building-71.png", "icon_background_color": "#7B9EB0", "icon_mask_base_uri": "https://maps.gstatic.com/mapfiles/place_api/icons/v2/civic-bldg_pinlet", "name": "Panchayat Office Airanjongla pt1 By Mozid Ali upload", "opening_hours": {"open_now": false}, "photos": [{"height": 960, "html_attributions": ["<a href=\"https://maps.google.com/maps/contrib/110556421990811322245\">Technical Marshal</a>"], "photo_reference": "Aap_uEBq9dtLlbRiV0O_dd1J8z0cpfGm4LdRxhProddRZCT-rJX56DEYWhX56aHRkVL4MesWpivNPCETrFcGmpiACA3lTQMuKBK8QIvN0mYcmkyXEPnWKvvdTXhR8AZWHcu8b2B-_KWHO3RfmWfbXowckAXIwWu0fFHD7ueD7y7g8wmJDx2v", "width": 540}], "place_id": "ChIJr5KCnsSh4jkRKsXnGtV87iw", "rating": 5, "reference": "ChIJr5KCnsSh4jkRKsXnGtV87iw", "scope": "GOOGLE", "types": ["local_government_office", "point_of_interest", "establishment"], "user_ratings_total": 2, "vicinity": "2X75+M78, Bagulamari, Dhubri"}, {"business_status": "OPERATIONAL", "geometry": {"location": {"lat": 26.01419379999999, "lng": 89.9580922}, "viewport": {"northeast": {"lat": 26.0156335302915, "lng": 89.9594618302915}, "southwest": {"lat": 26.01293556970849, "lng": 89.9567638697085}}}, "icon": "https://maps.gstatic.com/mapfiles/place_api/icons/v1/png_71/civic_building-71.png", "icon_background_color": "#7B9EB0", "icon_mask_base_uri": "https://maps.gstatic.com/mapfiles/place_api/icons/v2/civic-bldg_pinlet", "name": "Bhassani Char Gaon Panchayat", "opening_hours": {"open_now": false}, "photos": [{"height": 1080, "html_attributions": ["<a href=\"https://maps.google.com/maps/contrib/101849135951020512679\">Shaidul Islam</a>"], "photo_reference": "Aap_uEDcq2xYYdr27-EwqHAlpxn-PwKS1yHcsnM_New4z_yHvCufYSLZHH_a1SccLu31AJkkrooEOORQeaUGOUgJYoVtjw5lJIVzMjWpBcOv-jCjCeZQrMJkKph-8u42DfNPZLr8E3s1mAcgqmdCkA_KZHB2skqidFLWGB-S4efmNCBRWisv", "width": 1920}], "place_id": "ChIJkVJIKLSh4jkRDzdc9CTddks", "rating": 4, "reference": "ChIJkVJIKLSh4jkRDzdc9CTddks", "scope": "GOOGLE", "types": ["local_government_office", "point_of_interest", "establishment"], "user_ratings_total": 2, "vicinity": "2X75+M6G, Bagulamari, Dhubri"}, {"business_status": "OPERATIONAL", "geometry": {"location": {"lat": 26.0166017, "lng": 89.97354}, "viewport": {"northeast": {"lat": 26.0179497302915, "lng": 89.9748562302915}, "southwest": {"lat": 26.0152517697085, "lng": 89.97215826970847}}}, "icon": "https://maps.gstatic.com/mapfiles/place_api/icons/v1/png_71/civic_building-71.png", "icon_background_color": "#7B9EB0", "icon_mask_base_uri": "https://maps.gstatic.com/mapfiles/place_api/icons/v2/civic-bldg_pinlet", "name": "Nagrik Vikas Kendra Office Dhubri", "opening_hours": {"open_now": false}, "place_id": "ChIJ1SP7Ptah4jkRPcdiXYbS2uc", "plus_code": {"compound_code": "2X8F+JC Dhubri, Assam, India", "global_code": "7MRF2X8F+JC"}, "rating": 3, "reference": "ChIJ1SP7Ptah4jkRPcdiXYbS2uc", "scope": "GOOGLE", "types": ["local_government_office", "point_of_interest", "establishment"], "user_ratings_total": 1, "vicinity": "Bidyapara by Lane, Ward Number 9, Bidyapara, Dhubri"}, {"business_status": "OPERATIONAL", "geometry": {"location": {"lat": 26.0246686, "lng": 89.9524457}, "viewport": {"northeast": {"lat": 26.0259856302915, "lng": 89.9537913302915}, "southwest": {"lat": 26.02328766970849, "lng": 89.95109336970849}}}, "icon": "https://maps.gstatic.com/mapfiles/place_api/icons/v1/png_71/civic_building-71.png", "icon_background_color": "#7B9EB0", "icon_mask_base_uri": "https://maps.gstatic.com/mapfiles/place_api/icons/v2/civic-bldg_pinlet", "name": "Adabari Gaon Panchayat Office", "opening_hours": {"open_now": false}, "photos": [{"height": 3456, "html_attributions": ["<a href=\"https://maps.google.com/maps/contrib/103066851524964165022\">Sabbir Hussain</a>"], "photo_reference": "Aap_uEDWz3GaOzO-3RIfSWkDNU9mfr0UWh1_sWm2uaHw8DovVEfs3J-XV2L5VsTMOqmeJU-i1olVqAgPS1OR4dj1djeVpymL_xWdEtz9K3enUD6HKuxletwHzlb7ZEnxkWdTRdnPMb2KJkw75FR1GJ3FJ8CppHPeM9wPbixcBAzCtumJCsW6", "width": 4608}], "place_id": "ChIJEZG5Be6h4jkRSZ6CA83U0wo", "plus_code": {"compound_code": "2XF2+VX Choto Bashjani, Assam, India", "global_code": "7MRF2XF2+VX"}, "reference": "ChIJEZG5Be6h4jkRSZ6CA83U0wo", "scope": "GOOGLE", "types": ["local_government_office", "point_of_interest", "establishment"], "vicinity": "Unnamed Road, Adabari PT 1, Choto Bashjani"}, {"business_status": "OPERATIONAL", "geometry": {"location": {"lat": 26.03049489999999, "lng": 89.9719913}, "viewport": {"northeast": {"lat": 26.0316587302915, "lng": 89.9731308802915}, "southwest": {"lat": 26.02896076970849, "lng": 89.9704329197085}}}, "icon": "https://maps.gstatic.com/mapfiles/place_api/icons/v1/png_71/civic_building-71.png", "icon_background_color": "#7B9EB0", "icon_mask_base_uri": "https://maps.gstatic.com/mapfiles/place_api/icons/v2/civic-bldg_pinlet", "name": "Water Tank", "opening_hours": {"open_now": true}, "place_id": "ChIJaZQs9i-g4jkRoSk0-bWLyZE", "rating": 3, "reference": "ChIJaZQs9i-g4jkRoSk0-bWLyZE", "scope": "GOOGLE", "types": ["local_government_office", "health", "point_of_interest", "establishment"], "user_ratings_total": 1, "vicinity": "2XJC+5QX, College Nagar, Dhubri"}, {"business_status": "OPERATIONAL", "geometry": {"location": {"lat": 26.023255, "lng": 89.9776274}, "viewport": {"northeast": {"lat": 26.02460398029151, "lng": 89.9789763802915}, "southwest": {"lat": 26.0219060197085, "lng": 89.97627841970849}}}, "icon": "https://maps.gstatic.com/mapfiles/place_api/icons/v1/png_71/civic_building-71.png", "icon_background_color": "#7B9EB0", "icon_mask_base_uri": "https://maps.gstatic.com/mapfiles/place_api/icons/v2/civic-bldg_pinlet", "name": "Railway Police Office", "opening_hours": {"open_now": true}, "photos": [{"height": 2560, "html_attributions": ["<a href=\"https://maps.google.com/maps/contrib/111282283183067262244\">QTV baby</a>"], "photo_reference": "Aap_uEAM480jr8GVnjeDrNeTjLsZ4q4C28qkVnQkUUJTbAT1-iicTkxfxW4q8N0j8J1veg0qhTQ4YsIaI9InY7xehQorpYqQETp0rIjtwCN6EhPJnGCvXDcvAe-1DOn_LzVi5w2NlXX1SEMd4nUwr3zcCBLE_gELVWSC47wouOXXWn7utbDr", "width": 1440}], "place_id": "ChIJkd6hppeh4jkRCMEyLHp10pM", "rating": 3, "reference": "ChIJkd6hppeh4jkRCMEyLHp10pM", "scope": "GOOGLE", "types": ["police", "local_government_office", "point_of_interest", "establishment"], "user_ratings_total": 1, "vicinity": "2XFH+832, Bidyapara, Dhubri"}], "status": "OK"}