{"html_attributions": [], "results": [{"business_status": "OPERATIONAL", "geometry": {"location": {"lat": 25.5201022, "lng": 90.18268789999999}, "viewport": {"northeast": {"lat": 25.5216232802915, "lng": 90.1841179302915}, "southwest": {"lat": 25.5189253197085, "lng": 90.18141996970849}}}, "icon": "https://maps.gstatic.com/mapfiles/place_api/icons/v1/png_71/civic_building-71.png", "icon_background_color": "#7B9EB0", "icon_mask_base_uri": "https://maps.gstatic.com/mapfiles/place_api/icons/v2/civic-bldg_pinlet", "name": "District Transport Office", "opening_hours": {"open_now": false}, "photos": [{"height": 1920, "html_attributions": ["<a href=\"https://maps.google.com/maps/contrib/100308087068367029139\">kamal suryadevara</a>"], "photo_reference": "Aap_uEAwMSX8yinoz_7uOO5f4NukjHuq4ykZLp02UYdBFAzSeKUiBiNlyblfw2ij7zAY0NegkuC8pcPuuhOl-IdXHhiXOaJQhiapL8uReVR6BoRk3yp4cCxczyDOvY9ugEFuxgwHtwLrVdYlkuccX6J_LF-ysUsrQ5seaOL0eahN8foC0XP9", "width": 1080}], "place_id": "ChIJZaev-1XwVzcRgckPFDbdqVk", "rating": 3, "reference": "ChIJZaev-1XwVzcRgckPFDbdqVk", "scope": "GOOGLE", "types": ["local_government_office", "point_of_interest", "establishment"], "user_ratings_total": 103, "vicinity": "G5CM+23W, Tura"}, {"business_status": "OPERATIONAL", "geometry": {"location": {"lat": 25.5203143, "lng": 90.181095}, "viewport": {"northeast": {"lat": 25.5216969302915, "lng": 90.1822987802915}, "southwest": {"lat": 25.5189989697085, "lng": 90.1796008197085}}}, "icon": "https://maps.gstatic.com/mapfiles/place_api/icons/v1/png_71/civic_building-71.png", "icon_background_color": "#7B9EB0", "icon_mask_base_uri": "https://maps.gstatic.com/mapfiles/place_api/icons/v2/civic-bldg_pinlet", "name": "Eco Development Society Office", "place_id": "ChIJp6PjIVbwVzcR27qql-bdDIY", "reference": "ChIJp6PjIVbwVzcR27qql-bdDIY", "scope": "GOOGLE", "types": ["local_government_office", "point_of_interest", "establishment"], "vicinity": "G5CJ+4CH, Tura"}, {"business_status": "OPERATIONAL", "geometry": {"location": {"lat": 25.5186263, "lng": 90.18351369999999}, "viewport": {"northeast": {"lat": 25.5201479802915, "lng": 90.1849130302915}, "southwest": {"lat": 25.5174500197085, "lng": 90.18221506970849}}}, "icon": "https://maps.gstatic.com/mapfiles/place_api/icons/v1/png_71/civic_building-71.png", "icon_background_color": "#7B9EB0", "icon_mask_base_uri": "https://maps.gstatic.com/mapfiles/place_api/icons/v2/civic-bldg_pinlet", "name": "SMELIC OFFICE", "place_id": "ChIJJTATCQfxVzcRTPp5bZssFBQ", "reference": "ChIJJTATCQfxVzcRTPp5bZssFBQ", "scope": "GOOGLE", "types": ["local_government_office", "point_of_interest", "establishment"], "vicinity": "G59M+FC2, Tura"}, {"business_status": "OPERATIONAL", "geometry": {"location": {"lat": 25.5172895, "lng": 90.1841927}, "viewport": {"northeast": {"lat": 25.5186755302915, "lng": 90.1853074802915}, "southwest": {"lat": 25.5159775697085, "lng": 90.18260951970849}}}, "icon": "https://maps.gstatic.com/mapfiles/place_api/icons/v1/png_71/civic_building-71.png", "icon_background_color": "#7B9EB0", "icon_mask_base_uri": "https://maps.gstatic.com/mapfiles/place_api/icons/v2/civic-bldg_pinlet", "name": "Office Of The Inspector Of Schools", "place_id": "ChIJByp-UVTwVzcRaIqfm0QxOBU", "plus_code": {"compound_code": "G58M+WM Tura, Meghalaya, India", "global_code": "7MQGG58M+WM"}, "rating": 5, "reference": "ChIJByp-UVTwVzcRaIqfm0QxOBU", "scope": "GOOGLE", "types": ["local_government_office", "point_of_interest", "establishment"], "user_ratings_total": 1, "vicinity": "India"}, {"business_status": "OPERATIONAL", "geometry": {"location": {"lat": 25.5172568, "lng": 90.1844991}, "viewport": {"northeast": {"lat": 25.5187105302915, "lng": 90.1854740302915}, "southwest": {"lat": 25.5160125697085, "lng": 90.1827760697085}}}, "icon": "https://maps.gstatic.com/mapfiles/place_api/icons/v1/png_71/civic_building-71.png", "icon_background_color": "#7B9EB0", "icon_mask_base_uri": "https://maps.gstatic.com/mapfiles/place_api/icons/v2/civic-bldg_pinlet", "name": "District School Education Officer", "opening_hours": {"open_now": false}, "photos": [{"height": 1944, "html_attributions": ["<a href=\"https://maps.google.com/maps/contrib/111963372606556996279\">C T K Marak</a>"], "photo_reference": "Aap_uEAhCbzFpwr8_xUqenrNhBokcz3GFA4nBu54ThlZy0exdEIxIf-wUZ_Uj2_66NnSeZTUQAeVEXStHQnmAiswub4Tz5HzyqqUiJx7cT6QdX6KVQsGcIVMa92DWKCNTvlni7lpQ0X3I37f9gUzG7xEvh8g7otxG-0z4cuV0JBRU83Ts4we", "width": 2592}], "place_id": "ChIJbaN7VlTwVzcRMJBXMvgAAhs", "reference": "ChIJbaN7VlTwVzcRMJBXMvgAAhs", "scope": "GOOGLE", "types": ["local_government_office", "point_of_interest", "establishment"], "vicinity": "G58M+WQ5, Tura"}, {"business_status": "OPERATIONAL", "geometry": {"location": {"lat": 25.51792829999999, "lng": 90.17811499999999}, "viewport": {"northeast": {"lat": 25.5193736802915, "lng": 90.1793926802915}, "southwest": {"lat": 25.51667571970849, "lng": 90.1766947197085}}}, "icon": "https://maps.gstatic.com/mapfiles/place_api/icons/v1/png_71/civic_building-71.png", "icon_background_color": "#7B9EB0", "icon_mask_base_uri": "https://maps.gstatic.com/mapfiles/place_api/icons/v2/civic-bldg_pinlet", "name": "Beat Forest Officer Social Forestry Tura", "opening_hours": {"open_now": false}, "photos": [{"height": 720, "html_attributions": ["<a href=\"https://maps.google.com/maps/contrib/109607421842317344796\">Hambert Momin</a>"], "photo_reference": "Aap_uEAiazy1-PBAeqyiR75QHOXw4bd3MKSVi03Q5eLP3u3vm4VNIORphvHFlb8L_Ujl3rIPxEVJEue09otnZn9j80WX-bHMLGMNpgT9TX8GZFmgWlLsjqyadN7Sgvn_RVoJRnSmDATIWh_uBBK566V60gEJUKiLxqKrrTgbJBUirxvpw564", "width": 1280}], "place_id": "ChIJD7-Z1vjxVzcRdlW8bvrvB4g", "plus_code": {"compound_code": "G59H+56 Tura, Meghalaya, India", "global_code": "7MQGG59H+56"}, "reference": "ChIJD7-Z1vjxVzcRdlW8bvrvB4g", "scope": "GOOGLE", "types": ["local_government_office", "point_of_interest", "establishment"], "vicinity": "Forest complex, Holy Cross Hospital - Dakopgre Road, Tura"}, {"business_status": "OPERATIONAL", "geometry": {"location": {"lat": 25.5183532, "lng": 90.177712}, "viewport": {"northeast": {"lat": 25.5195959302915, "lng": 90.1790002302915}, "southwest": {"lat": 25.5168979697085, "lng": 90.17630226970849}}}, "icon": "https://maps.gstatic.com/mapfiles/place_api/icons/v1/png_71/civic_building-71.png", "icon_background_color": "#7B9EB0", "icon_mask_base_uri": "https://maps.gstatic.com/mapfiles/place_api/icons/v2/civic-bldg_pinlet", "name": "DFO Wildlife Office Tura", "opening_hours": {"open_now": false}, "photos": [{"height": 2651, "html_attributions": ["<a href=\"https://maps.google.com/maps/contrib/109607421842317344796\">Hambert Momin</a>"], "photo_reference": "Aap_uEAM2NVwH9NTmH0Y_nA3uG5mAw_vIZJ26kKWxgS04w9yhhYL05PgnBUw-q5YFoMOvx2bvKXYvisl-cOTCbbheoM3Hb611JIZJNwxuugnyMvjplUK4IC52hAjrLD1LVrJ24hb-RwYBA5gyz98F5K1O6gml5IfI1cwATk8hjJYkMNBQrbb", "width": 4418}], "place_id": "ChIJfQ1fvb_xVzcRie7PjE9PzTc", "rating": 4.5, "reference": "ChIJfQ1fvb_xVzcRie7PjE9PzTc", "scope": "GOOGLE", "types": ["local_government_office", "point_of_interest", "establishment"], "user_ratings_total": 2, "vicinity": "G59H+83W, Tura"}, {"business_status": "OPERATIONAL", "geometry": {"location": {"lat": 25.5179355, "lng": 90.1779974}, "viewport": {"northeast": {"lat": 25.5193538802915, "lng": 90.1792950802915}, "southwest": {"lat": 25.51665591970849, "lng": 90.17659711970849}}}, "icon": "https://maps.gstatic.com/mapfiles/place_api/icons/v1/png_71/civic_building-71.png", "icon_background_color": "#7B9EB0", "icon_mask_base_uri": "https://maps.gstatic.com/mapfiles/place_api/icons/v2/civic-bldg_pinlet", "name": "DFO social forestry office Tura", "opening_hours": {"open_now": false}, "photos": [{"height": 1840, "html_attributions": ["<a href=\"https://maps.google.com/maps/contrib/109607421842317344796\">Hambert Momin</a>"], "photo_reference": "Aap_uEDhZP-7NeQQlO-BcgfNA9CsNtpeDgCPdYZxR9o8g8ekMoVVx4spMfT-ObvGUBROgXnS6k2elzJfsw6vC7zfDi9E-g5xrL_8q_pczB4FOxhAZLGtQVJbnx_WJMQ2AXOJkw1AzhUgwpyl9WCL6ZLcr5sw9eX8xLyAFhW2k5xYiDt8KzxI", "width": 3264}], "place_id": "ChIJCzWjc5zxVzcRFdqwYpkOuu8", "rating": 4, "reference": "ChIJCzWjc5zxVzcRFdqwYpkOuu8", "scope": "GOOGLE", "types": ["local_government_office", "point_of_interest", "establishment"], "user_ratings_total": 1, "vicinity": "G59H+55H, Tura"}, {"business_status": "OPERATIONAL", "geometry": {"location": {"lat": 25.5154983, "lng": 90.1862177}, "viewport": {"northeast": {"lat": 25.5167168802915, "lng": 90.18748368029149}, "southwest": {"lat": 25.51401891970849, "lng": 90.18478571970849}}}, "icon": "https://maps.gstatic.com/mapfiles/place_api/icons/v1/png_71/civic_building-71.png", "icon_background_color": "#7B9EB0", "icon_mask_base_uri": "https://maps.gstatic.com/mapfiles/place_api/icons/v2/civic-bldg_pinlet", "name": "Public Health Engineering Department, state engineering", "place_id": "ChIJ85Mmu1TwVzcRd55Yg_I1_u8", "reference": "ChIJ85Mmu1TwVzcRd55Yg_I1_u8", "scope": "GOOGLE", "types": ["local_government_office", "point_of_interest", "establishment"], "vicinity": "G58P+5FW, Tura"}, {"business_status": "OPERATIONAL", "geometry": {"location": {"lat": 25.518144, "lng": 90.17724}, "viewport": {"northeast": {"lat": 25.5194610802915, "lng": 90.17875558029151}, "southwest": {"lat": 25.5167631197085, "lng": 90.17605761970849}}}, "icon": "https://maps.gstatic.com/mapfiles/place_api/icons/v1/png_71/civic_building-71.png", "icon_background_color": "#7B9EB0", "icon_mask_base_uri": "https://maps.gstatic.com/mapfiles/place_api/icons/v2/civic-bldg_pinlet", "name": "Wildlife Range Office Tura", "photos": [{"height": 1840, "html_attributions": ["<a href=\"https://maps.google.com/maps/contrib/109607421842317344796\">Hambert Momin</a>"], "photo_reference": "Aap_uEBbQz9_B5lmCxXvIZ2zxSj9FMkG_MjlPyWv2JYYgrt2yi8Ujz8xojOLADFgBHJ-wjQbwawZYSlbCazxizIpSqaZtXcN6diHM9roIOOvGHF0btH1wXx1QH9Q14N264jRBBgwVtXQNuGBPP5SymHiPZytCeyRdGY5hM5rkNeUJJHuZT04", "width": 3264}], "place_id": "ChIJC0L8qFXxVzcRa8PgXMxw1ak", "rating": 5, "reference": "ChIJC0L8qFXxVzcRa8PgXMxw1ak", "scope": "GOOGLE", "types": ["local_government_office", "point_of_interest", "establishment"], "user_ratings_total": 1, "vicinity": "G59G+7V5, Tura"}, {"business_status": "OPERATIONAL", "geometry": {"location": {"lat": 25.5204901, "lng": 90.175251}, "viewport": {"northeast": {"lat": 25.5220370802915, "lng": 90.1766673802915}, "southwest": {"lat": 25.51933911970849, "lng": 90.1739694197085}}}, "icon": "https://maps.gstatic.com/mapfiles/place_api/icons/v1/png_71/civic_building-71.png", "icon_background_color": "#7B9EB0", "icon_mask_base_uri": "https://maps.gstatic.com/mapfiles/place_api/icons/v2/civic-bldg_pinlet", "name": "Executive Engineer(CEW), A.H.& Vety., Tura", "photos": [{"height": 746, "html_attributions": ["<a href=\"https://maps.google.com/maps/contrib/113191220639999280654\">Er. Sengwat Sangma</a>"], "photo_reference": "Aap_uEAKeo80qXOjowWq94Sypd_7rypSySvXjNuy3jvTi6TLBXxY7CE6Uod3cYuXm2HkJw-sot-Gh5Mj56NQo79xGC-Br1cn-g5jIxXsi9mqwysUh4pC--Xp8JdbOti3aKfNCxIfOb81VNYe7O5YpFxFQSaVMQM1qOq8-9i-W8n1sS1k_ydy", "width": 676}], "place_id": "ChIJkQV4gFjwVzcRVl4sRax_Aq4", "plus_code": {"compound_code": "G5CG+54 Tura, Meghalaya, India", "global_code": "7MQGG5CG+54"}, "rating": 4.3, "reference": "ChIJkQV4gFjwVzcRVl4sRax_Aq4", "scope": "GOOGLE", "types": ["local_government_office", "point_of_interest", "establishment"], "user_ratings_total": 3, "vicinity": "Araimile-Dakopgre Road, Tura"}, {"business_status": "OPERATIONAL", "geometry": {"location": {"lat": 25.520575, "lng": 90.17519700000001}, "viewport": {"northeast": {"lat": 25.52208903029151, "lng": 90.17660618029151}, "southwest": {"lat": 25.5193910697085, "lng": 90.17390821970851}}}, "icon": "https://maps.gstatic.com/mapfiles/place_api/icons/v1/png_71/civic_building-71.png", "icon_background_color": "#7B9EB0", "icon_mask_base_uri": "https://maps.gstatic.com/mapfiles/place_api/icons/v2/civic-bldg_pinlet", "name": "Office of Executive Engineer(CEW), A.H.Veterinary deptt. , Dakopgre, Tura", "photos": [{"height": 746, "html_attributions": ["<a href=\"https://maps.google.com/maps/contrib/109379546247800335025\">sengwat tegite sangma</a>"], "photo_reference": "Aap_uEBvYfSKb4Kr2rrGkDKN0X1DmNGFUcRVNB2RfV4vcKvD6TolmR64MhtQCkbF0c49VCfPzpe0o234WhVDvKG7SYYxJwgBqWLN5wBYL76iW_svzlqIt2Mk0GaqjDQOxBd6r2vJe6FNZEy531MkNTBEK7z_9L0oMWQ47fxpSUUxOSvNtUHD", "width": 676}], "place_id": "ChIJnSsXgFjwVzcRyIl0OTtqAFo", "plus_code": {"compound_code": "G5CG+63 Tura, Meghalaya, India", "global_code": "7MQGG5CG+63"}, "rating": 5, "reference": "ChIJnSsXgFjwVzcRyIl0OTtqAFo", "scope": "GOOGLE", "types": ["local_government_office", "point_of_interest", "establishment"], "user_ratings_total": 2, "vicinity": "Holy Cross Hospital-Dakopgre Rd, New Tura"}, {"business_status": "OPERATIONAL", "geometry": {"location": {"lat": 25.5144659, "lng": 90.1891454}, "viewport": {"northeast": {"lat": 25.5156836802915, "lng": 90.1904674302915}, "southwest": {"lat": 25.5129857197085, "lng": 90.1877694697085}}}, "icon": "https://maps.gstatic.com/mapfiles/place_api/icons/v1/png_71/civic_building-71.png", "icon_background_color": "#7B9EB0", "icon_mask_base_uri": "https://maps.gstatic.com/mapfiles/place_api/icons/v2/civic-bldg_pinlet", "name": "Superintendent Of Fisheries", "opening_hours": {"open_now": false}, "place_id": "ChIJQbSNG-_xVzcREy0bFvUjQsA", "rating": 5, "reference": "ChIJQbSNG-_xVzcREy0bFvUjQsA", "scope": "GOOGLE", "types": ["local_government_office", "point_of_interest", "establishment"], "user_ratings_total": 1, "vicinity": "G57Q+QMJ, Tura"}, {"business_status": "OPERATIONAL", "geometry": {"location": {"lat": 25.51406470000001, "lng": 90.1930673}, "viewport": {"northeast": {"lat": 25.51544983029151, "lng": 90.1942824802915}, "southwest": {"lat": 25.5127518697085, "lng": 90.19158451970848}}}, "icon": "https://maps.gstatic.com/mapfiles/place_api/icons/v1/png_71/civic_building-71.png", "icon_background_color": "#7B9EB0", "icon_mask_base_uri": "https://maps.gstatic.com/mapfiles/place_api/icons/v2/civic-bldg_pinlet", "name": "PRIME Startup Hub Tura", "opening_hours": {"open_now": false}, "photos": [{"height": 1800, "html_attributions": ["<a href=\"https://maps.google.com/maps/contrib/108913422015428000279\">PRIME Startup Hub Tura</a>"], "photo_reference": "Aap_uEBr8N63Bu5LERxDMeYPErDthfX_mMs12woH0cLTB_aZ8uZNy6MjEZiQbceJfxD6WS5tTgWQoia70ujD83YV897rr0eNRuwQ6a8MrHb-N2n4f4kC0oCeccLJ-a8EBHycYHScWeC2blyoSW_KfBS1YhEzhHMGFjWAUSouaiPGhXiYsy-e", "width": 4000}], "place_id": "ChIJaWtiRazxVzcREBCTqAUdVbU", "plus_code": {"compound_code": "G57V+J6 Tura, Meghalaya, India", "global_code": "7MQGG57V+J6"}, "rating": 5, "reference": "ChIJaWtiRazxVzcREBCTqAUdVbU", "scope": "GOOGLE", "types": ["local_government_office", "point_of_interest", "establishment"], "user_ratings_total": 1, "vicinity": "opp. KV, Tourism Campus, Nazing Bazaar, Hotel Polo Orchid, opp. KV, Tura"}], "status": "OK"}